[{"county": "Leicestershire", "code": "E00129967", "lad": "Blaby", "rgn_main": "East Midlands", "population": 483, "amenities": [{"name": "N/A", "amenity": "post_box", "data_type": "node", "lat": "52.5675197", "lon": "-1.1669399", "other_tags": {"amenity": "post_box"}}, {"name": "Busy Bees Leicester Blaby", "amenity": "kindergarten", "data_type": "node", "lat": "52.5649646", "lon": "-1.1681932", "other_tags": {"addr:city": "Blaby", "addr:country": "GB", "addr:housenumber": "170", "addr:postcode": "LE8 4DP", "addr:street": "Lutterworth Road", "amenity": "kindergarten", "fhrs:authority": "Blaby", "fhrs:id": "1202068", "fhrs:local_authority_id": "46739", "name": "Busy Bees Leicester Blaby"}}, {"name": "N/A", "amenity": "parking", "data_type": "way", "lat": "52.5636069", "lon": "-1.1699702", "other_tags": {"amenity": "parking"}}]}, {"county": "Leicestershire", "code": "E00129968", "lad": "Blaby", "rgn_main": "East Midlands", "population": 299, "amenities": []}, {"county": "Leicestershire", "code": "E00129969", "lad": "Blaby", "rgn_main": "East Midlands", "population": 357, "amenities": []}, {"county": "Leicestershire", "code": "E00129970", "lad": "Blaby", "rgn_main": "East Midlands", "population": 329, "amenities": [{"name": "Oakfield School", "amenity": "school", "data_type": "way", "lat": "52.5655382", "lon": "-1.1478141", "other_tags": {"addr:city": "Blaby", "addr:country": "GB", "addr:postcode": "LE8 4FE", "addr:street": "Hospital Lane", "amenity": "school", "fhrs:authority": "Blaby", "fhrs:id": "1152990", "fhrs:local_authority_id": "19/0011/CP", "name": "Oakfield School", "ref:edubase": "136754"}}, {"name": "N/A", "amenity": "parking", "data_type": "way", "lat": "52.5679369", "lon": "-1.1542061", "other_tags": {"amenity": "parking"}}, {"name": "Blaby Methodist Church", "amenity": "place_of_worship", "data_type": "way", "lat": "52.5697015", "lon": "-1.1599988", "other_tags": {"addr:city": "Blaby", "addr:country": "GB", "addr:postcode": "LE8 4HL", "addr:street": "Winchester Road", "amenity": "place_of_worship", "building": "church", "denomination": "methodist", "fhrs:authority": "Blaby", "fhrs:id": "1201792", "fhrs:local_authority_id": "30058", "name": "Blaby Methodist Church", "religion": "christian"}}]}, {"county": "Leicestershire", "code": "E00129971", "lad": "Blaby", "rgn_main": "East Midlands", "population": 229, "amenities": []}, {"county": "Leicestershire", "code": "E00129972", "lad": "Blaby", "rgn_main": "East Midlands", "population": 325, "amenities": []}, {"county": "Leicestershire", "code": "E00129973", "lad": "Blaby", "rgn_main": "East Midlands", "population": 459, "amenities": [{"name": "Texaco", "amenity": "fuel", "data_type": "way", "lat": "52.5705698", "lon": "-1.1663043", "other_tags": {"amenity": "fuel", "area": "yes", "brand": "Texaco", "brand:wikidata": "Q775060", "brand:wikipedia": "en:Texaco", "building": "yes", "name": "Texaco", "opening_hours": "Mo-Su 07:00-23:00"}}, {"name": "N/A", "amenity": "parking", "data_type": "way", "lat": "52.5706002", "lon": "-1.1664638", "other_tags": {"access": "customers", "amenity": "parking"}}]}, {"county": "Leicestershire", "code": "E00129974", "lad": "Blaby", "rgn_main": "East Midlands", "population": 318, "amenities": []}, {"county": "Leicestershire", "code": "E00129975", "lad": "Blaby", "rgn_main": "East Midlands", "population": 277, "amenities": []}, {"county": "Leicestershire", "code": "E00129977", "lad": "Blaby", "rgn_main": "East Midlands", "population": 271, "amenities": []}, {"county": "Leicestershire", "code": "E00129978", "lad": "Blaby", "rgn_main": "East Midlands", "population": 227, "amenities": [{"name": "Hazlemere Medical Centre", "amenity": "doctors", "data_type": "node", "lat": "52.5721509", "lon": "-1.1647640", "other_tags": {"amenity": "doctors", "healthcare": "doctor", "name": "Hazlemere Medical Centre"}}, {"name": "Blaby Dental", "amenity": "dentist", "data_type": "node", "lat": "52.5730491", "lon": "-1.1647318", "other_tags": {"amenity": "dentist", "healthcare": "dentist", "name": "Blaby Dental"}}, {"name": "Bulls Head", "amenity": "pub", "data_type": "node", "lat": "52.5742187", "lon": "-1.1635181", "other_tags": {"addr:city": "Blaby", "addr:country": "GB", "addr:housenumber": "22", "addr:postcode": "LE8 4DN", "addr:street": "Lutterworth Road", "amenity": "pub", "fhrs:authority": "Blaby", "fhrs:id": "1202049", "fhrs:local_authority_id": "45906", "name": "Bulls Head"}}]}, {"county": "Leicestershire", "code": "E00129979", "lad": "Blaby", "rgn_main": "East Midlands", "population": 312, "amenities": [{"name": "N/A", "amenity": "post_box", "data_type": "node", "lat": "52.5698681", "lon": "-1.1691784", "other_tags": {"amenity": "post_box", "ref": "LE8 60"}}, {"name": "The Tom Thumb", "amenity": "pub", "data_type": "node", "lat": "52.5701070", "lon": "-1.1691103", "other_tags": {"amenity": "pub", "name": "The Tom Thumb", "postal_code": "LE8 3DH"}}]}, {"county": "Leicestershire", "code": "E00129980", "lad": "Blaby", "rgn_main": "East Midlands", "population": 209, "amenities": []}, {"county": "Leicestershire", "code": "E00129981", "lad": "Blaby", "rgn_main": "East Midlands", "population": 317, "amenities": [{"name": "N/A", "amenity": "post_box", "data_type": "node", "lat": "52.5694616", "lon": "-1.1641605", "other_tags": {"amenity": "post_box", "postal_code": "LE8 4", "ref": "LE8 685"}}]}, {"county": "Leicestershire", "code": "E00129982", "lad": "Blaby", "rgn_main": "East Midlands", "population": 372, "amenities": []}, {"county": "Leicestershire", "code": "E00129983", "lad": "Blaby", "rgn_main": "East Midlands", "population": 344, "amenities": [{"name": "Whetstone Golf Club", "amenity": "bar", "data_type": "node", "lat": "52.5579794", "lon": "-1.1865610", "other_tags": {"addr:city": "Cosby", "addr:country": "GB", "addr:postcode": "LE9 1SJ", "addr:street": "Cambridge Road", "amenity": "bar", "fhrs:authority": "Blaby", "fhrs:id": "1201583", "fhrs:local_authority_id": "2047", "name": "Whetstone Golf Club"}}, {"name": "Cosby Primary School", "amenity": "school", "data_type": "way", "lat": "52.5572064", "lon": "-1.1960292", "other_tags": {"addr:city": "Cosby", "addr:country": "GB", "addr:postcode": "LE9 1TE", "addr:street": "Portland Street", "amenity": "school", "capacity": "280", "fhrs:authority": "Blaby", "fhrs:id": "1201596", "fhrs:local_authority_id": "2098", "isced:level": "0;1", "max_age": "11", "min_age": "3", "name": "Cosby Primary School", "phone": "+44 116 2863103", "ref:GB:uprn": "100032072927", "ref:edubase": "138528", "ref:edubase:group": "16350", "religion": "none", "school:boarding": "no", "school:gender": "mixed", "school:selective": "no", "school:trust": "yes", "school:trust:name": "Success Academy Trust", "school:trust:type": "multi_academy", "school:type": "academy", "source": "bing", "website": "https://www.cosby.school/", "wikidata": "Q66165952"}}]}, {"county": "Leicestershire", "code": "E00129984", "lad": "Blaby", "rgn_main": "East Midlands", "population": 336, "amenities": []}, {"county": "Leicestershire", "code": "E00129985", "lad": "Blaby", "rgn_main": "East Midlands", "population": 318, "amenities": []}, {"county": "Leicestershire", "code": "E00129986", "lad": "Blaby", "rgn_main": "East Midlands", "population": 321, "amenities": [{"name": "Cosby Public Library", "amenity": "library", "data_type": "node", "lat": "52.5521509", "lon": "-1.1942702", "other_tags": {"amenity": "library", "name": "Cosby Public Library", "wikidata": "Q55121818"}}, {"name": "Cosby Village Hall", "amenity": "community_centre", "data_type": "node", "lat": "52.5515867", "lon": "-1.1948490", "other_tags": {"addr:city": "Cosby", "addr:country": "GB", "addr:postcode": "LE9 1RN", "addr:street": "Park Road", "amenity": "community_centre", "community_centre": "village_hall", "fhrs:authority": "Blaby", "fhrs:id": "1201595", "fhrs:local_authority_id": "2095", "name": "Cosby Village Hall"}}, {"name": "N/A", "amenity": "parking", "data_type": "way", "lat": "52.5517285", "lon": "-1.1949287", "other_tags": {"amenity": "parking", "parking": "surface"}}]}, {"county": "Leicestershire", "code": "E00129987", "lad": "Blaby", "rgn_main": "East Midlands", "population": 279, "amenities": [{"name": "The Bulls Head", "amenity": "pub", "data_type": "node", "lat": "52.5473347", "lon": "-1.1940779", "other_tags": {"addr:city": "Cosby", "addr:country": "GB", "addr:housenumber": "2", "addr:postcode": "LE9 1RQ", "addr:street": "The Nook", "amenity": "pub", "fhrs:authority": "Blaby", "fhrs:id": "1201592", "fhrs:local_authority_id": "2084", "name": "The Bulls Head"}}, {"name": "The Cook In The Nook", "amenity": "restaurant", "data_type": "node", "lat": "52.5475500", "lon": "-1.1948785", "other_tags": {"addr:city": "Cosby", "addr:country": "GB", "addr:housenumber": "24", "addr:postcode": "LE9 1RQ", "addr:street": "The Nook", "amenity": "restaurant", "fhrs:authority": "Blaby", "fhrs:id": "1158505", "fhrs:local_authority_id": "19/0027/CP", "name": "The Cook In The Nook"}}, {"name": "Cosby Post Office", "amenity": "post_office", "data_type": "node", "lat": "52.5478485", "lon": "-1.1948624", "other_tags": {"amenity": "post_office", "name": "Cosby Post Office"}}, {"name": "The Nook Fish Bar", "amenity": "fast_food", "data_type": "node", "lat": "52.5479203", "lon": "-1.1951682", "other_tags": {"amenity": "fast_food", "name": "The Nook Fish Bar"}}, {"name": "Cosby Toc-H", "amenity": "community_centre", "data_type": "node", "lat": "52.5483345", "lon": "-1.1963403", "other_tags": {"amenity": "community_centre", "name": "Cosby Toc-H"}}, {"name": "N/A", "amenity": "post_box", "data_type": "node", "lat": "52.5476695", "lon": "-1.1948029", "other_tags": {"amenity": "post_box", "post_box:type": "pillar", "royal_cypher": "EIIR"}}]}, {"county": "Leicestershire", "code": "E00129988", "lad": "Blaby", "rgn_main": "East Midlands", "population": 365, "amenities": [{"name": "Croft Hill Filling Station", "amenity": "fuel", "data_type": "node", "lat": "52.5595836", "lon": "-1.2263285", "other_tags": {"addr:city": "Croft", "addr:country": "GB", "addr:postcode": "LE9 3GP", "addr:street": "Coventry Road", "amenity": "fuel", "brand": "Esso", "brand:wikidata": "Q867662", "brand:wikipedia": "en:Esso", "name": "Croft Hill Filling Station", "operator": "Euro Garages"}}, {"name": "Cosby Community Church", "amenity": "place_of_worship", "data_type": "node", "lat": "52.5484748", "lon": "-1.1973408", "other_tags": {"amenity": "place_of_worship", "building": "chapel", "name": "Cosby Community Church", "religion": "christian"}}, {"name": "Brooke House Day School", "amenity": "school", "data_type": "way", "lat": "52.5490522", "lon": "-1.1985357", "other_tags": {"addr:city": "Cosby", "addr:country": "GB", "addr:postcode": "LE9 1SE", "addr:street": "Croft Road", "amenity": "school", "fhrs:authority": "Blaby", "fhrs:id": "1201588", "fhrs:local_authority_id": "2058", "name": "Brooke House Day School", "operator": "Private Educare Limited", "ref:edubase": "135185", "source": "bing", "source:addr": "FHRS Open Data"}}]}, {"county": "Leicestershire", "code": "E00129989", "lad": "Blaby", "rgn_main": "East Midlands", "population": 307, "amenities": [{"name": "Bangla Spice", "amenity": "restaurant", "data_type": "node", "lat": "52.5479086", "lon": "-1.1940310", "other_tags": {"addr:city": "Cosby", "addr:country": "GB", "addr:housename": "The Blacksmiths", "addr:housenumber": "77", "addr:postcode": "LE9 1UW", "addr:street": "Main Street", "amenity": "restaurant", "fhrs:authority": "Blaby", "fhrs:id": "1202043", "fhrs:local_authority_id": "45431", "name": "Bangla Spice", "note": "Closed"}}, {"name": "N/A", "amenity": "atm", "data_type": "node", "lat": "52.5496642", "lon": "-1.1928834", "other_tags": {"amenity": "atm"}}, {"name": "Cosby Working Mens Club", "amenity": "pub", "data_type": "node", "lat": "52.5482693", "lon": "-1.1944346", "other_tags": {"addr:city": "Cosby", "addr:country": "GB", "addr:housenumber": "75", "addr:postcode": "LE9 1UW", "addr:street": "Main Street", "amenity": "pub", "fhrs:authority": "Blaby", "fhrs:id": "1201591", "fhrs:local_authority_id": "2072", "name": "Cosby Working Mens Club"}}, {"name": "Cosby Pharmacy", "amenity": "pharmacy", "data_type": "node", "lat": "52.5480303", "lon": "-1.1938606", "other_tags": {"amenity": "pharmacy", "healthcare": "pharmacy", "name": "Cosby Pharmacy"}}, {"name": "Bunning Memorial Hall", "amenity": "community_centre", "data_type": "node", "lat": "52.5493017", "lon": "-1.1933899", "other_tags": {"addr:city": "Cosby", "addr:country": "GB", "addr:postcode": "LE9 1UW", "addr:street": "Main Street", "amenity": "community_centre", "fhrs:authority": "Blaby", "fhrs:id": "1201881", "fhrs:local_authority_id": "3563", "name": "Bunning Memorial Hall"}}, {"name": "Cosby Methodist Church", "amenity": "place_of_worship", "data_type": "node", "lat": "52.5493719", "lon": "-1.1960024", "other_tags": {"amenity": "place_of_worship", "building": "chapel", "denomination": "methodist", "name": "Cosby Methodist Church", "religion": "christian"}}, {"name": "N/A", "amenity": "bench", "data_type": "node", "lat": "52.5502612", "lon": "-1.1932469", "other_tags": {"amenity": "bench", "backrest": "yes"}}, {"name": "N/A", "amenity": "bench", "data_type": "node", "lat": "52.5504411", "lon": "-1.1933393", "other_tags": {"amenity": "bench", "backrest": "yes"}}, {"name": "N/A", "amenity": "parking", "data_type": "way", "lat": "52.5495638", "lon": "-1.1926478", "other_tags": {"access": "customers", "amenity": "parking", "fee": "no", "park_ride": "no", "parking": "surface", "supervised": "no"}}, {"name": "St Michael and All Angels", "amenity": "place_of_worship", "data_type": "way", "lat": "52.5489123", "lon": "-1.1934654", "other_tags": {"addr:postcode": "LE9 1UW", "amenity": "place_of_worship", "building": "church", "denomination": "anglican", "name": "St Michael and All Angels", "religion": "christian", "wikidata": "Q17534088"}}, {"name": "The Tithe Barn", "amenity": "restaurant", "data_type": "way", "lat": "52.5487548", "lon": "-1.1936651", "other_tags": {"amenity": "restaurant", "building": "yes", "name": "The Tithe Barn", "website": "http://www.tithebarn.com/"}}, {"name": "N/A", "amenity": "parking", "data_type": "way", "lat": "52.5485010", "lon": "-1.1938065", "other_tags": {"access": "customers", "amenity": "parking", "operator": "The Tithe Barn"}}]}, {"county": "Leicestershire", "code": "E00129990", "lad": "Blaby", "rgn_main": "East Midlands", "population": 259, "amenities": [{"name": "Cosby Golf Club", "amenity": "bar", "data_type": "node", "lat": "52.5455780", "lon": "-1.1966112", "other_tags": {"addr:city": "Cosby", "addr:country": "GB", "addr:postcode": "LE9 1RG", "addr:street": "Chapel Lane", "amenity": "bar", "fhrs:authority": "Blaby", "fhrs:id": "1201584", "fhrs:local_authority_id": "2048", "name": "Cosby Golf Club"}}, {"name": "N/A", "amenity": "parking", "data_type": "way", "lat": "52.5457574", "lon": "-1.1974762", "other_tags": {"access": "customers", "amenity": "parking"}}]}, {"county": "Leicestershire", "code": "E00129991", "lad": "Blaby", "rgn_main": "East Midlands", "population": 318, "amenities": []}, {"county": "Leicestershire", "code": "E00129992", "lad": "Blaby", "rgn_main": "East Midlands", "population": 299, "amenities": []}, {"county": "Leicestershire", "code": "E00129994", "lad": "Blaby", "rgn_main": "East Midlands", "population": 539, "amenities": [{"name": "Dog and Gun", "amenity": "pub", "data_type": "node", "lat": "52.5583890", "lon": "-1.1714811", "other_tags": {"addr:city": "Whetstone", "addr:country": "GB", "addr:postcode": "LE8 6NA", "addr:street": "Lutterworth Road", "amenity": "pub", "fhrs:authority": "Blaby", "fhrs:id": "1201836", "fhrs:local_authority_id": "3251", "name": "Dog and Gun"}}, {"name": "N/A", "amenity": "recycling", "data_type": "node", "lat": "52.5592897", "lon": "-1.1735506", "other_tags": {"amenity": "recycling", "location": "overground", "recycling_type": "container"}}, {"name": "N/A", "amenity": "bicycle_parking", "data_type": "node", "lat": "52.5589116", "lon": "-1.1722476", "other_tags": {"amenity": "bicycle_parking", "bicycle_parking": "stands", "capacity": "4", "covered": "no"}}, {"name": "N/A", "amenity": "parking", "data_type": "way", "lat": "52.5588432", "lon": "-1.1737584", "other_tags": {"access": "customers", "amenity": "parking", "fee": "no", "parking": "surface"}}, {"name": "Badgerbrook Primary School", "amenity": "school", "data_type": "way", "lat": "52.5620836", "lon": "-1.1779216", "other_tags": {"addr:city": "Whetstone", "addr:country": "GB", "addr:postcode": "LE8 6ZW", "addr:street": "Badger Drive", "amenity": "school", "capacity": "420", "fhrs:authority": "Blaby", "fhrs:id": "1201812", "fhrs:local_authority_id": "3127", "isced:level": "1", "max_age": "11", "min_age": "4", "name": "Badgerbrook Primary School", "phone": "+44 116 2752353", "ref:GB:uprn": "10001235184", "ref:edubase": "119978", "religion": "none", "school:boarding": "no", "school:gender": "mixed", "school:selective": "no", "school:trust": "no", "school:type": "community", "source": "bing", "website": "https://badgerbrook.org.uk/", "wikidata": "Q66163026"}}, {"name": "N/A", "amenity": "parking", "data_type": "way", "lat": "52.5585153", "lon": "-1.1717383", "other_tags": {"amenity": "parking"}}, {"name": "N/A", "amenity": "parking", "data_type": "way", "lat": "52.5611329", "lon": "-1.1762917", "other_tags": {"amenity": "parking"}}, {"name": "N/A", "amenity": "parking", "data_type": "way", "lat": "52.5604325", "lon": "-1.1765621", "other_tags": {"amenity": "parking"}}]}, {"county": "Leicestershire", "code": "E00129996", "lad": "Blaby", "rgn_main": "East Midlands", "population": 368, "amenities": []}, {"county": "Leicestershire", "code": "E00129997", "lad": "Blaby", "rgn_main": "East Midlands", "population": 332, "amenities": [{"name": "Blackberry Bush Nursery", "amenity": "kindergarten", "data_type": "node", "lat": "52.5577103", "lon": "-1.1353120", "other_tags": {"addr:city": "Countesthorpe", "addr:country": "GB", "addr:postcode": "LE8 5QW", "addr:street": "Leicester Road", "amenity": "kindergarten", "fhrs:authority": "Blaby", "fhrs:id": "1202222", "fhrs:local_authority_id": "828", "name": "Blackberry Bush Nursery"}}]}, {"county": "Leicestershire", "code": "E00129998", "lad": "Blaby", "rgn_main": "East Midlands", "population": 481, "amenities": []}, {"county": "Leicestershire", "code": "E00129999", "lad": "Blaby", "rgn_main": "East Midlands", "population": 266, "amenities": []}, {"county": "Leicestershire", "code": "E00130000", "lad": "Blaby", "rgn_main": "East Midlands", "population": 418, "amenities": []}, {"county": "Leicestershire", "code": "E00130001", "lad": "Blaby", "rgn_main": "East Midlands", "population": 301, "amenities": [{"name": "N/A", "amenity": "post_box", "data_type": "node", "lat": "52.5537860", "lon": "-1.1459457", "other_tags": {"amenity": "post_box", "post_box:type": "pillar", "royal_cypher": "GVIR"}}, {"name": "Countesthorpe Parish Council Community Hub", "amenity": "library", "data_type": "way", "lat": "52.5538308", "lon": "-1.1448111", "other_tags": {"amenity": "library", "building": "yes", "name": "Countesthorpe Parish Council Community Hub"}}, {"name": "Village Store", "amenity": "post_office", "data_type": "way", "lat": "52.5538496", "lon": "-1.1459561", "other_tags": {"addr:city": "Countesthorpe", "addr:country": "GB", "addr:housenumber": "69", "addr:postcode": "LE8 5TB", "addr:street": "Station Road", "amenity": "post_office", "building": "yes", "fhrs:authority": "Blaby", "fhrs:id": "1201614", "fhrs:local_authority_id": "2172", "name": "Village Store", "shop": "convenience"}}, {"name": "N/A", "amenity": "parking", "data_type": "way", "lat": "52.5538063", "lon": "-1.1451531", "other_tags": {"amenity": "parking"}}]}, {"county": "Leicestershire", "code": "E00130002", "lad": "Blaby", "rgn_main": "East Midlands", "population": 301, "amenities": [{"name": "Bull's Head", "amenity": "pub", "data_type": "node", "lat": "52.5529885", "lon": "-1.1381790", "other_tags": {"addr:city": "Countesthorpe", "addr:country": "GB", "addr:housenumber": "13", "addr:postcode": "LE8 5QX", "addr:street": "Main Street", "amenity": "pub", "fhrs:authority": "Blaby", "fhrs:id": "1202158", "fhrs:local_authority_id": "48429", "name": "Bull's Head"}}, {"name": "Dine India", "amenity": "restaurant", "data_type": "node", "lat": "52.5527707", "lon": "-1.1372137", "other_tags": {"addr:city": "Countesthorpe", "addr:country": "GB", "addr:housenumber": "62", "addr:postcode": "LE8 5QX", "addr:street": "Main Street", "amenity": "restaurant", "fhrs:authority": "Blaby", "fhrs:id": "1201607", "fhrs:local_authority_id": "2147", "name": "Dine India"}}, {"name": "109th Leicester District Scout Group HQ", "amenity": "community_centre", "data_type": "node", "lat": "52.5527544", "lon": "-1.1374658", "other_tags": {"amenity": "community_centre", "name": "109th Leicester District Scout Group HQ"}}, {"name": "Countesthorpe and District Conservative Club", "amenity": "bar", "data_type": "node", "lat": "52.5529354", "lon": "-1.1376777", "other_tags": {"amenity": "bar", "name": "Countesthorpe and District Conservative Club"}}, {"name": "St Andrews Church Centre And The Rainbow Shop", "amenity": "cafe", "data_type": "node", "lat": "52.5534133", "lon": "-1.1380184", "other_tags": {"addr:city": "Countesthorpe", "addr:country": "GB", "addr:housenumber": "1", "addr:postcode": "LE8 5QX", "addr:street": "Main Street", "amenity": "cafe", "fhrs:authority": "Blaby", "fhrs:id": "1201610", "fhrs:local_authority_id": "2150", "name": "St Andrews Church Centre And The Rainbow Shop"}}, {"name": "Countesthorpe Fish Bar", "amenity": "fast_food", "data_type": "node", "lat": "52.5540689", "lon": "-1.1371708", "other_tags": {"addr:city": "Countesthorpe", "addr:country": "GB", "addr:housenumber": "1-2", "addr:postcode": "LE8 5RN", "addr:street": "The Square", "amenity": "fast_food", "fhrs:authority": "Blaby", "fhrs:id": "1201612", "fhrs:local_authority_id": "2166", "name": "Countesthorpe Fish Bar"}}, {"name": "The Health Centre", "amenity": "doctors", "data_type": "node", "lat": "52.5548924", "lon": "-1.1372325", "other_tags": {"amenity": "doctors", "healthcare": "doctor", "name": "The Health Centre"}}, {"name": "Countesthorpe Chemist", "amenity": "pharmacy", "data_type": "node", "lat": "52.5545206", "lon": "-1.1368704", "other_tags": {"addr:city": "Countesthorpe", "addr:country": "GB", "addr:housenumber": "16", "addr:postcode": "LE8 5QJ", "addr:street": "Central Street", "amenity": "pharmacy", "fhrs:authority": "Blaby", "fhrs:id": "1201603", "fhrs:local_authority_id": "2109", "healthcare": "pharmacy", "name": "Countesthorpe Chemist"}}, {"name": "Pizza Point", "amenity": "fast_food", "data_type": "node", "lat": "52.5544293", "lon": "-1.1358887", "other_tags": {"addr:city": "Countesthorpe", "addr:country": "GB", "addr:housenumber": "2", "addr:postcode": "LE8 5RL", "addr:street": "The Bank", "amenity": "fast_food", "fhrs:authority": "Blaby", "fhrs:id": "1201949", "fhrs:local_authority_id": "39631", "name": "Pizza Point"}}, {"name": "Wings Takeaway", "amenity": "fast_food", "data_type": "node", "lat": "52.5542385", "lon": "-1.1358860", "other_tags": {"addr:city": "Countesthorpe", "addr:country": "GB", "addr:housenumber": "6", "addr:postcode": "LE8 5RL", "addr:street": "The Bank", "amenity": "fast_food", "fhrs:authority": "Blaby", "fhrs:id": "1201599", "fhrs:local_authority_id": "2105", "name": "Wings Takeaway"}}, {"name": "Countesthorpe Baptist Church", "amenity": "place_of_worship", "data_type": "node", "lat": "52.5538210", "lon": "-1.1365512", "other_tags": {"amenity": "place_of_worship", "name": "Countesthorpe Baptist Church", "religion": "christian"}}, {"name": "N/A", "amenity": "telephone", "data_type": "node", "lat": "52.5537296", "lon": "-1.1375182", "other_tags": {"amenity": "telephone", "booth": "K6", "covered": "booth", "listed_status": "Grade II", "operator": "BT", "phone": "+44 116 278 5089"}}, {"name": "N/A", "amenity": "post_box", "data_type": "node", "lat": "52.5537524", "lon": "-1.1375074", "other_tags": {"amenity": "post_box", "post_box:type": "pillar", "royal_cypher": "GVIR"}}, {"name": "N/A", "amenity": "parking", "data_type": "way", "lat": "52.5536358", "lon": "-1.1375401", "other_tags": {"amenity": "parking"}}]}, {"county": "Leicestershire", "code": "E00130003", "lad": "Blaby", "rgn_main": "East Midlands", "population": 205, "amenities": [{"name": "The Axe and Square", "amenity": "pub", "data_type": "node", "lat": "52.5546918", "lon": "-1.1359504", "other_tags": {"amenity": "pub", "name": "The Axe and Square"}}, {"name": "Countesthorpe Methodist Church", "amenity": "place_of_worship", "data_type": "way", "lat": "52.5550715", "lon": "-1.1360662", "other_tags": {"addr:city": "Countesthorpe", "addr:country": "GB", "addr:postcode": "LE8 5RQ", "addr:street": "Wigston Street", "amenity": "place_of_worship", "building": "chapel", "denomination": "methodist", "fhrs:authority": "Blaby", "fhrs:id": "1201621", "fhrs:local_authority_id": "2192", "name": "Countesthorpe Methodist Church", "religion": "christian"}}]}, {"county": "Leicestershire", "code": "E00130004", "lad": "Blaby", "rgn_main": "East Midlands", "population": 249, "amenities": []}, {"county": "Leicestershire", "code": "E00130005", "lad": "Blaby", "rgn_main": "East Midlands", "population": 415, "amenities": []}, {"county": "Leicestershire", "code": "E00130006", "lad": "Blaby", "rgn_main": "East Midlands", "population": 277, "amenities": [{"name": "The Railway", "amenity": "pub", "data_type": "node", "lat": "52.5534122", "lon": "-1.1511981", "other_tags": {"addr:city": "Countesthorpe", "addr:country": "GB", "addr:housenumber": "128", "addr:postcode": "LE8 5TD", "addr:street": "Station Road", "amenity": "pub", "fhrs:authority": "Blaby", "fhrs:id": "1201616", "fhrs:local_authority_id": "2178", "name": "The Railway"}}, {"name": "Cherrytree Residential Home", "amenity": "social_facility", "data_type": "node", "lat": "52.5536367", "lon": "-1.1503753", "other_tags": {"addr:city": "Countesthorpe", "addr:country": "GB", "addr:housenumber": "123", "addr:postcode": "LE8 5TD", "addr:street": "Station Road", "amenity": "social_facility", "fhrs:authority": "Blaby", "fhrs:id": "1201605", "fhrs:local_authority_id": "2129", "name": "Cherrytree Residential Home", "social_facility": "assisted_living", "social_facility:for": "senior"}}, {"name": "Myah's Place", "amenity": "cafe", "data_type": "node", "lat": "52.5536660", "lon": "-1.1494687", "other_tags": {"addr:city": "Countesthorpe", "addr:country": "GB", "addr:housenumber": "115A", "addr:postcode": "LE8 5TD", "addr:street": "Station Road", "amenity": "cafe", "fhrs:authority": "Blaby", "fhrs:id": "1202226", "fhrs:local_authority_id": "9283", "name": "Myah's Place"}}]}, {"county": "Leicestershire", "code": "E00130007", "lad": "Blaby", "rgn_main": "East Midlands", "population": 411, "amenities": []}, {"county": "Leicestershire", "code": "E00130008", "lad": "Blaby", "rgn_main": "East Midlands", "population": 384, "amenities": [{"name": "Wilderness Campers", "amenity": "car_rental", "data_type": "node", "lat": "52.5593958", "lon": "-1.1403844", "other_tags": {"addr:city": "Leicester", "addr:housenumber": "60", "addr:postcode": "LE8 5UB", "addr:street": "Jubilee Way", "amenity": "car_rental", "email": "hello@wildernesscampers.co.uk", "name": "Wilderness Campers", "opening_hours": "24/7", "operator": "Wilderness Campers", "phone": "+44 7938 046256", "website": "https://wildernesscampers.co.uk"}}]}, {"county": "Leicestershire", "code": "E00130011", "lad": "Blaby", "rgn_main": "East Midlands", "population": 373, "amenities": []}, {"county": "Leicestershire", "code": "E00130012", "lad": "Blaby", "rgn_main": "East Midlands", "population": 558, "amenities": []}, {"county": "Leicestershire", "code": "E00130013", "lad": "Blaby", "rgn_main": "East Midlands", "population": 295, "amenities": []}, {"county": "Leicestershire", "code": "E00130014", "lad": "Blaby", "rgn_main": "East Midlands", "population": 342, "amenities": [{"name": "N/A", "amenity": "post_box", "data_type": "node", "lat": "52.5546674", "lon": "-1.1569818", "other_tags": {"amenity": "post_box", "collection_times": "9:30am", "operator": "Royal Mail", "operator:wikidata": "Q638098", "ref": "LE8 445"}}, {"name": "N/A", "amenity": "waste_basket", "data_type": "node", "lat": "52.5546471", "lon": "-1.1571854", "other_tags": {"amenity": "waste_basket", "colour": "green", "waste": "mixed"}}, {"name": "Countesthorpe Leysland Community College", "amenity": "school", "data_type": "way", "lat": "52.5537073", "lon": "-1.1590653", "other_tags": {"addr:postcode": "LE8 5PR", "amenity": "school", "building": "yes", "name": "Countesthorpe Leysland Community College", "ref:edubase": "147902", "source": "OS_OpenData_StreetView", "source:addr:postcode": "get-information-schools.service.gov.uk"}}, {"name": "Countesthorpe Leysland Community College", "amenity": "school", "data_type": "way", "lat": "52.5569458", "lon": "-1.1605658", "other_tags": {"amenity": "school", "building": "yes", "name": "Countesthorpe Leysland Community College", "source": "OS_OpenData_StreetView"}}, {"name": "Countesthorpe Leysland Community College", "amenity": "school", "data_type": "way", "lat": "52.5553017", "lon": "-1.1645497", "other_tags": {"addr:city": "Countesthorpe", "addr:country": "GB", "addr:postcode": "LE8 5PR", "addr:street": "Winchester Road", "amenity": "school", "fhrs:authority": "Blaby", "fhrs:id": "1202219", "fhrs:local_authority_id": "7923", "name": "Countesthorpe Leysland Community College"}}, {"name": "N/A", "amenity": "parking", "data_type": "way", "lat": "52.5533693", "lon": "-1.1590224", "other_tags": {"amenity": "parking"}}, {"name": "N/A", "amenity": "parking", "data_type": "way", "lat": "52.5540953", "lon": "-1.1601383", "other_tags": {"amenity": "parking"}}, {"name": "N/A", "amenity": "parking", "data_type": "way", "lat": "52.5551409", "lon": "-1.1590396", "other_tags": {"amenity": "parking"}}]}, {"county": "Leicestershire", "code": "E00130015", "lad": "Blaby", "rgn_main": "East Midlands", "population": 336, "amenities": [{"name": "N/A", "amenity": "bench", "data_type": "node", "lat": "52.5538103", "lon": "-1.1391476", "other_tags": {"amenity": "bench"}}, {"name": "St Andrew", "amenity": "place_of_worship", "data_type": "way", "lat": "52.5537238", "lon": "-1.1382127", "other_tags": {"amenity": "place_of_worship", "building": "church", "denomination": "anglican", "name": "St Andrew", "religion": "christian", "wikidata": "Q26337227"}}]}, {"county": "Leicestershire", "code": "E00130016", "lad": "Blaby", "rgn_main": "East Midlands", "population": 294, "amenities": [{"name": "Dog & Gun", "amenity": "pub", "data_type": "node", "lat": "52.5527086", "lon": "-1.0862278", "other_tags": {"addr:city": "Kilby", "addr:country": "GB", "addr:housenumber": "41", "addr:postcode": "LE18 3TD", "addr:street": "Main Street", "amenity": "pub", "fhrs:authority": "Blaby", "fhrs:id": "1202225", "fhrs:local_authority_id": "9266", "name": "Dog & Gun", "wikidata": "Q26594210"}}, {"name": "Kilby Chapel", "amenity": "place_of_worship", "data_type": "node", "lat": "52.5528628", "lon": "-1.0870290", "other_tags": {"amenity": "place_of_worship", "denomination": "united_reformed", "name": "Kilby Chapel", "religion": "christian"}}, {"name": "N/A", "amenity": "telephone", "data_type": "node", "lat": "52.5527304", "lon": "-1.0860240", "other_tags": {"amenity": "telephone", "booth": "K6", "covered": "booth", "defibrillator:location": "inside red phone box next to Dog & Gun pub, Main Street, Kilby", "emergency": "defibrillator", "man_made": "telephone_box", "ref": "CHT-14-1399"}}, {"name": "N/A", "amenity": "post_box", "data_type": "node", "lat": "52.5527374", "lon": "-1.0860455", "other_tags": {"amenity": "post_box", "collection_times": "Mo-Fr 16:00, Sa 09:00", "post_box:type": "lamp", "royal_cypher": "EIIR"}}, {"name": "Kilby St Mary's Church of England Primary School", "amenity": "school", "data_type": "way", "lat": "52.5545726", "lon": "-1.0872500", "other_tags": {"addr:city": "Kilby", "addr:country": "GB", "addr:postcode": "LE18 3TD", "addr:street": "Main Street", "amenity": "school", "capacity": "119", "denomination": "anglican", "diocese": "Diocese of Leicester", "fhrs:authority": "Blaby", "fhrs:id": "1201732", "fhrs:local_authority_id": "2719", "isced:level": "0;1", "max_age": "11", "min_age": "3", "name": "Kilby St Mary's Church of England Primary School", "phone": "+44 116 2402434", "ref:GB:uprn": "100032051072", "ref:edubase": "120195", "religion": "christian", "school:boarding": "no", "school:gender": "mixed", "school:selective": "no", "school:trust": "no", "school:type": "voluntary_aided", "source": "bing", "website": "https://www.kilby.leics.sch.uk/", "wikidata": "Q66163189"}}, {"name": "St Mary", "amenity": "place_of_worship", "data_type": "way", "lat": "52.5555424", "lon": "-1.0885306", "other_tags": {"amenity": "place_of_worship", "building": "church", "denomination": "anglican", "name": "St Mary", "religion": "christian", "wikidata": "Q26643097"}}, {"name": "N/A", "amenity": "grave_yard", "data_type": "way", "lat": "52.5559052", "lon": "-1.0886444", "other_tags": {"amenity": "grave_yard"}}, {"name": "St Bartholomew", "amenity": "place_of_worship", "data_type": "way", "lat": "52.5494983", "lon": "-1.1117206", "other_tags": {"amenity": "place_of_worship", "building": "church", "denomination": "anglican", "name": "St Bartholomew", "religion": "christian", "wikidata": "Q17534028"}}, {"name": "N/A", "amenity": "grave_yard", "data_type": "way", "lat": "52.5496386", "lon": "-1.1121090", "other_tags": {"amenity": "grave_yard"}}]}, {"county": "Leicestershire", "code": "E00130017", "lad": "Blaby", "rgn_main": "East Midlands", "population": 293, "amenities": []}, {"county": "Leicestershire", "code": "E00130018", "lad": "Blaby", "rgn_main": "East Midlands", "population": 346, "amenities": []}, {"county": "Leicestershire", "code": "E00130019", "lad": "Blaby", "rgn_main": "East Midlands", "population": 302, "amenities": [{"name": "N/A", "amenity": "post_box", "data_type": "node", "lat": "52.5531401", "lon": "-1.2457465", "other_tags": {"amenity": "post_box", "ref": "LE9 770"}}, {"name": "N/A", "amenity": "telephone", "data_type": "node", "lat": "52.5545777", "lon": "-1.2442608", "other_tags": {"amenity": "telephone"}}, {"name": "Croft Church of England Primary School", "amenity": "school", "data_type": "way", "lat": "52.5530635", "lon": "-1.2455065", "other_tags": {"addr:city": "Croft", "addr:country": "GB", "addr:postcode": "LE9 3GJ", "addr:street": "Brookes Avenue", "amenity": "school", "capacity": "175", "denomination": "anglican", "diocese": "Diocese of Leicester", "fhrs:authority": "Blaby", "fhrs:id": "1201622", "fhrs:local_authority_id": "2198", "isced:level": "0;1", "max_age": "11", "min_age": "2", "name": "Croft Church of England Primary School", "phone": "+44 1455 282643", "ref:GB:uprn": "100032073208", "ref:edubase": "146621", "ref:edubase:group": "17215", "religion": "christian", "school:boarding": "no", "school:gender": "mixed", "school:selective": "no", "school:trust": "yes", "school:trust:name": "Embrace Multi Academy Trust", "school:trust:type": "multi_academy", "school:type": "academy", "website": "https://www.croftprimaryschool.co.uk/", "wikidata": "Q67150209"}}]}, {"county": "Leicestershire", "code": "E00130020", "lad": "Blaby", "rgn_main": "East Midlands", "population": 252, "amenities": [{"name": "N/A", "amenity": "parking", "data_type": "node", "lat": "52.5576470", "lon": "-1.2389894", "other_tags": {"amenity": "parking"}}, {"name": "N/A", "amenity": "parking", "data_type": "way", "lat": "52.5541700", "lon": "-1.2365987", "other_tags": {"amenity": "parking"}}]}, {"county": "Leicestershire", "code": "E00130021", "lad": "Blaby", "rgn_main": "East Midlands", "population": 282, "amenities": [{"name": "Heathcote Arms", "amenity": "pub", "data_type": "node", "lat": "52.5592817", "lon": "-1.2472359", "other_tags": {"addr:city": "Croft", "addr:country": "GB", "addr:postcode": "LE9 3EG", "addr:street": "Hill Street", "amenity": "pub", "fhrs:authority": "Blaby", "fhrs:id": "1202152", "fhrs:local_authority_id": "48411", "name": "Heathcote Arms", "source:addr": "FHRS Open Data"}}, {"name": "N/A", "amenity": "post_box", "data_type": "node", "lat": "52.5569661", "lon": "-1.2464381", "other_tags": {"amenity": "post_box", "post_box:type": "wall"}}, {"name": "N/A", "amenity": "post_box", "data_type": "node", "lat": "52.5595496", "lon": "-1.2457572", "other_tags": {"amenity": "post_box", "post_box:type": "wall", "ref": "LE9 429", "royal_cypher": "GR"}}, {"name": "N/A", "amenity": "telephone", "data_type": "node", "lat": "52.5590904", "lon": "-1.2471339", "other_tags": {"amenity": "telephone", "booth": "K6", "covered": "booth", "defibrillator:location": "inside old red phone box at top of Station Road, Croft", "emergency": "defibrillator", "man_made": "telephone_box"}}, {"name": "N/A", "amenity": "bench", "data_type": "node", "lat": "52.5590976", "lon": "-1.2472015", "other_tags": {"amenity": "bench"}}, {"name": "St Michael & All Angels", "amenity": "place_of_worship", "data_type": "way", "lat": "52.5595187", "lon": "-1.2486272", "other_tags": {"amenity": "place_of_worship", "building": "church", "denomination": "anglican", "name": "St Michael & All Angels", "religion": "christian", "wikidata": "Q26337073"}}, {"name": "N/A", "amenity": "parking", "data_type": "way", "lat": "52.5600797", "lon": "-1.2490310", "other_tags": {"amenity": "parking"}}, {"name": "N/A", "amenity": "grave_yard", "data_type": "way", "lat": "52.5596164", "lon": "-1.2488524", "other_tags": {"amenity": "grave_yard"}}, {"name": "N/A", "amenity": "grave_yard", "data_type": "way", "lat": "52.5623071", "lon": "-1.2665430", "other_tags": {"amenity": "grave_yard"}}, {"name": "St Mary", "amenity": "place_of_worship", "data_type": "way", "lat": "52.5626159", "lon": "-1.2665761", "other_tags": {"amenity": "place_of_worship", "building": "church", "denomination": "anglican", "name": "St Mary", "religion": "christian", "wikidata": "Q26472573"}}]}, {"county": "Leicestershire", "code": "E00130022", "lad": "Blaby", "rgn_main": "East Midlands", "population": 273, "amenities": [{"name": "N/A", "amenity": "parking", "data_type": "node", "lat": "52.5572817", "lon": "-1.2400193", "other_tags": {"amenity": "parking"}}, {"name": "Croft Post Office", "amenity": "post_office", "data_type": "node", "lat": "52.5560282", "lon": "-1.2418132", "other_tags": {"addr:city": "Croft", "addr:country": "GB", "addr:housenumber": "5", "addr:postcode": "LE9 3HA", "addr:street": "Pochin Street", "amenity": "post_office", "fhrs:authority": "Blaby", "fhrs:id": "1202073", "fhrs:local_authority_id": "46862", "name": "Croft Post Office", "opening_hours:post_office": "Mo-Sa 07:00-19:00; Su 07:00-13:00", "ref:pol_id": "5763", "shop": "newsagent", "source:addr": "FHRS Open Data"}}, {"name": "Wok in", "amenity": "fast_food", "data_type": "node", "lat": "52.5559500", "lon": "-1.2420599", "other_tags": {"addr:city": "Croft", "addr:country": "GB", "addr:housenumber": "11", "addr:postcode": "LE9 3HA", "addr:street": "Pochin Street", "amenity": "fast_food", "cuisine": "chinese", "fhrs:authority": "Blaby", "fhrs:id": "1201625", "fhrs:local_authority_id": "2215", "name": "Wok in", "source:addr": "FHRS Open Data"}}, {"name": "Croft Pizza Burger Kebab House", "amenity": "fast_food", "data_type": "node", "lat": "52.5560560", "lon": "-1.2417112", "other_tags": {"addr:city": "Croft", "addr:country": "GB", "addr:housenumber": "3", "addr:postcode": "LE9 3HA", "addr:street": "Pochin Street", "amenity": "fast_food", "cuisine": "kebab", "fhrs:authority": "Blaby", "fhrs:id": "1202099", "fhrs:local_authority_id": "47625", "name": "Croft Pizza Burger Kebab House", "source:addr": "FHRS Open Data"}}, {"name": "N/A", "amenity": "post_box", "data_type": "node", "lat": "52.5560458", "lon": "-1.2418964", "other_tags": {"amenity": "post_box", "ref": "LE9 485"}}]}, {"county": "Leicestershire", "code": "E00130024", "lad": "Blaby", "rgn_main": "East Midlands", "population": 124, "amenities": []}, {"county": "Leicestershire", "code": "E00130025", "lad": "Blaby", "rgn_main": "East Midlands", "population": 346, "amenities": [{"name": "The Nags Head", "amenity": "pub", "data_type": "node", "lat": "52.6508081", "lon": "-1.2041643", "other_tags": {"addr:city": "Glenfield", "addr:country": "GB", "addr:postcode": "LE3 8BQ", "addr:street": "Station Road", "amenity": "pub", "fhrs:authority": "Blaby", "fhrs:id": "1202188", "fhrs:local_authority_id": "48657", "name": "The Nags Head"}}, {"name": "Railway Inn", "amenity": "pub", "data_type": "node", "lat": "52.6534612", "lon": "-1.2000208", "other_tags": {"addr:city": "Glenfield", "addr:country": "GB", "addr:housenumber": "152", "addr:postcode": "LE3 8BR", "addr:street": "Station Road", "amenity": "pub", "fhrs:authority": "Blaby", "fhrs:id": "1201704", "fhrs:local_authority_id": "2576", "name": "Railway Inn", "source:addr": "FHRS Open Data"}}, {"name": "Morrisons", "amenity": "fuel", "data_type": "node", "lat": "52.6515545", "lon": "-1.2037143", "other_tags": {"amenity": "fuel", "brand": "Morrisons", "brand:wikidata": "Q922344", "brand:wikipedia": "en:Morrisons", "contact:website": "https://my.morrisons.com/storefinder/1656", "name": "Morrisons", "self_service": "yes", "wheelchair": "yes"}}, {"name": "N/A", "amenity": "parking", "data_type": "node", "lat": "52.6501749", "lon": "-1.2042724", "other_tags": {"access": "yes", "amenity": "parking", "fee": "no"}}, {"name": "N/A", "amenity": "recycling", "data_type": "node", "lat": "52.6519191", "lon": "-1.2056684", "other_tags": {"amenity": "recycling", "location": "overground", "recycling:batteries": "no", "recycling:cans": "yes", "recycling:clothes": "yes", "recycling:glass": "yes", "recycling:paper": "yes", "recycling_type": "container"}}, {"name": "N/A", "amenity": "atm", "data_type": "node", "lat": "52.6499932", "lon": "-1.2044377", "other_tags": {"amenity": "atm"}}, {"name": "The Forge Inn", "amenity": "pub", "data_type": "node", "lat": "52.6499995", "lon": "-1.2073267", "other_tags": {"addr:city": "Glenfield", "addr:country": "GB", "addr:housenumber": "21", "addr:postcode": "LE3 8DG", "addr:street": "Main Street", "amenity": "pub", "fhrs:authority": "Blaby", "fhrs:id": "1201692", "fhrs:local_authority_id": "2517", "name": "The Forge Inn", "source:addr": "FHRS Open Data"}}, {"name": "N/A", "amenity": "atm", "data_type": "node", "lat": "52.6514311", "lon": "-1.2037326", "other_tags": {"amenity": "atm"}}, {"name": "Lullabies Nursery And Preschool", "amenity": "kindergarten", "data_type": "node", "lat": "52.6502886", "lon": "-1.2056749", "other_tags": {"addr:city": "Glenfield", "addr:country": "GB", "addr:housename": "Glenfield House", "addr:postcode": "LE3 8DQ", "addr:street": "The Square", "amenity": "kindergarten", "fhrs:authority": "Blaby", "fhrs:id": "1202120", "fhrs:local_authority_id": "47867", "name": "Lullabies Nursery And Preschool"}}, {"name": "Morningside Pharmacy", "amenity": "pharmacy", "data_type": "node", "lat": "52.6516565", "lon": "-1.2030019", "other_tags": {"addr:city": "Glenfield", "addr:country": "GB", "addr:housenumber": "64", "addr:postcode": "LE3 8BQ", "addr:street": "Station Road", "amenity": "pharmacy", "fhrs:authority": "Blaby", "fhrs:id": "1201703", "fhrs:local_authority_id": "2569", "healthcare": "pharmacy", "name": "Morningside Pharmacy", "source:addr:postcode": "FHRS Open Data"}}, {"name": "Glenfield Dental Practice", "amenity": "dentist", "data_type": "node", "lat": "52.6515914", "lon": "-1.2031199", "other_tags": {"addr:housenumber": "62", "addr:street": "Station Road", "amenity": "dentist", "healthcare": "dentist", "name": "Glenfield Dental Practice"}}, {"name": "Shant Restaurant", "amenity": "restaurant", "data_type": "node", "lat": "52.6515339", "lon": "-1.2032495", "other_tags": {"addr:city": "Glenfield", "addr:country": "GB", "addr:housenumber": "60-62", "addr:postcode": "LE3 8BQ", "addr:street": "Station Road", "amenity": "restaurant", "cuisine": "indian", "fhrs:authority": "Blaby", "fhrs:id": "1224844", "fhrs:local_authority_id": "20/0114/CP", "name": "Shant Restaurant"}}, {"name": "N/A", "amenity": "cafe", "data_type": "node", "lat": "52.6523504", "lon": "-1.2036005", "other_tags": {"amenity": "cafe", "wheelchair": "yes"}}, {"name": "N/A", "amenity": "bicycle_parking", "data_type": "node", "lat": "52.6517161", "lon": "-1.2042141", "other_tags": {"amenity": "bicycle_parking", "bicycle_parking": "stands", "capacity": "8", "covered": "no"}}, {"name": "N/A", "amenity": "parking", "data_type": "way", "lat": "52.6519510", "lon": "-1.2059311", "other_tags": {"access": "customers", "amenity": "parking", "fee": "no", "operator": "Morrisons", "operator:type": "private", "parking": "surface", "wheelchair": "yes"}}, {"name": "N/A", "amenity": "parking", "data_type": "way", "lat": "52.6528371", "lon": "-1.2022894", "other_tags": {"access": "customers", "amenity": "parking", "fee": "no", "operator": "Morrisons", "parking": "surface", "wheelchair": "yes"}}, {"name": "N/A", "amenity": "parking", "data_type": "way", "lat": "52.6499611", "lon": "-1.2079274", "other_tags": {"amenity": "parking", "source": "Bing"}}, {"name": "N/A", "amenity": "parking", "data_type": "way", "lat": "52.6511833", "lon": "-1.2047251", "other_tags": {"amenity": "parking", "source": "Bing"}}, {"name": "N/A", "amenity": "parking", "data_type": "way", "lat": "52.6507487", "lon": "-1.2043374", "other_tags": {"amenity": "parking", "source": "Bing"}}, {"name": "N/A", "amenity": "parking", "data_type": "way", "lat": "52.6498431", "lon": "-1.2061372", "other_tags": {"amenity": "parking", "source": "Bing"}}, {"name": "Gingerbread Nook", "amenity": "kindergarten", "data_type": "way", "lat": "52.6498276", "lon": "-1.2061808", "other_tags": {"addr:city": "Leicester", "addr:country": "GB", "addr:postcode": "LE3 8DG", "addr:street": "20 Main Street", "amenity": "kindergarten", "name": "Gingerbread Nook", "phone": "+44 1162876218", "source:geometry": "OS_Open_Map_Local_FunctionalSite", "source:name": "edubase"}}, {"name": "Glenfield Libary", "amenity": "library", "data_type": "way", "lat": "52.6513611", "lon": "-1.2026141", "other_tags": {"addr:city": "Glenfield", "addr:postcode": "LE3 8BT", "addr:street": "Sandown Court", "amenity": "library", "building": "industrial", "internet_access": "yes", "name": "Glenfield Libary", "opening_hours": "Mo,We,Fr 10:00-17:00; Tu 13:00-18:00; PH,Th,Su off; Sa 10:00-15:00", "operator": "Leicestershire County Council"}}]}, {"county": "Leicestershire", "code": "E00130026", "lad": "Blaby", "rgn_main": "East Midlands", "population": 370, "amenities": []}, {"county": "Leicestershire", "code": "E00130027", "lad": "Blaby", "rgn_main": "East Midlands", "population": 221, "amenities": []}, {"county": "Leicestershire", "code": "E00130029", "lad": "Blaby", "rgn_main": "East Midlands", "population": 396, "amenities": [{"name": "N/A", "amenity": "atm", "data_type": "node", "lat": "52.6451706", "lon": "-1.2038016", "other_tags": {"amenity": "atm", "fee": "no"}}]}, {"county": "Leicestershire", "code": "E00130030", "lad": "Blaby", "rgn_main": "East Midlands", "population": 344, "amenities": []}, {"county": "Leicestershire", "code": "E00130031", "lad": "Blaby", "rgn_main": "East Midlands", "population": 334, "amenities": [{"name": "Oakmeadow Surgery", "amenity": "doctors", "data_type": "node", "lat": "52.6403434", "lon": "-1.1990395", "other_tags": {"addr:city": "Leicester", "addr:street": "Tatlow Road", "amenity": "doctors", "healthcare": "doctor", "name": "Oakmeadow Surgery"}}]}, {"county": "Leicestershire", "code": "E00130032", "lad": "Blaby", "rgn_main": "East Midlands", "population": 427, "amenities": [{"name": "Branting Hill Service Station", "amenity": "fuel", "data_type": "way", "lat": "52.6579231", "lon": "-1.1981395", "other_tags": {"addr:city": "Glenfield", "addr:country": "GB", "addr:postcode": "LE3 8GJ", "addr:street": "Groby Road", "amenity": "fuel", "brand": "Shell", "brand:wikidata": "Q154950", "brand:wikipedia": "en:Royal Dutch Shell", "building": "roof", "fhrs:authority": "Blaby", "fhrs:id": "1201688", "fhrs:local_authority_id": "2507", "name": "Branting Hill Service Station", "opening_hours": "Mo-Fr 08:00-16:00; Sa-Su 10:00-18:00", "phone": "+44 116 287 2167", "ref:navads": "NVDS353_10019150"}}, {"name": "N/A", "amenity": "parking", "data_type": "way", "lat": "52.6598077", "lon": "-1.1958671", "other_tags": {"amenity": "parking"}}]}, {"county": "Leicestershire", "code": "E00130033", "lad": "Blaby", "rgn_main": "East Midlands", "population": 304, "amenities": []}, {"county": "Leicestershire", "code": "E00130034", "lad": "Blaby", "rgn_main": "East Midlands", "population": 271, "amenities": [{"name": "Glenfield Pharmacy", "amenity": "pharmacy", "data_type": "node", "lat": "52.6560196", "lon": "-1.1957571", "other_tags": {"amenity": "pharmacy", "healthcare": "pharmacy", "name": "Glenfield Pharmacy"}}, {"name": "Glenfield Surgery", "amenity": "doctors", "data_type": "node", "lat": "52.6560112", "lon": "-1.1957203", "other_tags": {"amenity": "doctors", "healthcare": "doctor", "name": "Glenfield Surgery"}}, {"name": "Gynsills Farm", "amenity": "pub", "data_type": "way", "lat": "52.6573178", "lon": "-1.1914510", "other_tags": {"addr:city": "Glenfield", "addr:country": "GB", "addr:postcode": "LE3 8HB", "addr:street": "Leicester Road", "amenity": "pub", "building": "yes", "fhrs:authority": "Blaby", "fhrs:id": "1201691", "fhrs:local_authority_id": "2513", "name": "Gynsills Farm", "source:addr": "FHRS Open Data", "source:outline": "Bing", "website": "https://www.farmhouseinns.co.uk/pubs/leicestershire/gynsills-farm/"}}, {"name": "N/A", "amenity": "parking", "data_type": "way", "lat": "52.6572597", "lon": "-1.1914266", "other_tags": {"amenity": "parking"}}]}, {"county": "Leicestershire", "code": "E00130035", "lad": "Blaby", "rgn_main": "East Midlands", "population": 255, "amenities": []}, {"county": "Leicestershire", "code": "E00130036", "lad": "Blaby", "rgn_main": "East Midlands", "population": 106, "amenities": []}, {"county": "Leicestershire", "code": "E00130037", "lad": "Blaby", "rgn_main": "East Midlands", "population": 279, "amenities": [{"name": "N/A", "amenity": "post_box", "data_type": "node", "lat": "52.6496896", "lon": "-1.2052813", "other_tags": {"amenity": "post_box"}}, {"name": "Glenfield Primary School", "amenity": "school", "data_type": "way", "lat": "52.6481246", "lon": "-1.2075656", "other_tags": {"addr:city": "Glenfield", "addr:country": "GB", "addr:postcode": "LE3 8DL", "addr:street": "Stamford Street", "amenity": "school", "fhrs:authority": "Blaby", "fhrs:id": "1201697", "fhrs:local_authority_id": "2557", "name": "Glenfield Primary School", "ref:edubase": "140608", "website": "https://www.glenfield.leics.sch.uk/", "wikidata": "Q66166723"}}, {"name": "N/A", "amenity": "parking", "data_type": "way", "lat": "52.6496096", "lon": "-1.2056249", "other_tags": {"amenity": "parking", "source": "Bing"}}, {"name": "St Peter's", "amenity": "place_of_worship", "data_type": "way", "lat": "52.6490524", "lon": "-1.2066537", "other_tags": {"amenity": "place_of_worship", "denomination": "anglican", "name": "St Peter's", "religion": "christian", "wikidata": "Q26643084"}}, {"name": "N/A", "amenity": "grave_yard", "data_type": "way", "lat": "52.6495291", "lon": "-1.2066347", "other_tags": {"amenity": "grave_yard"}}]}, {"county": "Leicestershire", "code": "E00130038", "lad": "Blaby", "rgn_main": "East Midlands", "population": 272, "amenities": [{"name": "N/A", "amenity": "post_box", "data_type": "node", "lat": "52.6462510", "lon": "-1.2026342", "other_tags": {"amenity": "post_box"}}, {"name": "N/A", "amenity": "kindergarten", "data_type": "node", "lat": "52.6475124", "lon": "-1.2040790", "other_tags": {"amenity": "kindergarten"}}, {"name": "Glenfield House", "amenity": "fast_food", "data_type": "node", "lat": "52.6487513", "lon": "-1.2043351", "other_tags": {"addr:city": "Glenfield", "addr:country": "GB", "addr:housenumber": "21", "addr:postcode": "LE3 8DL", "addr:street": "Stamford Street", "amenity": "fast_food", "fhrs:authority": "Blaby", "fhrs:id": "1201694", "fhrs:local_authority_id": "2552", "name": "Glenfield House"}}, {"name": "The Country Kitchen", "amenity": "fast_food", "data_type": "node", "lat": "52.6487041", "lon": "-1.2043083", "other_tags": {"addr:city": "Glenfield", "addr:country": "GB", "addr:housenumber": "23", "addr:postcode": "LE3 8DL", "addr:street": "Stamford Street", "amenity": "fast_food", "fhrs:authority": "Blaby", "fhrs:id": "1201695", "fhrs:local_authority_id": "2553", "name": "The Country Kitchen"}}, {"name": "Glenfield Parish Council offices", "amenity": "townhall", "data_type": "way", "lat": "52.6475962", "lon": "-1.2046896", "other_tags": {"addr:city": "Glenfield", "addr:country": "GB", "addr:housename": "Park House", "addr:postcode": "LE3 8DL", "addr:street": "Stamford Street", "amenity": "townhall", "building": "yes", "fhrs:authority": "Blaby", "fhrs:id": "1201701", "fhrs:local_authority_id": "2562", "name": "Glenfield Parish Council offices", "source": "Bing"}}, {"name": "N/A", "amenity": "parking", "data_type": "way", "lat": "52.6473291", "lon": "-1.2037615", "other_tags": {"amenity": "parking"}}, {"name": "N/A", "amenity": "parking", "data_type": "way", "lat": "52.6474414", "lon": "-1.2038355", "other_tags": {"amenity": "parking"}}, {"name": "Glenfield 42nd Scout Hut", "amenity": "community_centre", "data_type": "way", "lat": "52.6472233", "lon": "-1.2040936", "other_tags": {"addr:city": "Glenfield", "addr:country": "GB", "addr:postcode": "LE3 8DL", "addr:street": "Stamford Street", "amenity": "community_centre", "building": "yes", "fhrs:authority": "Blaby", "fhrs:id": "1201700", "fhrs:local_authority_id": "2560", "name": "Glenfield 42nd Scout Hut", "source": "Bing"}}, {"name": "Lilliput Montessori", "amenity": "kindergarten", "data_type": "way", "lat": "52.6473438", "lon": "-1.2040674", "other_tags": {"addr:city": "Glenfield", "addr:country": "GB", "addr:housenumber": "29", "addr:postcode": "LE3 8DL", "addr:street": "Stamford Street", "amenity": "kindergarten", "building": "yes", "fhrs:authority": "Blaby", "fhrs:id": "1201699", "fhrs:local_authority_id": "2559", "name": "Lilliput Montessori"}}, {"name": "N/A", "amenity": "parking", "data_type": "way", "lat": "52.6477685", "lon": "-1.2041210", "other_tags": {"amenity": "parking"}}, {"name": "Glenfield Methodist Church", "amenity": "place_of_worship", "data_type": "way", "lat": "52.6504669", "lon": "-1.2041618", "other_tags": {"amenity": "place_of_worship", "denomination": "methodist", "name": "Glenfield Methodist Church", "religion": "christian"}}, {"name": "N/A", "amenity": "parking", "data_type": "way", "lat": "52.6483313", "lon": "-1.2040819", "other_tags": {"amenity": "parking", "parking": "surface"}}, {"name": "N/A", "amenity": "parking", "data_type": "way", "lat": "52.6471575", "lon": "-1.2045951", "other_tags": {"amenity": "parking"}}, {"name": "N/A", "amenity": "parking", "data_type": "way", "lat": "52.6463377", "lon": "-1.2029616", "other_tags": {"amenity": "parking"}}]}, {"county": "Leicestershire", "code": "E00130039", "lad": "Blaby", "rgn_main": "East Midlands", "population": 285, "amenities": []}, {"county": "Leicestershire", "code": "E00130040", "lad": "Blaby", "rgn_main": "East Midlands", "population": 282, "amenities": []}, {"county": "Leicestershire", "code": "E00130042", "lad": "Blaby", "rgn_main": "East Midlands", "population": 253, "amenities": []}, {"county": "Leicestershire", "code": "E00130043", "lad": "Blaby", "rgn_main": "East Midlands", "population": 434, "amenities": []}, {"county": "Leicestershire", "code": "E00130044", "lad": "Blaby", "rgn_main": "East Midlands", "population": 476, "amenities": [{"name": "N/A", "amenity": "parking", "data_type": "way", "lat": "52.5856644", "lon": "-1.2043843", "other_tags": {"amenity": "parking", "source": "Bing"}}, {"name": "Brockington College", "amenity": "school", "data_type": "way", "lat": "52.5834922", "lon": "-1.2002831", "other_tags": {"addr:city": "Enderby", "addr:country": "GB", "addr:postcode": "LE19 4AQ", "addr:street": "Blaby Road", "amenity": "school", "fhrs:authority": "Blaby", "fhrs:id": "1201670", "fhrs:local_authority_id": "2395", "name": "Brockington College", "ref:edubase": "138521", "toilets:wheelchair": "yes", "website": "http://www.brockington.leics.sch.uk/", "wheelchair": "yes", "wikidata": "Q15204971", "wikipedia": "en:Brockington College"}}, {"name": "N/A", "amenity": "parking", "data_type": "way", "lat": "52.5863066", "lon": "-1.2023529", "other_tags": {"amenity": "parking"}}, {"name": "N/A", "amenity": "parking", "data_type": "way", "lat": "52.5850814", "lon": "-1.2024720", "other_tags": {"access": "private", "amenity": "parking", "capacity": "6", "capacity:disabled": "6", "fee": "no", "parking": "surface"}}, {"name": "N/A", "amenity": "parking", "data_type": "way", "lat": "52.5847481", "lon": "-1.2027745", "other_tags": {"access": "private", "amenity": "parking", "capacity": "8", "covered": "no", "fee": "no", "surface": "asphalt"}}, {"name": "N/A", "amenity": "parking", "data_type": "way", "lat": "52.5859356", "lon": "-1.2029171", "other_tags": {"access": "customers", "amenity": "parking", "capacity": "32", "fee": "no", "parking": "surface"}}, {"name": "N/A", "amenity": "parking", "data_type": "way", "lat": "52.5859553", "lon": "-1.2026125", "other_tags": {"access": "customers", "amenity": "parking", "capacity": "32", "fee": "no", "parking": "surface"}}, {"name": "N/A", "amenity": "parking", "data_type": "way", "lat": "52.5858492", "lon": "-1.2022888", "other_tags": {"access": "customers", "amenity": "parking", "capacity": "15", "fee": "no", "parking": "surface"}}, {"name": "N/A", "amenity": "parking", "data_type": "way", "lat": "52.5857671", "lon": "-1.2020709", "other_tags": {"access": "customers", "amenity": "parking", "capacity": "25", "fee": "no", "parking": "surface"}}]}, {"county": "Leicestershire", "code": "E00130045", "lad": "Blaby", "rgn_main": "East Midlands", "population": 545, "amenities": [{"name": "N/A", "amenity": "police", "data_type": "node", "lat": "52.5921227", "lon": "-1.1853739", "other_tags": {"amenity": "police", "source": "survey"}}, {"name": "N/A", "amenity": "recycling", "data_type": "node", "lat": "52.6008050", "lon": "-1.1758416", "other_tags": {"amenity": "recycling", "recycling:cans": "yes", "recycling:clothes": "yes", "recycling:glass_bottles": "yes", "recycling:paper": "yes", "recycling:plastic_bottles": "yes", "recycling_type": "container", "source": "Google StreetView"}}, {"name": "N/A", "amenity": "post_box", "data_type": "node", "lat": "52.5980078", "lon": "-1.1792851", "other_tags": {"amenity": "post_box", "brand": "Royal Mail", "brand:wikidata": "Q638098", "brand:wikipedia": "en:Royal Mail", "collection_times": "Mo-Fr 17:30; Sa 12:30", "operator": "Royal Mail", "operator:wikidata": "Q638098", "post_box:type": "pillar", "ref": "LE19 356", "source": "survey"}}, {"name": "Sainsbury's Dentist", "amenity": "dentist", "data_type": "node", "lat": "52.5983292", "lon": "-1.1830925", "other_tags": {"amenity": "dentist", "healthcare": "dentist", "name": "Sainsbury's Dentist", "name:en": "Sainsbury's Dentist"}}, {"name": "N/A", "amenity": "toilets", "data_type": "node", "lat": "52.5987615", "lon": "-1.1846764", "other_tags": {"amenity": "toilets"}}, {"name": "N/A", "amenity": "recycling", "data_type": "node", "lat": "52.5996341", "lon": "-1.1851305", "other_tags": {"amenity": "recycling"}}, {"name": "Asda Caf\u00e9", "amenity": "cafe", "data_type": "node", "lat": "52.5995570", "lon": "-1.1776205", "other_tags": {"addr:city": "Braunstone Town", "addr:country": "GB", "addr:postcode": "LE3 2LL", "addr:street": "Narborough Road South", "amenity": "cafe", "brand": "Asda", "brand:wikidata": "Q297410", "brand:wikipedia": "en:Asda", "contact:phone": "+44 116 281 5000", "contact:website": "https://storelocator.asda.com/east-midlands/braunstone/narborough-road-south/cafe", "cuisine": "coffee_shop", "drinking_water:refill": "yes", "drinking_water:refill:network": "Refill", "fhrs:authority": "Blaby", "fhrs:id": "1201870", "fhrs:local_authority_id": "34363", "internet_access": "wlan", "internet_access:fee": "no", "name": "Asda Caf\u00e9", "opening_hours:covid19": "Mo-Su off", "takeaway": "yes"}}, {"name": "Asda", "amenity": "pharmacy", "data_type": "node", "lat": "52.5993632", "lon": "-1.1777707", "other_tags": {"amenity": "pharmacy", "brand": "Asda", "brand:wikidata": "Q297410", "brand:wikipedia": "en:Asda", "contact:phone": "+44 116 281 5000", "contact:website": "https://storelocator.asda.com/east-midlands/braunstone/narborough-road-south/pharmacy", "fixme": "Location not accurate", "healthcare": "pharmacy", "name": "Asda", "opening_hours:covid19": "Mo-Sa 08:00-22:00; Su 10:00-16:00"}}, {"name": "N/A", "amenity": "bicycle_parking", "data_type": "node", "lat": "52.5938616", "lon": "-1.1817362", "other_tags": {"access": "permissive", "amenity": "bicycle_parking", "bicycle_parking": "stands", "capacity": "36", "covered": "no", "fee": "no"}}, {"name": "N/A", "amenity": "waste_basket", "data_type": "node", "lat": "52.5938135", "lon": "-1.1819874", "other_tags": {"amenity": "waste_basket", "waste": "recycling;mixed"}}, {"name": "N/A", "amenity": "bicycle_parking", "data_type": "node", "lat": "52.5935285", "lon": "-1.1821219", "other_tags": {"access": "permissive", "amenity": "bicycle_parking", "bicycle_parking": "stands", "capacity": "16", "covered": "no", "fee": "no"}}, {"name": "N/A", "amenity": "parking_space", "data_type": "node", "lat": "52.5970574", "lon": "-1.1773428", "other_tags": {"amenity": "parking_space", "capacity": "1", "parking_space": "disabled"}}, {"name": "N/A", "amenity": "parking_space", "data_type": "node", "lat": "52.5970701", "lon": "-1.1773854", "other_tags": {"amenity": "parking_space", "capacity": "1", "parking_space": "disabled"}}, {"name": "N/A", "amenity": "parking_space", "data_type": "node", "lat": "52.5970804", "lon": "-1.1774487", "other_tags": {"amenity": "parking_space", "capacity": "1", "parking_space": "disabled"}}, {"name": "N/A", "amenity": "parking_space", "data_type": "node", "lat": "52.5970928", "lon": "-1.1774958", "other_tags": {"amenity": "parking_space", "capacity": "1", "parking_space": "disabled"}}, {"name": "N/A", "amenity": "parking_space", "data_type": "node", "lat": "52.5971063", "lon": "-1.1775407", "other_tags": {"amenity": "parking_space", "capacity": "1", "parking_space": "disabled"}}, {"name": "N/A", "amenity": "parking_space", "data_type": "node", "lat": "52.5971165", "lon": "-1.1775986", "other_tags": {"amenity": "parking_space", "capacity": "1", "parking_space": "disabled"}}, {"name": "N/A", "amenity": "atm", "data_type": "node", "lat": "52.5988032", "lon": "-1.1780472", "other_tags": {"amenity": "atm", "operator": "Asda"}}, {"name": "N/A", "amenity": "atm", "data_type": "node", "lat": "52.5973397", "lon": "-1.1800185", "other_tags": {"amenity": "atm"}}, {"name": "N/A", "amenity": "toilets", "data_type": "node", "lat": "52.5970346", "lon": "-1.1810830", "other_tags": {"amenity": "toilets"}}, {"name": "N/A", "amenity": "bicycle_parking", "data_type": "node", "lat": "52.5946216", "lon": "-1.1807714", "other_tags": {"amenity": "bicycle_parking", "bicycle_parking": "stands", "capacity": "20", "covered": "yes"}}, {"name": "Leicester Supercharger", "amenity": "charging_station", "data_type": "node", "lat": "52.5946297", "lon": "-1.1805958", "other_tags": {"access": "customers", "addr:city": "Leicester", "addr:country": "GB", "addr:postcode": "LE19 1HY", "amenity": "charging_station", "amenity:wikipedia": "en:Tesla Supercharger", "brand": "Tesla Supercharger", "brand:wikidata": "Q17089620", "brand:wikipedia": "en:Tesla Supercharger", "capacity": "8", "fee": "yes", "name": "Leicester Supercharger", "opening_hours": "24/7", "operator": "Tesla, Inc.", "socket:tesla_supercharger_ccs": "8", "socket:tesla_supercharger_ccs:output": "250 kW", "website": "https://www.tesla.com/findus/location/supercharger/leicesteruksupercharger"}}, {"name": "Everards Beer Hall", "amenity": "pub", "data_type": "node", "lat": "52.5928935", "lon": "-1.1823237", "other_tags": {"amenity": "pub", "name": "Everards Beer Hall", "website": "https://www.everardsmeadows.co.uk/explore/everards-brewery/"}}, {"name": "N/A", "amenity": "parking", "data_type": "way", "lat": "52.6004166", "lon": "-1.1768171", "other_tags": {"amenity": "parking"}}, {"name": "N/A", "amenity": "parking", "data_type": "way", "lat": "52.5960145", "lon": "-1.1783955", "other_tags": {"amenity": "parking"}}, {"name": "McDonald's", "amenity": "fast_food", "data_type": "way", "lat": "52.5980569", "lon": "-1.1774327", "other_tags": {"addr:city": "Enderby", "addr:country": "GB", "addr:postcode": "LE19 1HX", "addr:street": "Fosse Park Avenue", "amenity": "fast_food", "brand": "McDonald's", "brand:wikidata": "Q38076", "brand:wikipedia": "en:McDonald's", "building": "yes", "contact:website": "https://www.mcdonalds.com/gb/en-gb/location/leicester/fosse-park/fosse-shopping-park/8260319.html", "cuisine": "burger", "drive_through": "yes", "fhrs:id": "1201652", "name": "McDonald's", "takeaway": "yes", "wheelchair": "yes"}}, {"name": "N/A", "amenity": "parking", "data_type": "way", "lat": "52.5980346", "lon": "-1.1769375", "other_tags": {"amenity": "parking"}}, {"name": "N/A", "amenity": "parking", "data_type": "way", "lat": "52.5994286", "lon": "-1.1807015", "other_tags": {"amenity": "parking"}}, {"name": "N/A", "amenity": "parking", "data_type": "way", "lat": "52.5994061", "lon": "-1.1845512", "other_tags": {"amenity": "parking"}}, {"name": "N/A", "amenity": "parking", "data_type": "way", "lat": "52.5972797", "lon": "-1.1852851", "other_tags": {"amenity": "parking", "wheelchair": "yes"}}, {"name": "Asda", "amenity": "fuel", "data_type": "way", "lat": "52.5988636", "lon": "-1.1779394", "other_tags": {"amenity": "fuel", "brand": "Asda", "brand:wikidata": "Q297410", "brand:wikipedia": "en:Asda", "building": "roof", "contact:website": "https://storelocator.asda.com/east-midlands/braunstone/narborough-road-south", "layer": "1", "name": "Asda", "operator": "Asda Stores Ltd"}}, {"name": "Sainsbury's", "amenity": "fuel", "data_type": "way", "lat": "52.5975452", "lon": "-1.1837867", "other_tags": {"amenity": "fuel", "brand": "Sainsbury's", "brand:wikidata": "Q152096", "brand:wikipedia": "en:Sainsbury's", "building": "roof", "layer": "1", "name": "Sainsbury's", "operator": "Sainsbury's"}}, {"name": "N/A", "amenity": "bus_station", "data_type": "way", "lat": "52.5914541", "lon": "-1.1882133", "other_tags": {"amenity": "bus_station", "bus": "yes", "public_transport": "station"}}, {"name": "Enderby Park & Ride", "amenity": "parking", "data_type": "way", "lat": "52.5920147", "lon": "-1.1879506", "other_tags": {"amenity": "parking", "capacity": "1000", "name": "Enderby Park & Ride", "park_ride": "yes", "website": "www.quicksilverbus.co.uk"}}, {"name": "N/A", "amenity": "parking", "data_type": "way", "lat": "52.5904179", "lon": "-1.1867329", "other_tags": {"amenity": "parking", "park_ride": "yes"}}, {"name": "N/A", "amenity": "parking", "data_type": "way", "lat": "52.5962819", "lon": "-1.1865986", "other_tags": {"amenity": "parking", "source": "Bing"}}, {"name": "N/A", "amenity": "parking", "data_type": "way", "lat": "52.5954298", "lon": "-1.1867730", "other_tags": {"amenity": "parking", "source": "Bing"}}, {"name": "Pizza Hut", "amenity": "restaurant", "data_type": "way", "lat": "52.5980805", "lon": "-1.1858028", "other_tags": {"addr:city": "Enderby", "addr:country": "GB", "addr:postcode": "LE19 1WW", "addr:street": "Grove Farm Triangle", "amenity": "restaurant", "brand": "Pizza Hut", "brand:wikidata": "Q191615", "brand:wikipedia": "en:Pizza Hut", "building": "yes", "cuisine": "pizza", "fhrs:authority": "Blaby", "fhrs:id": "1201673", "fhrs:local_authority_id": "2410", "name": "Pizza Hut"}}, {"name": "N/A", "amenity": "parking", "data_type": "way", "lat": "52.5978883", "lon": "-1.1857407", "other_tags": {"access": "customers", "amenity": "parking"}}, {"name": "N/A", "amenity": "bicycle_parking", "data_type": "way", "lat": "52.5961226", "lon": "-1.1782329", "other_tags": {"amenity": "bicycle_parking", "bicycle_parking": "stands", "capacity": "16", "covered": "yes"}}, {"name": "N/A", "amenity": "parking", "data_type": "way", "lat": "52.5914438", "lon": "-1.1823974", "other_tags": {"access": "no", "amenity": "parking", "parking": "surface", "surface": "asphalt"}}, {"name": "N/A", "amenity": "parking", "data_type": "way", "lat": "52.5904939", "lon": "-1.1846075", "other_tags": {"access": "no", "amenity": "parking", "parking": "surface", "surface": "asphalt"}}, {"name": "N/A", "amenity": "parking", "data_type": "way", "lat": "52.5906853", "lon": "-1.1842628", "other_tags": {"access": "no", "amenity": "parking", "parking": "surface", "surface": "asphalt"}}, {"name": "N/A", "amenity": "parking", "data_type": "way", "lat": "52.5909851", "lon": "-1.1846643", "other_tags": {"access": "no", "amenity": "parking", "parking": "surface", "surface": "asphalt"}}, {"name": "N/A", "amenity": "parking", "data_type": "way", "lat": "52.5913378", "lon": "-1.1844409", "other_tags": {"access": "no", "amenity": "parking", "parking": "surface", "surface": "asphalt"}}, {"name": "N/A", "amenity": "parking", "data_type": "way", "lat": "52.5904023", "lon": "-1.1844433", "other_tags": {"access": "no", "amenity": "parking", "parking": "surface", "surface": "asphalt"}}, {"name": "N/A", "amenity": "parking", "data_type": "way", "lat": "52.5903905", "lon": "-1.1846811", "other_tags": {"access": "private", "amenity": "parking", "parking": "surface", "surface": "asphalt"}}, {"name": "N/A", "amenity": "parking", "data_type": "way", "lat": "52.5909281", "lon": "-1.1855617", "other_tags": {"access": "no", "amenity": "parking", "parking": "surface", "surface": "asphalt"}}, {"name": "N/A", "amenity": "parking", "data_type": "way", "lat": "52.5906507", "lon": "-1.1855254", "other_tags": {"access": "no", "amenity": "parking", "parking": "surface", "surface": "asphalt"}}, {"name": "N/A", "amenity": "parking", "data_type": "way", "lat": "52.5907648", "lon": "-1.1854860", "other_tags": {"access": "private", "amenity": "parking", "parking": "surface", "surface": "asphalt"}}, {"name": "N/A", "amenity": "parking", "data_type": "way", "lat": "52.5911342", "lon": "-1.1855382", "other_tags": {"access": "private", "amenity": "parking", "parking": "surface", "surface": "asphalt"}}, {"name": "N/A", "amenity": "parking", "data_type": "way", "lat": "52.5926987", "lon": "-1.1845737", "other_tags": {"access": "private", "amenity": "parking", "parking": "surface", "surface": "asphalt"}}, {"name": "N/A", "amenity": "parking", "data_type": "way", "lat": "52.5921071", "lon": "-1.1816133", "other_tags": {"access": "private", "amenity": "parking", "surface": "asphalt"}}, {"name": "N/A", "amenity": "parking", "data_type": "way", "lat": "52.5922217", "lon": "-1.1821109", "other_tags": {"access": "private", "amenity": "parking", "parking": "surface", "surface": "asphalt"}}, {"name": "N/A", "amenity": "parking", "data_type": "way", "lat": "52.5922500", "lon": "-1.1822187", "other_tags": {"access": "private", "amenity": "parking", "parking": "surface", "surface": "asphalt"}}, {"name": "N/A", "amenity": "parking", "data_type": "way", "lat": "52.5922843", "lon": "-1.1825913", "other_tags": {"access": "private", "amenity": "parking", "parking": "surface", "surface": "asphalt"}}, {"name": "N/A", "amenity": "parking", "data_type": "way", "lat": "52.5926103", "lon": "-1.1844590", "other_tags": {"access": "private", "amenity": "parking", "parking": "surface", "surface": "asphalt"}}, {"name": "N/A", "amenity": "parking", "data_type": "way", "lat": "52.5938876", "lon": "-1.1813214", "other_tags": {"access": "yes", "amenity": "parking", "parking": "surface"}}, {"name": "N/A", "amenity": "parking", "data_type": "way", "lat": "52.5932903", "lon": "-1.1832080", "other_tags": {"amenity": "parking", "parking": "surface"}}, {"name": "N/A", "amenity": "car_wash", "data_type": "way", "lat": "52.5987037", "lon": "-1.1784848", "other_tags": {"amenity": "car_wash", "automated": "yes", "building": "yes", "layer": "1", "opening_hours": "Mo-Sa 08:00-20:00", "opening_hours:covid19": "same", "operator": "ASDA"}}, {"name": "N/A", "amenity": "parking", "data_type": "way", "lat": "52.5961384", "lon": "-1.1832320", "other_tags": {"access": "yes", "amenity": "parking", "capacity": "900", "fee": "no", "parking": "surface"}}, {"name": "Nando's", "amenity": "restaurant", "data_type": "way", "lat": "52.5969051", "lon": "-1.1817157", "other_tags": {"amenity": "restaurant", "brand": "Nando's", "brand:wikidata": "Q3472954", "brand:wikipedia": "en:Nando's", "building": "yes", "cuisine": "chicken;portuguese", "name": "Nando's", "website": "https://www.nandos.co.uk/restaurants/leicester-fosse-park"}}, {"name": "KFC", "amenity": "fast_food", "data_type": "way", "lat": "52.5973838", "lon": "-1.1813895", "other_tags": {"alt_name": "Kentucky Fried Chicken", "amenity": "fast_food", "brand": "KFC", "brand:wikidata": "Q524757", "brand:wikipedia": "en:KFC", "building": "yes", "contact:website": "https://www.kfc.co.uk/kfc-near-me/leicester-fosse-park", "cuisine": "chicken", "name": "KFC", "takeaway": "yes"}}, {"name": "Costa", "amenity": "cafe", "data_type": "way", "lat": "52.5974223", "lon": "-1.1813607", "other_tags": {"amenity": "cafe", "brand": "Costa", "brand:wikidata": "Q608845", "brand:wikipedia": "en:Costa Coffee", "building": "yes", "cuisine": "coffee_shop", "name": "Costa", "takeaway": "yes"}}, {"name": "Soho", "amenity": "cafe", "data_type": "way", "lat": "52.5974647", "lon": "-1.1810776", "other_tags": {"amenity": "cafe", "building": "yes", "cuisine": "coffee_shop", "name": "Soho"}}, {"name": "Greggs", "amenity": "fast_food", "data_type": "way", "lat": "52.5972822", "lon": "-1.1812600", "other_tags": {"amenity": "fast_food", "brand": "Greggs", "brand:wikidata": "Q3403981", "brand:wikipedia": "en:Greggs", "building": "yes", "cuisine": "sandwich;bakery", "name": "Greggs", "takeaway": "yes"}}, {"name": "Starbucks", "amenity": "cafe", "data_type": "way", "lat": "52.5957373", "lon": "-1.1816984", "other_tags": {"amenity": "cafe", "brand": "Starbucks", "brand:wikidata": "Q37158", "brand:wikipedia": "en:Starbucks", "building": "yes", "cuisine": "coffee_shop", "name": "Starbucks", "official_name": "Starbucks Coffee", "outdoor_seating": "yes", "takeaway": "yes"}}]}, {"county": "Leicestershire", "code": "E00130046", "lad": "Blaby", "rgn_main": "East Midlands", "population": 360, "amenities": [{"name": "Miller & Carter", "amenity": "restaurant", "data_type": "node", "lat": "52.5829186", "lon": "-1.1915146", "other_tags": {"addr:city": "Leicester", "addr:country": "GB", "addr:postcode": "LE19 2BJ", "addr:street": "Leicester Road", "addr:town": "Enderby", "amenity": "restaurant", "branch": "Steakhouse", "brand": "Miller & Carter", "brand:wikidata": "Q87067401", "cuisine": "steak", "fhrs:authority": "Blaby", "fhrs:id": "1202125", "fhrs:local_authority_id": "47963", "name": "Miller & Carter"}}, {"name": "N/A", "amenity": "post_box", "data_type": "node", "lat": "52.5831097", "lon": "-1.1903613", "other_tags": {"amenity": "post_box"}}, {"name": "Enderby Grange Care Home", "amenity": "social_facility", "data_type": "node", "lat": "52.5813472", "lon": "-1.1930922", "other_tags": {"addr:city": "Leicester", "addr:country": "GB", "addr:postcode": "LE19 2BQ", "addr:street": "Sparsis Gardens", "addr:town": "Enderby", "amenity": "social_facility", "fhrs:authority": "Blaby", "fhrs:id": "1201541", "fhrs:local_authority_id": "18680", "name": "Enderby Grange Care Home", "social_facility": "assisted_living", "social_facility:for": "senior"}}, {"name": "Dallington House", "amenity": "social_facility", "data_type": "node", "lat": "52.5831155", "lon": "-1.1931270", "other_tags": {"addr:city": "Leicester", "addr:country": "GB", "addr:housenumber": "228", "addr:postcode": "LE19 2BF", "addr:street": "Leicester Road", "addr:town": "Enderby", "amenity": "social_facility", "fhrs:authority": "Blaby", "fhrs:id": "1202153", "fhrs:local_authority_id": "48417", "name": "Dallington House", "social_facility": "assisted_living", "social_facility:for": "senior"}}, {"name": "N/A", "amenity": "parking", "data_type": "way", "lat": "52.5827677", "lon": "-1.1923952", "other_tags": {"amenity": "parking"}}]}, {"county": "Leicestershire", "code": "E00130048", "lad": "Blaby", "rgn_main": "East Midlands", "population": 334, "amenities": [{"name": "Smarties Day Nursery", "amenity": "kindergarten", "data_type": "node", "lat": "52.5851803", "lon": "-1.2091130", "other_tags": {"addr:city": "Enderby", "addr:country": "GB", "addr:postcode": "LE19 4LS", "addr:street": "West Street", "amenity": "kindergarten", "fhrs:authority": "Blaby", "fhrs:id": "1201677", "fhrs:local_authority_id": "2472", "name": "Smarties Day Nursery"}}, {"name": "N/A", "amenity": "parking", "data_type": "way", "lat": "52.5844144", "lon": "-1.2043361", "other_tags": {"amenity": "parking"}}, {"name": "Enderby Danemill Primary School", "amenity": "school", "data_type": "way", "lat": "52.5863071", "lon": "-1.2061361", "other_tags": {"addr:city": "Enderby", "addr:country": "GB", "addr:postcode": "LE19 4LH", "addr:street": "Mill Lane", "amenity": "school", "fhrs:authority": "Blaby", "fhrs:id": "1201671", "fhrs:local_authority_id": "2396", "name": "Enderby Danemill Primary School", "ref:edubase": "140316", "source": "bing", "wikidata": "Q66166618"}}]}, {"county": "Leicestershire", "code": "E00130049", "lad": "Blaby", "rgn_main": "East Midlands", "population": 285, "amenities": [{"name": "Nag's Head", "amenity": "pub", "data_type": "node", "lat": "52.5881786", "lon": "-1.2094488", "other_tags": {"addr:city": "Enderby", "addr:country": "GB", "addr:housenumber": "41", "addr:postcode": "LE19 4NJ", "addr:street": "Cross Street", "amenity": "pub", "fhrs:authority": "Blaby", "fhrs:id": "1201640", "fhrs:local_authority_id": "2271", "name": "Nag's Head"}}, {"name": "Enderby Methodist Church", "amenity": "place_of_worship", "data_type": "node", "lat": "52.5886854", "lon": "-1.2101075", "other_tags": {"addr:city": "Enderby", "addr:country": "GB", "addr:postcode": "LE19 4NJ", "addr:street": "Cross Street", "amenity": "place_of_worship", "denomination": "methodist", "fhrs:authority": "Blaby", "fhrs:id": "1201641", "fhrs:local_authority_id": "2272", "name": "Enderby Methodist Church", "religion": "christian", "source": "OS_OpenData_StreetView"}}, {"name": "The New Inn", "amenity": "pub", "data_type": "node", "lat": "52.5898319", "lon": "-1.2112427", "other_tags": {"addr:city": "Enderby", "addr:country": "GB", "addr:housenumber": "51", "addr:postcode": "LE19 4AG", "addr:street": "High Street", "amenity": "pub", "fhrs:authority": "Blaby", "fhrs:id": "1201654", "fhrs:local_authority_id": "2329", "name": "The New Inn"}}, {"name": "Cini", "amenity": "restaurant", "data_type": "node", "lat": "52.5900055", "lon": "-1.2095153", "other_tags": {"addr:city": "Enderby", "addr:country": "GB", "addr:housenumber": "26", "addr:postcode": "LE19 4AG", "addr:street": "High Street", "amenity": "restaurant", "fhrs:authority": "Blaby", "fhrs:id": "1201469", "fhrs:local_authority_id": "1374", "name": "Cini"}}, {"name": "Hinkley & Rugby Building Society", "amenity": "bank", "data_type": "node", "lat": "52.5887312", "lon": "-1.2097165", "other_tags": {"amenity": "bank", "atm": "yes", "name": "Hinkley & Rugby Building Society"}}, {"name": "Enderby Village Institute", "amenity": "community_centre", "data_type": "node", "lat": "52.5889447", "lon": "-1.2099606", "other_tags": {"amenity": "community_centre", "name": "Enderby Village Institute"}}, {"name": "The Dog & Gun", "amenity": "pub", "data_type": "node", "lat": "52.5889593", "lon": "-1.2102744", "other_tags": {"addr:city": "Enderby", "addr:country": "GB", "addr:housenumber": "9", "addr:postcode": "LE19 4NJ", "addr:street": "Cross Street", "amenity": "pub", "fhrs:authority": "Blaby", "fhrs:id": "1213493", "fhrs:local_authority_id": "19/0095/CP", "name": "The Dog & Gun"}}, {"name": "Enderby Conservative Club", "amenity": "bar", "data_type": "node", "lat": "52.5897399", "lon": "-1.2106633", "other_tags": {"addr:city": "Enderby", "addr:country": "GB", "addr:housenumber": "1", "addr:postcode": "LE19 4PF", "addr:street": "The Cross", "amenity": "bar", "fhrs:authority": "Blaby", "fhrs:id": "1201639", "fhrs:local_authority_id": "2266", "name": "Enderby Conservative Club"}}, {"name": "N/A", "amenity": "parking", "data_type": "way", "lat": "52.5884311", "lon": "-1.2098230", "other_tags": {"amenity": "parking", "source": "Bing"}}]}, {"county": "Leicestershire", "code": "E00130050", "lad": "Blaby", "rgn_main": "East Midlands", "population": 361, "amenities": []}, {"county": "Leicestershire", "code": "E00130051", "lad": "Blaby", "rgn_main": "East Midlands", "population": 242, "amenities": [{"name": "Enderby United Reformed Church", "amenity": "place_of_worship", "data_type": "node", "lat": "52.5897432", "lon": "-1.2124926", "other_tags": {"addr:city": "Enderby", "addr:country": "GB", "addr:postcode": "LE19 4NE", "addr:street": "Chapel Street", "amenity": "place_of_worship", "fhrs:authority": "Blaby", "fhrs:id": "1201634", "fhrs:local_authority_id": "2257", "name": "Enderby United Reformed Church", "religion": "christian"}}]}, {"county": "Leicestershire", "code": "E00130052", "lad": "Blaby", "rgn_main": "East Midlands", "population": 321, "amenities": [{"name": "N/A", "amenity": "library", "data_type": "node", "lat": "52.5877713", "lon": "-1.2100673", "other_tags": {"amenity": "library", "source": "OS_OpenData_StreetView"}}, {"name": "Enderby Adult Learning Centre", "amenity": "college", "data_type": "node", "lat": "52.5880907", "lon": "-1.2108022", "other_tags": {"amenity": "college", "name": "Enderby Adult Learning Centre", "source": "OS_OpenData_StreetView"}}, {"name": "N/A", "amenity": "atm", "data_type": "node", "lat": "52.5879862", "lon": "-1.2087554", "other_tags": {"amenity": "atm", "fee": "no", "operator": "Co-operative Bank"}}, {"name": "Hi-Tide", "amenity": "fast_food", "data_type": "node", "lat": "52.5876349", "lon": "-1.2084279", "other_tags": {"addr:city": "Enderby", "addr:country": "GB", "addr:housenumber": "9", "addr:postcode": "LE19 4NW", "addr:street": "Mill Lane", "amenity": "fast_food", "cuisine": "fish_and_chips", "fhrs:authority": "Blaby", "fhrs:id": "1201664", "fhrs:local_authority_id": "2382", "name": "Hi-Tide"}}, {"name": "Enderby Pharmacy", "amenity": "pharmacy", "data_type": "node", "lat": "52.5874719", "lon": "-1.2081356", "other_tags": {"addr:city": "Enderby", "addr:country": "GB", "addr:housenumber": "15", "addr:postcode": "LE19 4NW", "addr:street": "Mill Lane", "amenity": "pharmacy", "fhrs:authority": "Blaby", "fhrs:id": "1201666", "fhrs:local_authority_id": "2388", "healthcare": "pharmacy", "name": "Enderby Pharmacy"}}, {"name": "N/A", "amenity": "telephone", "data_type": "node", "lat": "52.5878354", "lon": "-1.2083904", "other_tags": {"amenity": "telephone", "booth": "KX100", "covered": "booth", "phone": "+44 116 286 3032"}}, {"name": "Wok Express", "amenity": "fast_food", "data_type": "node", "lat": "52.5876056", "lon": "-1.2083635", "other_tags": {"addr:city": "Enderby", "addr:country": "GB", "addr:housenumber": "11", "addr:postcode": "LE19 4NW", "addr:street": "Mill Lane", "amenity": "fast_food", "cuisine": "chinese", "fhrs:authority": "Blaby", "fhrs:id": "1201665", "fhrs:local_authority_id": "2383", "name": "Wok Express"}}, {"name": "Simply Delicious", "amenity": "fast_food", "data_type": "node", "lat": "52.5877962", "lon": "-1.2087763", "other_tags": {"addr:city": "Enderby", "addr:country": "GB", "addr:housenumber": "2", "addr:postcode": "LE19 4NT", "addr:street": "King Street", "amenity": "fast_food", "fhrs:authority": "Blaby", "fhrs:id": "1201484", "fhrs:local_authority_id": "16181", "name": "Simply Delicious"}}, {"name": "Harlequins Day Nursery", "amenity": "kindergarten", "data_type": "node", "lat": "52.5875416", "lon": "-1.2115833", "other_tags": {"addr:city": "Enderby", "addr:country": "GB", "addr:housenumber": "1A", "addr:postcode": "LE19 4NQ", "addr:street": "George Street", "amenity": "kindergarten", "fhrs:authority": "Blaby", "fhrs:id": "1201871", "fhrs:local_authority_id": "3438", "name": "Harlequins Day Nursery"}}, {"name": "TJ's Burgers", "amenity": "fast_food", "data_type": "node", "lat": "52.5879132", "lon": "-1.2095127", "other_tags": {"addr:city": "Enderby", "addr:country": "GB", "addr:postcode": "LE19 4PG", "addr:street": "Townsend Road", "addr:unit": "Unit 2", "amenity": "fast_food", "fhrs:authority": "Blaby", "fhrs:id": "1202157", "fhrs:local_authority_id": "48428", "name": "TJ's Burgers"}}, {"name": "Cafe Oasis", "amenity": "cafe", "data_type": "node", "lat": "52.5880061", "lon": "-1.2091640", "other_tags": {"addr:city": "Enderby", "addr:country": "GB", "addr:housenumber": "1", "addr:postcode": "LE19 4NW", "addr:street": "Mill Lane", "amenity": "cafe", "fhrs:authority": "Blaby", "fhrs:id": "1202029", "fhrs:local_authority_id": "44391", "name": "Cafe Oasis"}}, {"name": "Enderby Service Station", "amenity": "fuel", "data_type": "node", "lat": "52.5883515", "lon": "-1.2092042", "other_tags": {"addr:city": "Enderby", "addr:country": "GB", "addr:postcode": "LE19 4NJ", "addr:street": "Cross Street", "amenity": "fuel", "brand": "Pace", "fhrs:authority": "Blaby", "fhrs:id": "1201869", "fhrs:local_authority_id": "34258", "name": "Enderby Service Station"}}]}, {"county": "Leicestershire", "code": "E00130053", "lad": "Blaby", "rgn_main": "East Midlands", "population": 285, "amenities": []}, {"county": "Leicestershire", "code": "E00130054", "lad": "Blaby", "rgn_main": "East Midlands", "population": 358, "amenities": []}, {"county": "Leicestershire", "code": "E00130055", "lad": "Blaby", "rgn_main": "East Midlands", "population": 293, "amenities": []}, {"county": "Leicestershire", "code": "E00130056", "lad": "Blaby", "rgn_main": "East Midlands", "population": 364, "amenities": [{"name": "Parkem Chemist", "amenity": "pharmacy", "data_type": "node", "lat": "52.6457769", "lon": "-1.1943165", "other_tags": {"addr:city": "Glenfield", "addr:country": "GB", "addr:housenumber": "102", "addr:postcode": "LE3 8FB", "addr:street": "Dominion Road", "amenity": "pharmacy", "fhrs:authority": "Blaby", "fhrs:id": "1201684", "fhrs:local_authority_id": "2488", "healthcare": "pharmacy", "name": "Parkem Chemist"}}, {"name": "RBS", "amenity": "atm", "data_type": "node", "lat": "52.6456611", "lon": "-1.1935911", "other_tags": {"amenity": "atm", "brand": "RBS", "brand:wikidata": "Q160126", "brand:wikipedia": "en:Royal Bank of Scotland", "fee": "no", "name": "RBS", "official_name": "Royal Bank of Scotland", "operator": "RBS", "operator:wikidata": "Q160126"}}, {"name": "Domino's", "amenity": "fast_food", "data_type": "node", "lat": "52.6457698", "lon": "-1.1939187", "other_tags": {"addr:city": "Glenfield", "addr:country": "GB", "addr:postcode": "LE3 8FB", "addr:street": "Dominion Road", "addr:unit": "Unit 1 The Dominion", "amenity": "fast_food", "brand": "Domino's", "brand:wikidata": "Q839466", "brand:wikipedia": "en:Domino's Pizza", "contact:website": "https://www.dominos.co.uk/pizza-near-me/leicester/unit-1-the-dominion-dominion-road", "cuisine": "pizza", "fhrs:id": "1202062", "name": "Domino's", "takeaway": "yes"}}, {"name": "N/A", "amenity": "parking", "data_type": "way", "lat": "52.6457669", "lon": "-1.1945199", "other_tags": {"amenity": "parking", "source": "Bing"}}, {"name": "N/A", "amenity": "parking", "data_type": "way", "lat": "52.6457091", "lon": "-1.1940167", "other_tags": {"amenity": "parking", "source": "Bing"}}]}, {"county": "Leicestershire", "code": "E00130057", "lad": "Blaby", "rgn_main": "East Midlands", "population": 301, "amenities": [{"name": "Torodes Taverna", "amenity": "restaurant", "data_type": "node", "lat": "52.6449318", "lon": "-1.1939049", "other_tags": {"amenity": "restaurant", "name": "Torodes Taverna"}}, {"name": "Marine Fish & Chips", "amenity": "fast_food", "data_type": "node", "lat": "52.6449432", "lon": "-1.1939746", "other_tags": {"addr:city": "Glenfield", "addr:country": "GB", "addr:housenumber": "97", "addr:postcode": "LE3 8JB", "addr:street": "Dominion Road", "amenity": "fast_food", "fhrs:authority": "Blaby", "fhrs:id": "1202163", "fhrs:local_authority_id": "48461", "name": "Marine Fish & Chips"}}, {"name": "Lee's Kitchen", "amenity": "fast_food", "data_type": "node", "lat": "52.6450457", "lon": "-1.1946479", "other_tags": {"addr:city": "Glenfield", "addr:country": "GB", "addr:housenumber": "89", "addr:postcode": "LE3 8FE", "addr:street": "Dominion Road", "amenity": "fast_food", "fhrs:authority": "Blaby", "fhrs:id": "1201681", "fhrs:local_authority_id": "2480", "name": "Lee's Kitchen"}}, {"name": "N/A", "amenity": "parking", "data_type": "way", "lat": "52.6451612", "lon": "-1.1942362", "other_tags": {"amenity": "parking", "source": "Bing"}}, {"name": "N/A", "amenity": "parking", "data_type": "way", "lat": "52.6448233", "lon": "-1.1937925", "other_tags": {"amenity": "parking", "source": "Bing"}}]}, {"county": "Leicestershire", "code": "E00130058", "lad": "Blaby", "rgn_main": "East Midlands", "population": 245, "amenities": []}, {"county": "Leicestershire", "code": "E00130059", "lad": "Blaby", "rgn_main": "East Midlands", "population": 492, "amenities": [{"name": "County Hall - Leicestershire County Council", "amenity": "county_hall", "data_type": "node", "lat": "52.6555804", "lon": "-1.1890004", "other_tags": {"amenity": "county_hall", "created_by": "Potlatch 0.10b", "name": "County Hall - Leicestershire County Council"}}, {"name": "N/A", "amenity": "fire_station", "data_type": "node", "lat": "52.6568089", "lon": "-1.1889562", "other_tags": {"amenity": "fire_station"}}, {"name": "County Hall", "amenity": "bicycle_rental", "data_type": "node", "lat": "52.6554800", "lon": "-1.1888900", "other_tags": {"amenity": "bicycle_rental", "brand:wikidata": "Q106645553", "capacity": "15", "fee": "yes", "name": "County Hall", "network": "Santander Cycles Leicester", "operator": "Ride On", "operator:type": "private", "ref": "62", "website": "https://data.leicester.gov.uk/explore/dataset/bike-share-station-status/table/?disjunctive.name&sort=name&refine.name=County+Hall"}}, {"name": "County Hall - Leicestershire County Council", "amenity": "townhall", "data_type": "relation", "lat": "52.6559811", "lon": "-1.1887708", "other_tags": {"amenity": "townhall", "building": "yes", "name": "County Hall - Leicestershire County Council", "type": "multipolygon"}}, {"name": "N/A", "amenity": "parking", "data_type": "way", "lat": "52.6573165", "lon": "-1.1879665", "other_tags": {"access": "permissive", "amenity": "parking", "operator": "Leicestershire CC", "operator:type": "government", "parking": "surface"}}, {"name": "N/A", "amenity": "parking", "data_type": "way", "lat": "52.6574987", "lon": "-1.1880845", "other_tags": {"amenity": "parking", "operator": "Leicestershire CC"}}, {"name": "County Hall visitors' car park", "amenity": "parking", "data_type": "way", "lat": "52.6556032", "lon": "-1.1893399", "other_tags": {"amenity": "parking", "fee": "no", "name": "County Hall visitors' car park", "operator": "Leicestershire County Council", "parking": "surface", "source": "Bing"}}, {"name": "N/A", "amenity": "parking", "data_type": "way", "lat": "52.6577997", "lon": "-1.1878538", "other_tags": {"amenity": "parking", "operator": "Leicestershire CC"}}, {"name": "N/A", "amenity": "parking", "data_type": "way", "lat": "52.6578778", "lon": "-1.1875697", "other_tags": {"amenity": "parking", "operator": "Leicestershire CC", "parking": "surface"}}, {"name": "N/A", "amenity": "parking", "data_type": "way", "lat": "52.6575719", "lon": "-1.1878914", "other_tags": {"amenity": "parking", "operator": "Leicestershire CC"}}, {"name": "N/A", "amenity": "parking", "data_type": "way", "lat": "52.6585513", "lon": "-1.1881007", "other_tags": {"amenity": "parking", "operator": "Leicestershire CC", "parking": "surface"}}, {"name": "N/A", "amenity": "parking", "data_type": "way", "lat": "52.6587515", "lon": "-1.1896578", "other_tags": {"amenity": "parking", "source": "Bing"}}, {"name": "N/A", "amenity": "parking", "data_type": "way", "lat": "52.6554787", "lon": "-1.1868733", "other_tags": {"amenity": "parking", "source": "Bing"}}, {"name": "N/A", "amenity": "parking", "data_type": "way", "lat": "52.6559026", "lon": "-1.1866065", "other_tags": {"amenity": "parking", "source": "Bing"}}, {"name": "N/A", "amenity": "parking", "data_type": "way", "lat": "52.6560018", "lon": "-1.1869928", "other_tags": {"amenity": "parking", "source": "Bing"}}, {"name": "N/A", "amenity": "parking", "data_type": "way", "lat": "52.6575881", "lon": "-1.1862632", "other_tags": {"amenity": "parking", "operator": "Leicestershire CC", "parking": "surface", "source": "Bing"}}, {"name": "N/A", "amenity": "parking", "data_type": "way", "lat": "52.6586300", "lon": "-1.1877592", "other_tags": {"amenity": "parking", "parking": "surface"}}, {"name": "County Hall staff car park", "amenity": "parking", "data_type": "way", "lat": "52.6562586", "lon": "-1.1855209", "other_tags": {"amenity": "parking", "name": "County Hall staff car park", "operator": "Leicestershire CC", "operator:type": "government", "parking": "surface", "source": "Bing"}}, {"name": "N/A", "amenity": "parking", "data_type": "way", "lat": "52.6567536", "lon": "-1.1894909", "other_tags": {"amenity": "parking"}}, {"name": "The Hall School", "amenity": "school", "data_type": "way", "lat": "52.6501508", "lon": "-1.1860157", "other_tags": {"addr:city": "Leicester", "addr:country": "GB", "addr:postcode": "LE3 8PQ", "addr:street": "Glenfield Frith Drive", "amenity": "school", "fhrs:authority": "Blaby", "fhrs:id": "1201687", "fhrs:local_authority_id": "2505", "name": "The Hall School", "phone": "+44 1162873582", "ref:edubase": "120070", "source:addr": "edubase", "source:geometry": "OS_Open_Map_Local_FunctionalSite", "source:name": "edubase", "website": "https://www.thehallprimary.com", "wikidata": "Q67148993"}}, {"name": "N/A", "amenity": "parking", "data_type": "way", "lat": "52.6564021", "lon": "-1.1854184", "other_tags": {"amenity": "parking", "source": "Maxar"}}, {"name": "N/A", "amenity": "school", "data_type": "way", "lat": "52.6551867", "lon": "-1.1857188", "other_tags": {"amenity": "school", "fixme": "name?", "source": "Bing"}}]}, {"county": "Leicestershire", "code": "E00130060", "lad": "Blaby", "rgn_main": "East Midlands", "population": 321, "amenities": [{"name": "N/A", "amenity": "parking", "data_type": "way", "lat": "52.6461730", "lon": "-1.1963242", "other_tags": {"amenity": "parking"}}]}, {"county": "Leicestershire", "code": "E00130062", "lad": "Blaby", "rgn_main": "East Midlands", "population": 258, "amenities": []}, {"county": "Leicestershire", "code": "E00130063", "lad": "Blaby", "rgn_main": "East Midlands", "population": 265, "amenities": []}, {"county": "Leicestershire", "code": "E00130064", "lad": "Blaby", "rgn_main": "East Midlands", "population": 358, "amenities": []}, {"county": "Leicestershire", "code": "E00130065", "lad": "Blaby", "rgn_main": "East Midlands", "population": 344, "amenities": []}, {"county": "Leicestershire", "code": "E00130066", "lad": "Blaby", "rgn_main": "East Midlands", "population": 343, "amenities": []}, {"county": "Leicestershire", "code": "E00130067", "lad": "Blaby", "rgn_main": "East Midlands", "population": 315, "amenities": [{"name": "Aquarious Fish Bar", "amenity": "fast_food", "data_type": "node", "lat": "52.6501983", "lon": "-1.1941140", "other_tags": {"addr:city": "Glenfield", "addr:country": "GB", "addr:housenumber": "76", "addr:postcode": "LE3 8ED", "addr:street": "Faire Road", "amenity": "fast_food", "cuisine": "fish_and_chips", "fhrs:authority": "Blaby", "fhrs:id": "1201685", "fhrs:local_authority_id": "2498", "name": "Aquarious Fish Bar", "source:addr": "FHRS Open Data"}}, {"name": "Golden Orient", "amenity": "fast_food", "data_type": "node", "lat": "52.6500856", "lon": "-1.1940872", "other_tags": {"addr:city": "Glenfield", "addr:country": "GB", "addr:housenumber": "80", "addr:postcode": "LE3 8ED", "addr:street": "Faire Road", "amenity": "fast_food", "cuisine": "chinese", "fhrs:authority": "Blaby", "fhrs:id": "1202002", "fhrs:local_authority_id": "42351", "name": "Golden Orient", "source:addr": "FHRS Open Data"}}, {"name": "Sameeha Restaurant", "amenity": "restaurant", "data_type": "node", "lat": "52.6500433", "lon": "-1.1940819", "other_tags": {"addr:city": "Glenfield", "addr:country": "GB", "addr:housenumber": "82", "addr:postcode": "LE3 8ED", "addr:street": "Faire Road", "amenity": "restaurant", "fhrs:authority": "Blaby", "fhrs:id": "1201555", "fhrs:local_authority_id": "19/0067/CP", "name": "Sameeha Restaurant"}}]}, {"county": "Leicestershire", "code": "E00130068", "lad": "Blaby", "rgn_main": "East Midlands", "population": 295, "amenities": []}, {"county": "Leicestershire", "code": "E00130069", "lad": "Blaby", "rgn_main": "East Midlands", "population": 348, "amenities": []}, {"county": "Leicestershire", "code": "E00130070", "lad": "Blaby", "rgn_main": "East Midlands", "population": 336, "amenities": []}, {"county": "Leicestershire", "code": "E00130071", "lad": "Blaby", "rgn_main": "East Midlands", "population": 419, "amenities": [{"name": "N/A", "amenity": "post_box", "data_type": "node", "lat": "52.6254674", "lon": "-1.2191192", "other_tags": {"amenity": "post_box", "brand": "Royal Mail", "brand:wikidata": "Q638098", "brand:wikipedia": "en:Royal Mail", "operator": "Royal Mail", "operator:wikidata": "Q638098"}}, {"name": "Woodheyes Care Home", "amenity": "social_facility", "data_type": "node", "lat": "52.6214774", "lon": "-1.2277329", "other_tags": {"addr:city": "Leicester Forest East", "addr:country": "GB", "addr:housenumber": "231", "addr:postcode": "LE3 3PH", "addr:street": "Hinckley Road", "amenity": "social_facility", "fhrs:authority": "Blaby", "fhrs:id": "1201846", "fhrs:local_authority_id": "3313", "name": "Woodheyes Care Home", "social_facility": "assisted_living"}}, {"name": "Aylesham Nursing Home", "amenity": "social_facility", "data_type": "way", "lat": "52.6231637", "lon": "-1.2249199", "other_tags": {"addr:city": "Leicester Forest East", "addr:country": "GB", "addr:housenumber": "195", "addr:postcode": "LE3 3PH", "addr:street": "Hinckley Road", "amenity": "social_facility", "building": "yes", "fhrs:authority": "Blaby", "fhrs:id": "1201847", "fhrs:local_authority_id": "3314", "name": "Aylesham Nursing Home", "operator": "Bupa", "operator:wikidata": "Q931628", "social_facility": "assisted_living"}}, {"name": "The Red Cow", "amenity": "pub", "data_type": "way", "lat": "52.6246775", "lon": "-1.2203733", "other_tags": {"addr:city": "Leicester Forest East", "addr:country": "GB", "addr:postcode": "LE3 3PG", "addr:street": "Hinckley Road", "amenity": "pub", "building": "yes", "fhrs:authority": "Blaby", "fhrs:id": "1201849", "fhrs:local_authority_id": "3317", "name": "The Red Cow"}}, {"name": "N/A", "amenity": "parking", "data_type": "way", "lat": "52.6244577", "lon": "-1.2212040", "other_tags": {"amenity": "parking"}}, {"name": "N/A", "amenity": "parking", "data_type": "way", "lat": "52.6246133", "lon": "-1.2199122", "other_tags": {"amenity": "parking"}}]}, {"county": "Leicestershire", "code": "E00130072", "lad": "Blaby", "rgn_main": "East Midlands", "population": 309, "amenities": []}, {"county": "Leicestershire", "code": "E00130073", "lad": "Blaby", "rgn_main": "East Midlands", "population": 275, "amenities": []}, {"county": "Leicestershire", "code": "E00130074", "lad": "Blaby", "rgn_main": "East Midlands", "population": 289, "amenities": []},