[{"county": "Merseyside", "code": "E00032499", "lad": "Knowsley", "rgn_main": "North West", "population": 251, "amenities": [{"name": "N/A", "amenity": "parking", "data_type": "way", "lat": "53.4327541", "lon": "-2.8580457", "other_tags": {"amenity": "parking", "parking": "surface"}}]}, {"county": "Merseyside", "code": "E00032500", "lad": "Knowsley", "rgn_main": "North West", "population": 221, "amenities": []}, {"county": "Merseyside", "code": "E00032501", "lad": "Knowsley", "rgn_main": "North West", "population": 200, "amenities": []}, {"county": "Merseyside", "code": "E00032502", "lad": "Knowsley", "rgn_main": "North West", "population": 242, "amenities": []}, {"county": "Merseyside", "code": "E00032504", "lad": "Knowsley", "rgn_main": "North West", "population": 294, "amenities": [{"name": "Stockbridge Village Primary School", "amenity": "school", "data_type": "way", "lat": "53.4356456", "lon": "-2.8658419", "other_tags": {"addr:city": "Stockbridge Village", "addr:country": "GB", "addr:postcode": "L28 1AB", "addr:street": "The Withens", "amenity": "school", "name": "Stockbridge Village Primary School", "phone": "+44 151 477 8021", "ref:edubase": "136222", "source:addr": "edubase", "source:geometry": "OS_Open_Map_Local_FunctionalSite", "source:name": "edubase", "website": "https://stockbridgevillageprimary.co.uk/", "wikidata": "Q66139683"}}, {"name": "N/A", "amenity": "parking", "data_type": "way", "lat": "53.4348418", "lon": "-2.8676679", "other_tags": {"amenity": "parking"}}]}, {"county": "Merseyside", "code": "E00032505", "lad": "Knowsley", "rgn_main": "North West", "population": 248, "amenities": []}, {"county": "Merseyside", "code": "E00032506", "lad": "Knowsley", "rgn_main": "North West", "population": 206, "amenities": []}, {"county": "Merseyside", "code": "E00032507", "lad": "Knowsley", "rgn_main": "North West", "population": 225, "amenities": []}, {"county": "Merseyside", "code": "E00032508", "lad": "Knowsley", "rgn_main": "North West", "population": 279, "amenities": []}, {"county": "Merseyside", "code": "E00032510", "lad": "Knowsley", "rgn_main": "North West", "population": 299, "amenities": []}, {"county": "Merseyside", "code": "E00032511", "lad": "Knowsley", "rgn_main": "North West", "population": 295, "amenities": []}, {"county": "Merseyside", "code": "E00032512", "lad": "Knowsley", "rgn_main": "North West", "population": 309, "amenities": []}, {"county": "Merseyside", "code": "E00032513", "lad": "Knowsley", "rgn_main": "North West", "population": 397, "amenities": []}, {"county": "Merseyside", "code": "E00032514", "lad": "Knowsley", "rgn_main": "North West", "population": 242, "amenities": [{"name": "Meadow Park School", "amenity": "school", "data_type": "way", "lat": "53.4368526", "lon": "-2.8631554", "other_tags": {"addr:city": "Knowsley", "addr:country": "GB", "addr:postcode": "L28 1RX", "addr:street": "Haswell Drive", "amenity": "school", "name": "Meadow Park School", "phone": "+44 151 477 8100", "ref:edubase": "104418", "source:addr": "edubase", "source:geometry": "OS_Open_Map_Local_FunctionalSite", "source:name": "edubase"}}, {"name": "N/A", "amenity": "library", "data_type": "way", "lat": "53.4359849", "lon": "-2.8656399", "other_tags": {"amenity": "library", "building": "yes", "source": "OS OpenMap Local"}}]}, {"county": "Merseyside", "code": "E00032515", "lad": "Knowsley", "rgn_main": "North West", "population": 355, "amenities": [{"name": "The Parish Church Of St Jude", "amenity": "place_of_worship", "data_type": "way", "lat": "53.4363554", "lon": "-2.8684485", "other_tags": {"amenity": "place_of_worship", "building": "yes", "denomination": "anglican", "name": "The Parish Church Of St Jude", "religion": "christian", "source": "OS OpenMap Local", "wikidata": "Q105098584"}}, {"name": "N/A", "amenity": "parking", "data_type": "way", "lat": "53.4351051", "lon": "-2.8687877", "other_tags": {"amenity": "parking"}}]}, {"county": "Merseyside", "code": "E00032516", "lad": "Knowsley", "rgn_main": "North West", "population": 248, "amenities": []}, {"county": "Merseyside", "code": "E00032517", "lad": "Knowsley", "rgn_main": "North West", "population": 357, "amenities": [{"name": "N/A", "amenity": "parking", "data_type": "node", "lat": "53.4664231", "lon": "-2.8526972", "other_tags": {"amenity": "parking"}}, {"name": "The Copper Pot", "amenity": "restaurant", "data_type": "node", "lat": "53.4662181", "lon": "-2.8526735", "other_tags": {"amenity": "restaurant", "name": "The Copper Pot"}}, {"name": "N/A", "amenity": "parking", "data_type": "way", "lat": "53.4719250", "lon": "-2.8547956", "other_tags": {"amenity": "parking"}}, {"name": "N/A", "amenity": "parking", "data_type": "way", "lat": "53.4728469", "lon": "-2.8686404", "other_tags": {"amenity": "parking"}}, {"name": "N/A", "amenity": "parking", "data_type": "way", "lat": "53.4735738", "lon": "-2.8590611", "other_tags": {"access": "private", "amenity": "parking", "parking": "surface", "surface": "asphalt"}}]}, {"county": "Merseyside", "code": "E00032518", "lad": "Knowsley", "rgn_main": "North West", "population": 284, "amenities": [{"name": "N/A", "amenity": "parking", "data_type": "way", "lat": "53.4728634", "lon": "-2.8756488", "other_tags": {"amenity": "parking"}}, {"name": "N/A", "amenity": "parking", "data_type": "way", "lat": "53.4717916", "lon": "-2.8761167", "other_tags": {"amenity": "parking"}}]}, {"county": "Merseyside", "code": "E00032520", "lad": "Knowsley", "rgn_main": "North West", "population": 270, "amenities": []}, {"county": "Merseyside", "code": "E00032521", "lad": "Knowsley", "rgn_main": "North West", "population": 258, "amenities": [{"name": "Kirkby High School", "amenity": "school", "data_type": "way", "lat": "53.4709465", "lon": "-2.8923329", "other_tags": {"addr:city": "Liverpool", "addr:country": "GB", "addr:postcode": "L32 9PP", "addr:street": "Bracknell Avenue", "alt_name": "Kirkby Sports College Centre for Learning", "amenity": "school", "name": "Kirkby High School", "phone": "+44 151 477 8710", "ref:edubase": "140001", "source:addr": "edubase", "source:geometry": "OS_Open_Map_Local_FunctionalSite", "source:name": "edubase", "website": "https://kirkbyhighschool.net/", "wikidata": "Q18160890", "wikipedia": "en:Kirkby High School"}}, {"name": "Bluebell Park School", "amenity": "school", "data_type": "way", "lat": "53.4721963", "lon": "-2.8876536", "other_tags": {"addr:city": "Liverpool", "addr:postcode": "L32 3XP", "addr:street": "Cawthorne Walk", "amenity": "school", "name": "Bluebell Park School", "ref:edubase": "104495", "source": "OS OpenMap Local", "source:addr:postcode": "get-information-schools.service.gov.uk"}}, {"name": "Bluebell Park School", "amenity": "school", "data_type": "way", "lat": "53.4721963", "lon": "-2.8876536", "other_tags": {"amenity": "school", "name": "Bluebell Park School", "source": "OS OpenMap Local"}}]}, {"county": "Merseyside", "code": "E00032522", "lad": "Knowsley", "rgn_main": "North West", "population": 380, "amenities": [{"name": "N/A", "amenity": "parking", "data_type": "way", "lat": "53.4674861", "lon": "-2.8828558", "other_tags": {"amenity": "parking"}}]}, {"county": "Merseyside", "code": "E00032523", "lad": "Knowsley", "rgn_main": "North West", "population": 252, "amenities": []}, {"county": "Merseyside", "code": "E00032524", "lad": "Knowsley", "rgn_main": "North West", "population": 261, "amenities": [{"name": "St Joseph the Worker Catholic Primary School", "amenity": "school", "data_type": "way", "lat": "53.4754150", "lon": "-2.8883122", "other_tags": {"addr:city": "Liverpool", "addr:country": "GB", "addr:postcode": "L32 9PF", "addr:street": "Bewley Drive", "amenity": "school", "name": "St Joseph the Worker Catholic Primary School", "phone": "+44 151 477 8173", "ref:edubase": "131836", "source:addr": "edubase", "source:geometry": "OS_Open_Map_Local_FunctionalSite", "source:name": "edubase", "website": "www.stjosephtheworkercps.co.uk", "wikidata": "Q66139272"}}]}, {"county": "Merseyside", "code": "E00032525", "lad": "Knowsley", "rgn_main": "North West", "population": 309, "amenities": []}, {"county": "Merseyside", "code": "E00032526", "lad": "Knowsley", "rgn_main": "North West", "population": 251, "amenities": []}, {"county": "Merseyside", "code": "E00032528", "lad": "Knowsley", "rgn_main": "North West", "population": 265, "amenities": [{"name": "N/A", "amenity": "parking", "data_type": "way", "lat": "53.4699159", "lon": "-2.8728509", "other_tags": {"amenity": "parking"}}]}, {"county": "Merseyside", "code": "E00032529", "lad": "Knowsley", "rgn_main": "North West", "population": 253, "amenities": []}, {"county": "Merseyside", "code": "E00032530", "lad": "Knowsley", "rgn_main": "North West", "population": 423, "amenities": [{"name": "N/A", "amenity": "parking", "data_type": "node", "lat": "53.4706459", "lon": "-2.8807080", "other_tags": {"amenity": "parking"}}, {"name": "N/A", "amenity": "parking", "data_type": "way", "lat": "53.4708861", "lon": "-2.8814019", "other_tags": {"amenity": "parking"}}, {"name": "N/A", "amenity": "parking", "data_type": "way", "lat": "53.4709503", "lon": "-2.8807333", "other_tags": {"amenity": "parking"}}]}, {"county": "Merseyside", "code": "E00032531", "lad": "Knowsley", "rgn_main": "North West", "population": 188, "amenities": [{"name": "St Martin", "amenity": "place_of_worship", "data_type": "way", "lat": "53.4693786", "lon": "-2.8773357", "other_tags": {"amenity": "place_of_worship", "building": "church", "denomination": "anglican", "name": "St Martin", "religion": "christian", "wikidata": "Q105099250"}}]}, {"county": "Merseyside", "code": "E00032532", "lad": "Knowsley", "rgn_main": "North West", "population": 301, "amenities": []}, {"county": "Merseyside", "code": "E00032533", "lad": "Knowsley", "rgn_main": "North West", "population": 333, "amenities": []}, {"county": "Merseyside", "code": "E00032534", "lad": "Knowsley", "rgn_main": "North West", "population": 347, "amenities": [{"name": "N/A", "amenity": "car_wash", "data_type": "way", "lat": "53.4647542", "lon": "-2.8754010", "other_tags": {"amenity": "car_wash", "automated": "no", "building": "yes"}}]}, {"county": "Merseyside", "code": "E00032536", "lad": "Knowsley", "rgn_main": "North West", "population": 271, "amenities": []}, {"county": "Merseyside", "code": "E00032537", "lad": "Knowsley", "rgn_main": "North West", "population": 606, "amenities": [{"name": "The Eagle and Child", "amenity": "pub", "data_type": "node", "lat": "53.3688474", "lon": "-2.8262761", "other_tags": {"addr:city": "halewood", "amenity": "pub", "name": "The Eagle and Child"}}, {"name": "N/A", "amenity": "grave_yard", "data_type": "way", "lat": "53.3695497", "lon": "-2.8285967", "other_tags": {"amenity": "grave_yard", "created_by": "Potlatch 0.10b"}}, {"name": "Halewood Church of England Primary Academy", "amenity": "school", "data_type": "way", "lat": "53.3684509", "lon": "-2.8244805", "other_tags": {"addr:city": "Liverpool", "addr:country": "GB", "addr:postcode": "L26 6LB", "addr:street": "Church Road", "amenity": "school", "capacity": "210", "denomination": "anglican", "diocese": "Diocese of Liverpool", "isced:level": "0;1", "max_age": "11", "min_age": "3", "name": "Halewood Church of England Primary Academy", "phone": "+44 151 487 5673", "ref:GB:uprn": "40008733", "ref:edubase": "143457", "ref:edubase:group": "4956", "religion": "christian", "school:boarding": "no", "school:gender": "mixed", "school:selective": "no", "school:trust": "yes", "school:trust:name": "Liverpool Diocesan Schools Trust", "school:trust:type": "multi_academy", "school:type": "academy", "source:addr": "edubase", "source:geometry": "OS_Open_Map_Local_FunctionalSite", "source:name": "edubase", "website": "https://www.halewoodcofe.co.uk/", "wikidata": "Q66140869"}}, {"name": "St. Nicholas", "amenity": "place_of_worship", "data_type": "way", "lat": "53.3693943", "lon": "-2.8279935", "other_tags": {"addr:city": "Liverpool", "addr:postcode": "L26 6LA", "addr:street": "Church Road", "amenity": "place_of_worship", "building": "church", "denomination": "anglican", "name": "St. Nicholas", "religion": "christian", "source:addr:postcode": "code-point_open", "wikidata": "Q26545012"}}]}, {"county": "Merseyside", "code": "E00032538", "lad": "Knowsley", "rgn_main": "North West", "population": 363, "amenities": []}, {"county": "Merseyside", "code": "E00032539", "lad": "Knowsley", "rgn_main": "North West", "population": 350, "amenities": []}, {"county": "Merseyside", "code": "E00032540", "lad": "Knowsley", "rgn_main": "North West", "population": 141, "amenities": [{"name": "N/A", "amenity": "parking", "data_type": "way", "lat": "53.3774826", "lon": "-2.8543423", "other_tags": {"amenity": "parking"}}]}, {"county": "Merseyside", "code": "E00032541", "lad": "Knowsley", "rgn_main": "North West", "population": 304, "amenities": [{"name": "N/A", "amenity": "bench", "data_type": "node", "lat": "53.3728404", "lon": "-2.8467193", "other_tags": {"amenity": "bench", "backrest": "yes", "colour": "green", "material": "metal", "seats": "3"}}]}, {"county": "Merseyside", "code": "E00032542", "lad": "Knowsley", "rgn_main": "North West", "population": 244, "amenities": []}, {"county": "Merseyside", "code": "E00032543", "lad": "Knowsley", "rgn_main": "North West", "population": 283, "amenities": [{"name": "The Dales", "amenity": "pub", "data_type": "node", "lat": "53.3687200", "lon": "-2.8418049", "other_tags": {"amenity": "pub", "created_by": "Potlatch 0.10b", "name": "The Dales"}}, {"name": "N/A", "amenity": "bench", "data_type": "node", "lat": "53.3678808", "lon": "-2.8413542", "other_tags": {"amenity": "bench"}}, {"name": "N/A", "amenity": "post_box", "data_type": "node", "lat": "53.3664107", "lon": "-2.8388164", "other_tags": {"amenity": "post_box", "post_box:type": "pillar", "ref": "L26 965", "royal_cypher": "EIIR"}}, {"name": "N/A", "amenity": "bench", "data_type": "node", "lat": "53.3649886", "lon": "-2.8346405", "other_tags": {"amenity": "bench"}}, {"name": "N/A", "amenity": "bench", "data_type": "node", "lat": "53.3694260", "lon": "-2.8433628", "other_tags": {"amenity": "bench", "backrest": "yes", "colour": "green", "material": "metal", "seats": "3"}}, {"name": "N/A", "amenity": "parking", "data_type": "way", "lat": "53.3674806", "lon": "-2.8403710", "other_tags": {"amenity": "parking", "parking": "surface"}}]}, {"county": "Merseyside", "code": "E00032544", "lad": "Knowsley", "rgn_main": "North West", "population": 330, "amenities": []}, {"county": "Merseyside", "code": "E00032545", "lad": "Knowsley", "rgn_main": "North West", "population": 315, "amenities": []}, {"county": "Merseyside", "code": "E00032546", "lad": "Knowsley", "rgn_main": "North West", "population": 260, "amenities": []}, {"county": "Merseyside", "code": "E00032547", "lad": "Knowsley", "rgn_main": "North West", "population": 319, "amenities": [{"name": "Plantation Primary School", "amenity": "school", "data_type": "way", "lat": "53.3649653", "lon": "-2.8306535", "other_tags": {"addr:city": "Liverpool", "addr:postcode": "L26 0TH", "addr:street": "Hollies Road", "addr:town": "Halewood", "amenity": "school", "name": "Plantation Primary School", "ref:edubase": "104441", "source:addr:postcode": "get-information-schools.service.gov.uk"}}]}, {"county": "Merseyside", "code": "E00032548", "lad": "Knowsley", "rgn_main": "North West", "population": 319, "amenities": []}, {"county": "Merseyside", "code": "E00032549", "lad": "Knowsley", "rgn_main": "North West", "population": 245, "amenities": [{"name": "N/A", "amenity": "parking", "data_type": "node", "lat": "53.3579725", "lon": "-2.7972743", "other_tags": {"amenity": "parking"}}, {"name": "Finch Woods Academy", "amenity": "school", "data_type": "way", "lat": "53.3611139", "lon": "-2.8210601", "other_tags": {"addr:city": "Liverpool", "addr:country": "GB", "addr:postcode": "L26 0TY", "addr:street": "Bailey's Lane", "alt_name": "Highfield School", "amenity": "school", "capacity": "80", "isced:level": "2", "max_age": "16", "min_age": "11", "name": "Finch Woods Academy", "phone": "+44 151 2713288", "ref:GB:uprn": "40068490", "ref:edubase": "141033", "ref:edubase:group": "15716", "religion": "none", "school:boarding": "no", "school:gender": "mixed", "school:selective": "no", "school:trust": "yes", "school:trust:name": "Manor Hall Academy Trust", "school:trust:type": "multi_academy", "school:type": "academy", "source:addr": "edubase", "source:geometry": "OS_Open_Map_Local_FunctionalSite", "source:name": "edubase", "website": "https://www.finchwoodsacademy.co.uk/", "wikidata": "Q66140354"}}]}, {"county": "Merseyside", "code": "E00032550", "lad": "Knowsley", "rgn_main": "North West", "population": 258, "amenities": [{"name": "N/A", "amenity": "bench", "data_type": "node", "lat": "53.3642271", "lon": "-2.8441074", "other_tags": {"amenity": "bench"}}]}, {"county": "Merseyside", "code": "E00032551", "lad": "Knowsley", "rgn_main": "North West", "population": 256, "amenities": [{"name": "N/A", "amenity": "parking", "data_type": "way", "lat": "53.3775191", "lon": "-2.8531653", "other_tags": {"amenity": "parking"}}]}, {"county": "Merseyside", "code": "E00032552", "lad": "Knowsley", "rgn_main": "North West", "population": 228, "amenities": []}, {"county": "Merseyside", "code": "E00032553", "lad": "Knowsley", "rgn_main": "North West", "population": 285, "amenities": [{"name": "N/A", "amenity": "waste_basket", "data_type": "node", "lat": "53.3751851", "lon": "-2.8488341", "other_tags": {"amenity": "waste_basket", "material": "metal"}}]}, {"county": "Merseyside", "code": "E00032554", "lad": "Knowsley", "rgn_main": "North West", "population": 366, "amenities": []}, {"county": "Merseyside", "code": "E00032555", "lad": "Knowsley", "rgn_main": "North West", "population": 248, "amenities": []}, {"county": "Merseyside", "code": "E00032557", "lad": "Knowsley", "rgn_main": "North West", "population": 288, "amenities": []}, {"county": "Merseyside", "code": "E00032558", "lad": "Knowsley", "rgn_main": "North West", "population": 295, "amenities": []}, {"county": "Merseyside", "code": "E00032559", "lad": "Knowsley", "rgn_main": "North West", "population": 311, "amenities": []}, {"county": "Merseyside", "code": "E00032560", "lad": "Knowsley", "rgn_main": "North West", "population": 329, "amenities": []}, {"county": "Merseyside", "code": "E00032561", "lad": "Knowsley", "rgn_main": "North West", "population": 354, "amenities": []}, {"county": "Merseyside", "code": "E00032562", "lad": "Knowsley", "rgn_main": "North West", "population": 227, "amenities": []}, {"county": "Merseyside", "code": "E00032563", "lad": "Knowsley", "rgn_main": "North West", "population": 391, "amenities": []}, {"county": "Merseyside", "code": "E00032564", "lad": "Knowsley", "rgn_main": "North West", "population": 199, "amenities": []}, {"county": "Merseyside", "code": "E00032565", "lad": "Knowsley", "rgn_main": "North West", "population": 339, "amenities": [{"name": "N/A", "amenity": "pet", "data_type": "node", "lat": "53.3734493", "lon": "-2.8188325", "other_tags": {"amenity": "pet", "pet": "boarding", "type": "dog"}}, {"name": "N/A", "amenity": "post_box", "data_type": "node", "lat": "53.3825671", "lon": "-2.8118831", "other_tags": {"amenity": "post_box"}}, {"name": "N/A", "amenity": "parking", "data_type": "node", "lat": "53.3823386", "lon": "-2.8119464", "other_tags": {"amenity": "parking", "parking": "surface"}}, {"name": "N/A", "amenity": "parking", "data_type": "node", "lat": "53.3822529", "lon": "-2.8111072", "other_tags": {"amenity": "parking", "parking": "surface"}}, {"name": "Brickwall PH", "amenity": "pub", "data_type": "node", "lat": "53.3822868", "lon": "-2.8114172", "other_tags": {"amenity": "pub", "name": "Brickwall PH"}}, {"name": "N/A", "amenity": "parking", "data_type": "way", "lat": "53.3776644", "lon": "-2.8165260", "other_tags": {"access": "private", "amenity": "parking", "parking": "surface", "surface": "concrete"}}]}, {"county": "Merseyside", "code": "E00032566", "lad": "Knowsley", "rgn_main": "North West", "population": 455, "amenities": [{"name": "N/A", "amenity": "parking", "data_type": "node", "lat": "53.3973614", "lon": "-2.8136172", "other_tags": {"amenity": "parking"}}, {"name": "N/A", "amenity": "parking", "data_type": "node", "lat": "53.4010102", "lon": "-2.8133511", "other_tags": {"amenity": "parking"}}, {"name": "N/A", "amenity": "parking", "data_type": "node", "lat": "53.3996234", "lon": "-2.8108449", "other_tags": {"amenity": "parking"}}, {"name": "N/A", "amenity": "parking", "data_type": "node", "lat": "53.4003142", "lon": "-2.8169389", "other_tags": {"amenity": "parking"}}, {"name": "N/A", "amenity": "parking", "data_type": "node", "lat": "53.3994494", "lon": "-2.8151708", "other_tags": {"amenity": "parking"}}, {"name": "N/A", "amenity": "parking", "data_type": "node", "lat": "53.3996848", "lon": "-2.8142610", "other_tags": {"amenity": "parking"}}, {"name": "N/A", "amenity": "parking", "data_type": "node", "lat": "53.4018699", "lon": "-2.8141665", "other_tags": {"amenity": "parking"}}, {"name": "N/A", "amenity": "bicycle_parking", "data_type": "node", "lat": "53.3982938", "lon": "-2.8179832", "other_tags": {"access": "yes", "amenity": "bicycle_parking", "bicycle_parking": "stands", "capacity": "6", "covered": "no", "fee": "no"}}, {"name": "N/A", "amenity": "grit_bin", "data_type": "node", "lat": "53.3982738", "lon": "-2.8179510", "other_tags": {"amenity": "grit_bin", "material": "plastic"}}, {"name": "N/A", "amenity": "pub", "data_type": "way", "lat": "53.3994033", "lon": "-2.8147416", "other_tags": {"amenity": "pub", "brand": "Brewers Fayre", "brand:wikidata": "Q4962678", "building": "yes", "cuisine": "british"}}, {"name": "Esso", "amenity": "fuel", "data_type": "way", "lat": "53.3983094", "lon": "-2.8176816", "other_tags": {"addr:city": "Knowsley", "addr:postcode": "L35 1QY", "addr:street": "Cronton Road", "addr:suburb": "Tarbock", "amenity": "fuel", "brand": "Esso", "brand:wikidata": "Q867662", "brand:wikipedia": "en:Esso", "building": "roof", "name": "Esso", "phone": "+44 7718 531786", "website": "https://www.esso.co.uk/en-gb/find-station/esso-tarbock-essotescowoodlandstarbockexpress-100200321"}}, {"name": "N/A", "amenity": "parking", "data_type": "way", "lat": "53.3989609", "lon": "-2.8157779", "other_tags": {"amenity": "parking"}}]}, {"county": "Merseyside", "code": "E00032567", "lad": "Knowsley", "rgn_main": "North West", "population": 299, "amenities": []}, {"county": "Merseyside", "code": "E00032568", "lad": "Knowsley", "rgn_main": "North West", "population": 343, "amenities": [{"name": "N/A", "amenity": "police", "data_type": "node", "lat": "53.3574717", "lon": "-2.8325761", "other_tags": {"amenity": "police", "created_by": "Potlatch 0.10b"}}, {"name": "N/A", "amenity": "parking", "data_type": "way", "lat": "53.3576312", "lon": "-2.8325850", "other_tags": {"amenity": "parking"}}]}, {"county": "Merseyside", "code": "E00032569", "lad": "Knowsley", "rgn_main": "North West", "population": 364, "amenities": [{"name": "N/A", "amenity": "parking", "data_type": "way", "lat": "53.3513677", "lon": "-2.8179870", "other_tags": {"amenity": "parking", "source": "Bing"}}, {"name": "N/A", "amenity": "parking", "data_type": "way", "lat": "53.3527833", "lon": "-2.8200212", "other_tags": {"amenity": "parking", "source": "Bing"}}]}, {"county": "Merseyside", "code": "E00032570", "lad": "Knowsley", "rgn_main": "North West", "population": 267, "amenities": []}, {"county": "Merseyside", "code": "E00032571", "lad": "Knowsley", "rgn_main": "North West", "population": 387, "amenities": []}, {"county": "Merseyside", "code": "E00032572", "lad": "Knowsley", "rgn_main": "North West", "population": 377, "amenities": []}, {"county": "Merseyside", "code": "E00032573", "lad": "Knowsley", "rgn_main": "North West", "population": 302, "amenities": [{"name": "N/A", "amenity": "fuel", "data_type": "node", "lat": "53.3580198", "lon": "-2.8343957", "other_tags": {"addr:city": "Liverpool", "addr:housenumber": "195", "addr:postcode": "L26 1UN", "addr:street": "Higher Road", "amenity": "fuel", "brand": "Shell", "phone": "+44 151 448 7902", "ref:navads": "NVDS353_12038606"}}]}, {"county": "Merseyside", "code": "E00032574", "lad": "Knowsley", "rgn_main": "North West", "population": 226, "amenities": [{"name": "Rumbly Tums Sandwich Bar", "amenity": "fast_food", "data_type": "node", "lat": "53.3600793", "lon": "-2.8395431", "other_tags": {"amenity": "fast_food", "name": "Rumbly Tums Sandwich Bar"}}, {"name": "N/A", "amenity": "post_box", "data_type": "node", "lat": "53.3600265", "lon": "-2.8397647", "other_tags": {"amenity": "post_box", "ref": "L26 388"}}, {"name": "Halewood Academy", "amenity": "school", "data_type": "way", "lat": "53.3609872", "lon": "-2.8383643", "other_tags": {"addr:city": "Liverpool", "addr:postcode": "L26 1UU", "addr:street": "The Avenue", "amenity": "school", "capacity": "1200", "isced:level": "2", "max_age": "16", "min_age": "11", "name": "Halewood Academy", "phone": "+44 151 4778830", "ref:GB:uprn": "40075128", "ref:edubase": "139614", "ref:edubase:group": "3528", "religion": "none", "school:boarding": "no", "school:gender": "mixed", "school:selective": "no", "school:trust": "yes", "school:trust:name": "Wade Deacon Trust", "school:trust:type": "multi_academy", "school:type": "academy", "source:addr:postcode": "get-information-schools.service.gov.uk", "website": "https://www.halewoodacademy.co.uk/"}}, {"name": "Halewood College", "amenity": "school", "data_type": "way", "lat": "53.3619757", "lon": "-2.8395462", "other_tags": {"amenity": "school", "name": "Halewood College", "note": "Secondary School and 6th Form College"}}]}, {"county": "Merseyside", "code": "E00032575", "lad": "Knowsley", "rgn_main": "North West", "population": 325, "amenities": [{"name": "N/A", "amenity": "library", "data_type": "node", "lat": "53.3593193", "lon": "-2.8294356", "other_tags": {"amenity": "library"}}, {"name": "Halewood Fish Bar", "amenity": "fast_food", "data_type": "node", "lat": "53.3599883", "lon": "-2.8304301", "other_tags": {"addr:city": "Liverpool", "addr:housename": "Halewood Shopping Centre", "addr:postcode": "L26 0AD", "addr:street": "Leathers Lane", "addr:unit": "Unit 11", "amenity": "fast_food", "cuisine": "fish_and_chips", "fhrs:id": "542355", "name": "Halewood Fish Bar", "phone": "+44 151 486 6566"}}, {"name": "N/A", "amenity": "parking", "data_type": "way", "lat": "53.3598929", "lon": "-2.8308250", "other_tags": {"amenity": "parking"}}, {"name": "N/A", "amenity": "post_office", "data_type": "way", "lat": "53.3591916", "lon": "-2.8291504", "other_tags": {"amenity": "post_office", "building": "yes", "source": "OS OpenMap Local"}}, {"name": "St Mary's Church", "amenity": "place_of_worship", "data_type": "way", "lat": "53.3609303", "lon": "-2.8291726", "other_tags": {"amenity": "place_of_worship", "building": "yes", "denomination": "anglican", "name": "St Mary's Church", "religion": "christian", "source": "OS OpenMap Local", "wikidata": "Q105098868"}}]}, {"county": "Merseyside", "code": "E00032576", "lad": "Knowsley", "rgn_main": "North West", "population": 276, "amenities": []}, {"county": "Merseyside", "code": "E00032577", "lad": "Knowsley", "rgn_main": "North West", "population": 327, "amenities": [{"name": "N/A", "amenity": "parking", "data_type": "way", "lat": "53.3602421", "lon": "-2.8242889", "other_tags": {"amenity": "parking"}}]}, {"county": "Merseyside", "code": "E00032578", "lad": "Knowsley", "rgn_main": "North West", "population": 309, "amenities": [{"name": "N/A", "amenity": "police", "data_type": "way", "lat": "53.3573432", "lon": "-2.8323033", "other_tags": {"amenity": "police", "building": "yes", "source": "OS OpenMap Local"}}]}, {"county": "Merseyside", "code": "E00032579", "lad": "Knowsley", "rgn_main": "North West", "population": 286, "amenities": [{"name": "N/A", "amenity": "parking", "data_type": "way", "lat": "53.3573484", "lon": "-2.8252025", "other_tags": {"amenity": "parking"}}]}, {"county": "Merseyside", "code": "E00032580", "lad": "Knowsley", "rgn_main": "North West", "population": 236, "amenities": [{"name": "N/A", "amenity": "parking", "data_type": "way", "lat": "53.3552965", "lon": "-2.8326573", "other_tags": {"amenity": "parking"}}, {"name": "N/A", "amenity": "parking", "data_type": "way", "lat": "53.3541057", "lon": "-2.8324237", "other_tags": {"amenity": "parking", "source": "bing"}}, {"name": "N/A", "amenity": "parking", "data_type": "way", "lat": "53.3541665", "lon": "-2.8304442", "other_tags": {"amenity": "parking", "source": "bing"}}]}, {"county": "Merseyside", "code": "E00032581", "lad": "Knowsley", "rgn_main": "North West", "population": 237, "amenities": [{"name": "N/A", "amenity": "parking", "data_type": "way", "lat": "53.3562071", "lon": "-2.8302431", "other_tags": {"amenity": "parking"}}, {"name": "N/A", "amenity": "parking", "data_type": "way", "lat": "53.3541441", "lon": "-2.8259113", "other_tags": {"amenity": "parking", "source": "bing"}}, {"name": "N/A", "amenity": "parking", "data_type": "way", "lat": "53.3541752", "lon": "-2.8286619", "other_tags": {"amenity": "parking", "source": "bing"}}]}, {"county": "Merseyside", "code": "E00032582", "lad": "Knowsley", "rgn_main": "North West", "population": 264, "amenities": [{"name": "St Mark's Catholic Primary School", "amenity": "school", "data_type": "way", "lat": "53.3631760", "lon": "-2.8260099", "other_tags": {"addr:city": "Liverpool", "addr:country": "GB", "addr:postcode": "L26 0XR", "addr:street": "Fir Avenue", "amenity": "school", "name": "St Mark's Catholic Primary School", "phone": "+44 151 288 8910", "ref:edubase": "104469", "source:addr": "edubase", "source:geometry": "OS_Open_Map_Local_FunctionalSite", "source:name": "edubase", "website": "www.stmarkshalewood.org.uk", "wikidata": "Q66134918"}}, {"name": "St Mark's Roman Catholic Church", "amenity": "place_of_worship", "data_type": "way", "lat": "53.3631045", "lon": "-2.8264775", "other_tags": {"amenity": "place_of_worship", "building": "yes", "denomination": "catholic", "name": "St Mark's Roman Catholic Church", "religion": "christian", "source": "OS OpenMap Local"}}, {"name": "St Mark's Roman Catholic Church", "amenity": "place_of_worship", "data_type": "way", "lat": "53.3634323", "lon": "-2.8268502", "other_tags": {"amenity": "place_of_worship", "building": "yes", "denomination": "catholic", "name": "St Mark's Roman Catholic Church", "religion": "christian", "source": "OS OpenMap Local"}}]}, {"county": "Merseyside", "code": "E00032583", "lad": "Knowsley", "rgn_main": "North West", "population": 214, "amenities": []}, {"county": "Merseyside", "code": "E00032584", "lad": "Knowsley", "rgn_main": "North West", "population": 205, "amenities": []}, {"county": "Merseyside", "code": "E00032585", "lad": "Knowsley", "rgn_main": "North West", "population": 249, "amenities": []}, {"county": "Merseyside", "code": "E00032586", "lad": "Knowsley", "rgn_main": "North West", "population": 285, "amenities": [{"name": "N/A", "amenity": "school", "data_type": "way", "lat": "53.3603572", "lon": "-2.8332454", "other_tags": {"amenity": "school"}}, {"name": "N/A", "amenity": "parking", "data_type": "way", "lat": "53.3607175", "lon": "-2.8305046", "other_tags": {"amenity": "parking"}}]}, {"county": "Merseyside", "code": "E00032587", "lad": "Knowsley", "rgn_main": "North West", "population": 299, "amenities": [{"name": "N/A", "amenity": "parking", "data_type": "way", "lat": "53.3584297", "lon": "-2.8418610", "other_tags": {"amenity": "parking"}}]}, {"county": "Merseyside", "code": "E00032588", "lad": "Knowsley", "rgn_main": "North West", "population": 431, "amenities": []}, {"county": "Merseyside", "code": "E00032589", "lad": "Knowsley", "rgn_main": "North West", "population": 288, "amenities": []}, {"county": "Merseyside", "code": "E00032590", "lad": "Knowsley", "rgn_main": "North West", "population": 314, "amenities": []}, {"county": "Merseyside", "code": "E00032591", "lad": "Knowsley", "rgn_main": "North West", "population": 414, "amenities": [{"name": "N/A", "amenity": "parking", "data_type": "way", "lat": "53.3696569", "lon": "-2.8474057", "other_tags": {"amenity": "parking"}}, {"name": "N/A", "amenity": "school", "data_type": "way", "lat": "53.3695565", "lon": "-2.8469067", "other_tags": {"amenity": "school"}}]}, {"county": "Merseyside", "code": "E00032592", "lad": "Knowsley", "rgn_main": "North West", "population": 508, "amenities": []}, {"county": "Merseyside", "code": "E00032593", "lad": "Knowsley", "rgn_main": "North West", "population": 495, "amenities": []}, {"county": "Merseyside", "code": "E00032594", "lad": "Knowsley", "rgn_main": "North West", "population": 254, "amenities": [{"name": "N/A", "amenity": "parking", "data_type": "way", "lat": "53.3588959", "lon": "-2.8427638", "other_tags": {"amenity": "parking"}}, {"name": "N/A", "amenity": "parking", "data_type": "way", "lat": "53.3582302", "lon": "-2.8435294", "other_tags": {"amenity": "parking"}}]}, {"county": "Merseyside", "code": "E00032595", "lad": "Knowsley", "rgn_main": "North West", "population": 208, "amenities": [{"name": "N/A", "amenity": "parking", "data_type": "way", "lat": "53.3562167", "lon": "-2.8416318", "other_tags": {"amenity": "parking"}}, {"name": "St Andrew the Apostle Catholic Primary School", "amenity": "school", "data_type": "way", "lat": "53.3586639", "lon": "-2.8438842", "other_tags": {"addr:city": "Liverpool", "addr:country": "GB", "addr:postcode": "L26 1TD", "addr:street": "Higher Road", "amenity": "school", "name": "St Andrew the Apostle Catholic Primary School", "phone": "+44 151 288 8940", "ref:edubase": "104470", "source:addr": "edubase", "source:geometry": "OS_Open_Map_Local_FunctionalSite", "source:name": "edubase", "website": "https://www.standrewapostle.co.uk/", "wikidata": "Q66134919"}}]}, {"county": "Merseyside", "code": "E00032596", "lad": "Knowsley", "rgn_main": "North West", "population": 305, "amenities": []}, {"county": "Merseyside", "code": "E00032597", "lad": "Knowsley", "rgn_main": "North West", "population": 241, "amenities": []}, {"county": "Merseyside", "code": "E00032598", "lad": "Knowsley", "rgn_main": "North West", "population": 295, "amenities": []}, {"county": "Merseyside", "code": "E00032599", "lad": "Knowsley", "rgn_main": "North West", "population": 255, "amenities": [{"name": "N/A", "amenity": "bench", "data_type": "node", "lat": "53.3664283", "lon": "-2.8429915", "other_tags": {"amenity": "bench", "backrest": "yes", "colour": "green", "material": "metal"}}, {"name": "Maple Lodge Care Home", "amenity": "social_facility", "data_type": "way", "lat": "53.3681746", "lon": "-2.8467475", "other_tags": {"amenity": "social_facility", "name": "Maple Lodge Care Home", "social_facility": "group_home"}}]}, {"county": "Merseyside", "code": "E00032600", "lad": "Knowsley", "rgn_main": "North West", "population": 254, "amenities": [{"name": "N/A", "amenity": "post_box", "data_type": "node", "lat": "53.3701349", "lon": "-2.8495286", "other_tags": {"amenity": "post_box", "ref": "L25 946"}}, {"name": "N/A", "amenity": "parking", "data_type": "way", "lat": "53.3708402", "lon": "-2.8486980", "other_tags": {"amenity": "parking"}}]}, {"county": "Merseyside", "code": "E00032601", "lad": "Knowsley", "rgn_main": "North West", "population": 294, "amenities": [{"name": "The Grenadier", "amenity": "pub", "data_type": "node", "lat": "53.3675884", "lon": "-2.8494169", "other_tags": {"amenity": "pub", "name": "The Grenadier"}}]}, {"county": "Merseyside", "code": "E00032602", "lad": "Knowsley", "rgn_main": "North West", "population": 236, "amenities": []}, {"county": "Merseyside", "code": "E00032603", "lad": "Knowsley", "rgn_main": "North West", "population": 476, "amenities": [{"name": "CAMBERLEY DRIVE HALEWOOD", "amenity": "taxi", "data_type": "node", "lat": "53.3677556", "lon": "-2.8487314", "other_tags": {"amenity": "taxi", "name": "CAMBERLEY DRIVE HALEWOOD", "naptan:AtcoCode": "2800TX00040", "naptan:CommonName": "CAMBERLEY DRIVE HALEWOOD", "naptan:Indicator": "CAMBERLEY DRIVE HALEWOOD", "naptan:Landmark": "19.5M FROM JUNCTION WITH SHERBOURNE AVENUE", "naptan:Notes": "No Notes", "naptan:PlusbusZoneRef": "LVRPLCH", "naptan:Street": "CAMBERLEY DRIVE", "naptan:verified": "no", "source": "naptan_import"}}, {"name": "N/A", "amenity": "post_box", "data_type": "node", "lat": "53.3653048", "lon": "-2.8470035", "other_tags": {"amenity": "post_box", "ref": "L25 945"}}]}, {"county": "Merseyside", "code": "E00032604", "lad": "Knowsley", "rgn_main": "North West", "population": 441, "amenities": [{"name": "N/A", "amenity": "post_box", "data_type": "node", "lat": "53.3672236", "lon": "-2.8511678", "other_tags": {"amenity": "post_box", "ref": "L25 958"}}, {"name": "N/A", "amenity": "post_office", "data_type": "node", "lat": "53.3671547", "lon": "-2.8511082", "other_tags": {"amenity": "post_office"}}, {"name": "N/A", "amenity": "pharmacy", "data_type": "node", "lat": "53.3671594", "lon": "-2.8510215", "other_tags": {"amenity": "pharmacy", "dispensing": "yes", "healthcare": "pharmacy"}}, {"name": "N/A", "amenity": "parking", "data_type": "way", "lat": "53.3669150", "lon": "-2.8511179", "other_tags": {"amenity": "parking"}}]}, {"county": "Merseyside", "code": "E00032605", "lad": "Knowsley", "rgn_main": "North West", "population": 117, "amenities": []}, {"county": "Merseyside", "code": "E00032606", "lad": "Knowsley", "rgn_main": "North West", "population": 374, "amenities": [{"name": "N/A", "amenity": "post_box", "data_type": "node", "lat": "53.3648037", "lon": "-2.8534531", "other_tags": {"amenity": "post_box", "ref": "L25 864"}}]}, {"county": "Merseyside", "code": "E00032607", "lad": "Knowsley", "rgn_main": "North West", "population": 272, "amenities": []}, {"county": "Merseyside", "code": "E00032608", "lad": "Knowsley", "rgn_main": "North West", "population": 290, "amenities": []}, {"county": "Merseyside", "code": "E00032609", "lad": "Knowsley", "rgn_main": "North West", "population": 289, "amenities": [{"name": "N/A", "amenity": "parking", "data_type": "way", "lat": "53.4735052", "lon": "-2.8710515", "other_tags": {"amenity": "parking"}}, {"name": "N/A", "amenity": "parking", "data_type": "way", "lat": "53.4732560", "lon": "-2.8697246", "other_tags": {"amenity": "parking"}}]}, {"county": "Merseyside", "code": "E00032610", "lad": "Knowsley", "rgn_main": "North West", "population": 324, "amenities": [{"name": "N/A", "amenity": "parking", "data_type": "way", "lat": "53.4732920", "lon": "-2.8829809", "other_tags": {"amenity": "parking"}}, {"name": "N/A", "amenity": "parking", "data_type": "way", "lat": "53.4713015", "lon": "-2.8818236", "other_tags": {"amenity": "parking"}}, {"name": "Kingfisher", "amenity": "pub", "data_type": "way", "lat": "53.4713196", "lon": "-2.8827758", "other_tags": {"addr:city": "Liverpool", "addr:housenumber": "98", "addr:postcode": "L32 6QJ", "addr:street": "Bewley Drive", "amenity": "pub", "building": "yes", "name": "Kingfisher"}}]}, {"county": "Merseyside", "code": "E00032611", "lad": "Knowsley", "rgn_main": "North West", "population": 412, "amenities": [{"name": "N/A", "amenity": "parking", "data_type": "way", "lat": "53.4827060", "lon": "-2.8792022", "other_tags": {"amenity": "parking"}}]}, {"county": "Merseyside", "code": "E00032612", "lad": "Knowsley", "rgn_main": "North West", "population": 279, "amenities": []}, {"county": "Merseyside", "code": "E00032613", "lad": "Knowsley", "rgn_main": "North West", "population": 277, "amenities": []}, {"county": "Merseyside", "code": "E00032614", "lad": "Knowsley", "rgn_main": "North West", "population": 158, "amenities": [{"name": "TELEGRAPH WAY KIRKBY", "amenity": "taxi", "data_type": "node", "lat": "53.4833395", "lon": "-2.8879737", "other_tags": {"amenity": "taxi", "name": "TELEGRAPH WAY KIRKBY", "naptan:AtcoCode": "2800TX00062", "naptan:CommonName": "TELEGRAPH WAY KIRKBY", "naptan:Indicator": "TELEGRAPH WAY KIRKBY", "naptan:Landmark": "80M FROM JUNCTION WITH HALL LANE", "naptan:Notes": "No Notes", "naptan:PlusbusZoneRef": "LVRPLCH", "naptan:Street": "TELEGRAPH WAY", "naptan:verified": "no", "source": "naptan_import"}}, {"name": "CHERRYFIELD DRIVE KIRKBY", "amenity": "taxi", "data_type": "node", "lat": "53.4810573", "lon": "-2.8878356", "other_tags": {"amenity": "taxi", "name": "CHERRYFIELD DRIVE KIRKBY", "naptan:AtcoCode": "2800TX00041", "naptan:CommonName": "CHERRYFIELD DRIVE KIRKBY", "naptan:Indicator": "CHERRYFIELD DRIVE KIRKBY", "naptan:Landmark": "30M FROM JUNCTION WITH SOUTH PARADE", "naptan:Notes": "No Notes", "naptan:PlusbusZoneRef": "LVRPLCH", "naptan:Street": "CHERRYFIELD DRIVE", "naptan:verified": "no", "source": "naptan_import"}}, {"name": "KIRKBY IN-SHOPS", "amenity": "taxi", "data_type": "node", "lat": "53.4827997", "lon": "-2.8856115", "other_tags": {"amenity": "taxi", "name": "KIRKBY IN-SHOPS", "naptan:AtcoCode": "2800TX00061", "naptan:CommonName": "KIRKBY IN-SHOPS", "naptan:Indicator": "KIRKBY IN-SHOPS", "naptan:Landmark": "CAR PARK SOUTH WEST OF JUNCTION OF IRLAM DRIVE/C", "naptan:Notes": "No Notes", "naptan:PlusbusZoneRef": "LVRPLCH", "naptan:Street": "IRLAM DRIVE", "naptan:verified": "no", "source": "naptan_import"}}, {"name": "ST CHADS DRIVE", "amenity": "taxi", "data_type": "node", "lat": "53.4816715", "lon": "-2.8842714", "other_tags": {"amenity": "taxi", "name": "ST CHADS DRIVE", "naptan:AtcoCode": "2800TX00067", "naptan:CommonName": "ST CHADS DRIVE", "naptan:Indicator": "ST CHADS DRIVE", "naptan:Landmark": "11M EAST OF JUNCTION WITH NORTH PARADE", "naptan:Notes": "No Notes", "naptan:PlusbusZoneRef": "LVRPLCH", "naptan:Street": "ST CHADS DRIVE", "naptan:verified": "no", "source": "naptan_import"}}, {"name": "Kirkby General Post Office", "amenity": "post_box", "data_type": "node", "lat": "53.4811403", "lon": "-2.8861875", "other_tags": {"amenity": "post_box", "name": "Kirkby General Post Office"}}, {"name": "The L32 Club", "amenity": "nightclub", "data_type": "node", "lat": "53.4813129", "lon": "-2.8883190", "other_tags": {"amenity": "nightclub", "name": "The L32 Club"}}, {"name": "Subway", "amenity": "fast_food", "data_type": "node", "lat": "53.4816520", "lon": "-2.8888584", "other_tags": {"amenity": "fast_food", "brand": "Subway", "brand:wikidata": "Q244457", "brand:wikipedia": "en:Subway (restaurant)", "cuisine": "sandwich", "name": "Subway", "phone": "+441515450250", "takeaway": "yes"}}, {"name": "Luke's Chippy", "amenity": "fast_food", "data_type": "node", "lat": "53.4818659", "lon": "-2.8886226", "other_tags": {"amenity": "fast_food", "name": "Luke's Chippy"}}, {"name": "Greggs", "amenity": "fast_food", "data_type": "node", "lat": "53.4817799", "lon": "-2.8870034", "other_tags": {"amenity": "fast_food", "brand": "Greggs", "brand:wikidata": "Q3403981", "brand:wikipedia": "en:Greggs", "contact:website": "https://www.greggs.co.uk/shop-finder?shop-code=0394", "cuisine": "sandwich;bakery", "name": "Greggs", "takeaway": "yes"}}, {"name": "Superdrug", "amenity": "pharmacy", "data_type": "node", "lat": "53.4817075", "lon": "-2.8868153", "other_tags": {"amenity": "pharmacy", "brand": "Superdrug", "brand:wikidata": "Q7643261", "brand:wikipedia": "en:Superdrug", "healthcare": "pharmacy", "name": "Superdrug"}}, {"name": "Santander", "amenity": "bank", "data_type": "node", "lat": "53.4817690", "lon": "-2.8860635", "other_tags": {"amenity": "bank", "brand": "Santander", "brand:wikidata": "Q7420065", "brand:wikipedia": "en:Santander UK", "name": "Santander"}}, {"name": "N/A", "amenity": "pub", "data_type": "node", "lat": "53.4819105", "lon": "-2.8856224", "other_tags": {"amenity": "pub"}}, {"name": "N/A", "amenity": "parking_entrance", "data_type": "node", "lat": "53.4836002", "lon": "-2.8860168", "other_tags": {"amenity": "parking_entrance", "parking": "underground"}}, {"name": "N/A", "amenity": "parking", "data_type": "way", "lat": "53.4791546", "lon": "-2.8866169", "other_tags": {"amenity": "parking"}}, {"name": "N/A", "amenity": "parking", "data_type": "way", "lat": "53.4834225", "lon": "-2.8848600", "other_tags": {"amenity": "parking"}}, {"name": "N/A", "amenity": "parking", "data_type": "way", "lat": "53.4837052", "lon": "-2.8860258", "other_tags": {"amenity": "parking"}}, {"name": "N/A", "amenity": "parking", "data_type": "way", "lat": "53.4832829", "lon": "-2.8882301", "other_tags": {"amenity": "parking"}}, {"name": "N/A", "amenity": "parking", "data_type": "way", "lat": "53.4823311", "lon": "-2.8857334", "other_tags": {"amenity": "parking"}}, {"name": "N/A", "amenity": "parking", "data_type": "way", "lat": "53.4827009", "lon": "-2.8875490", "other_tags": {"amenity": "parking"}}, {"name": "N/A", "amenity": "parking", "data_type": "way", "lat": "53.4829062", "lon": "-2.8890902", "other_tags": {"amenity": "parking"}}, {"name": "N/A", "amenity": "parking", "data_type": "way", "lat": "53.4827191", "lon": "-2.8903646", "other_tags": {"amenity": "parking"}}, {"name": "N/A", "amenity": "parking", "data_type": "way", "lat": "53.4820391", "lon": "-2.8920008", "other_tags": {"amenity": "parking"}}, {"name": "N/A", "amenity": "parking", "data_type": "way", "lat": "53.4820582", "lon": "-2.8841567", "other_tags": {"amenity": "parking"}}, {"name": "N/A", "amenity": "police", "data_type": "way", "lat": "53.4817272", "lon": "-2.8829748", "other_tags": {"amenity": "police", "building": "yes", "source": "OS OpenMap Local"}}, {"name": "Kirkby Police Station", "amenity": "police", "data_type": "way", "lat": "53.4820644", "lon": "-2.8831456", "other_tags": {"amenity": "police", "building": "yes", "name": "Kirkby Police Station", "operator": "Merseyside Police", "operator:wikidata": "Q6820586", "source": "OS OpenMap Local"}}, {"name": "Kirkby Fire Station", "amenity": "fire_station", "data_type": "way", "lat": "53.4813991", "lon": "-2.8838311", "other_tags": {"amenity": "fire_station", "building": "yes", "name": "Kirkby Fire Station", "operator": "Merseyside Fire and Rescue Service", "operator:wikidata": "Q6820576", "source": "OS OpenMap Local"}}, {"name": "Kirkby Library", "amenity": "library", "data_type": "way", "lat": "53.4824643", "lon": "-2.8906589", "other_tags": {"amenity": "library", "building": "yes", "name": "Kirkby Library", "wikidata": "Q55183636"}}, {"name": "St Chad's Medical Centre", "amenity": "doctors", "data_type": "way", "lat": "53.4827894", "lon": "-2.8850124", "other_tags": {"amenity": "doctors", "building": "yes", "healthcare": "doctor", "name": "St Chad's Medical Centre"}}, {"name": "McDonald's", "amenity": "fast_food", "data_type": "way", "lat": "53.4842026", "lon": "-2.8852826", "other_tags": {"amenity": "fast_food", "brand": "McDonald's", "brand:wikidata": "Q38076", "brand:wikipedia": "en:McDonald's", "building": "yes", "contact:website": "https://www.mcdonalds.com/gb/en-gb/location/knowsley/kirkby---county-roadhall-lane/county-road/8261022.html", "cuisine": "burger", "drive_through": "yes", "name": "McDonald's", "takeaway": "yes"}}, {"name": "Kirkby Market", "amenity": "marketplace", "data_type": "way", "lat": "53.4821494", "lon": "-2.8852033", "other_tags": {"amenity": "marketplace", "building": "yes", "height": "4", "name": "Kirkby Market"}}, {"name": "Lloyds Bank", "amenity": "bank", "data_type": "way", "lat": "53.4806435", "lon": "-2.8873386", "other_tags": {"addr:country": "GB", "amenity": "bank", "brand": "Lloyds Bank", "brand:wikidata": "Q1152847", "brand:wikipedia": "en:Lloyds Bank", "building": "yes", "contact:website": "https://branches.lloydsbank.com/liverpool/145-cherryfield-drive", "height": "5", "name": "Lloyds Bank"}}, {"name": "N/A", "amenity": "parking", "data_type": "way", "lat": "53.4805303", "lon": "-2.8861401", "other_tags": {"amenity": "parking"}}, {"name": "Kirkby Bus Station", "amenity": "bus_station", "data_type": "way", "lat": "53.4813006", "lon": "-2.8885964", "other_tags": {"amenity": "bus_station", "bus": "yes", "name": "Kirkby Bus Station", "public_transport": "station"}}]}, {"county": "Merseyside", "code": "E00032615", "lad": "Knowsley", "rgn_main": "North West", "population": 273, "amenities": []}, {"county": "Merseyside", "code": "E00032616", "lad": "Knowsley", "rgn_main": "North West", "population": 338, "amenities": []}, {"county": "Merseyside", "code": "E00032617", "lad": "Knowsley", "rgn_main": "North West", "population": 291, "amenities": []}, {"county": "Merseyside", "code": "E00032618", "lad": "Knowsley", "rgn_main": "North West", "population": 384, "amenities": [{"name": "St Laurence's Catholic Primary School", "amenity": "school", "data_type": "way", "lat": "53.4759446", "lon": "-2.8781750", "other_tags": {"addr:city": "Liverpool", "addr:country": "GB", "addr:postcode": "L32 9QX", "addr:street": "Leeside Avenue", "amenity": "school", "name": "St Laurence's Catholic Primary School", "phone": "+44 151 546 4733", "ref:edubase": "104461", "source:addr": "edubase", "source:geometry": "OS_Open_Map_Local_FunctionalSite", "source:name": "edubase", "website": "www.stlaurences.co.uk", "wikidata": "Q66134913"}}]}, {"county": "Merseyside", "code": "E00032619", "lad": "Knowsley", "rgn_main": "North West", "population": 348, "amenities": []}, {"county": "Merseyside", "code": "E00032620", "lad": "Knowsley", "rgn_main": "North West", "population": 217, "amenities": [{"name": "BROAD LANE KIRKBY", "amenity": "taxi", "data_type": "node", "lat": "53.4743600", "lon": "-2.8757176", "other_tags": {"amenity": "taxi", "name": "BROAD LANE KIRKBY", "naptan:AtcoCode": "2800TX00048", "naptan:CommonName": "BROAD LANE KIRKBY", "naptan:Indicator": "BROAD LANE KIRKBY", "naptan:Landmark": "NW SIDE OF SERVICE ROAD FRONTING SHOPS", "naptan:Notes": "No Notes", "naptan:PlusbusZoneRef": "LVRPLCH", "naptan:Street": "BROAD LANE", "naptan:verified": "no", "source": "naptan_import"}}, {"name": "Park Brow Community Primary School", "amenity": "school", "data_type": "way", "lat": "53.4755683", "lon": "-2.8716506", "other_tags": {"addr:city": "Liverpool", "addr:postcode": "L32 6QH", "addr:street": "Broad Lane", "amenity": "school", "name": "Park Brow Community Primary School", "ref:edubase": "104429", "source": "OS OpenMap Local", "source:addr:postcode": "get-information-schools.service.gov.uk", "wikidata": "Q66134902"}}, {"name": "N/A", "amenity": "parking", "data_type": "way", "lat": "53.4738821", "lon": "-2.8738893", "other_tags": {"amenity": "parking"}}]}, {"county": "Merseyside", "code": "E00032621", "lad": "Knowsley", "rgn_main": "North West", "population": 349, "amenities": []}, {"county": "Merseyside", "code": "E00032622", "lad": "Knowsley", "rgn_main": "North West", "population": 281, "amenities": [{"name": "N/A", "amenity": "parking", "data_type": "way", "lat": "53.4748567", "lon": "-2.8765511", "other_tags": {"amenity": "parking"}}]}, {"county": "Merseyside", "code": "E00032623", "lad": "Knowsley", "rgn_main": "North West", "population": 293, "amenities": [{"name": "The Maples", "amenity": "social_facility", "data_type": "way", "lat": "53.4829612", "lon": "-2.8784387", "other_tags": {"addr:city": "Kirkby", "addr:postcode": "L33 0YN", "addr:street": "Ashfield Crescent", "amenity": "social_facility", "name": "The Maples", "operator": "CRG Homecare", "social_facility": "assisted_living", "social_facility:for": "senior"}}]}, {"county": "Merseyside", "code": "E00032624", "lad": "Knowsley", "rgn_main": "North West", "population": 249, "amenities": []}, {"county": "Merseyside", "code": "E00032625", "lad": "Knowsley", "rgn_main": "North West", "population": 257, "amenities": []}, {"county": "Merseyside", "code": "E00032626", "lad": "Knowsley", "rgn_main": "North West", "population": 307, "amenities": []}, {"county": "Merseyside", "code": "E00032627", "lad": "Knowsley", "rgn_main": "North West", "population": 352, "amenities": []}, {"county": "Merseyside", "code": "E00032628", "lad": "Knowsley", "rgn_main": "North West", "population": 297, "amenities": []}, {"county": "Merseyside", "code": "E00032629", "lad": "Knowsley", "rgn_main": "North West", "population": 248, "amenities": [{"name": "St Mary", "amenity": "place_of_worship", "data_type": "way", "lat": "53.4562738", "lon": "-2.8529671", "other_tags": {"amenity": "place_of_worship", "building": "church", "denomination": "anglican", "name": "St Mary", "religion": "christian", "wikidata": "Q7594360", "wikipedia": "en:St Mary's Church, Knowsley"}}, {"name": "N/A", "amenity": "grave_yard", "data_type": "way", "lat": "53.4560340", "lon": "-2.8533615", "other_tags": {"amenity": "grave_yard"}}, {"name": "N/A", "amenity": "parking", "data_type": "way", "lat": "53.4619072", "lon": "-2.8553087", "other_tags": {"amenity": "parking"}}]}, {"county": "Merseyside", "code": "E00032630", "lad": "Knowsley", "rgn_main": "North West", "population": 326, "amenities": []}, {"county": "Merseyside", "code": "E00032631", "lad": "Knowsley", "rgn_main": "North West", "population": 460, "amenities": [{"name": "N/A", "amenity": "post_box", "data_type": "node", "lat": "53.4284679", "lon": "-2.8413510", "other_tags": {"amenity": "post_box"}}, {"name": "N/A", "amenity": "shelter", "data_type": "way", "lat": "53.4481149", "lon": "-2.8084996", "other_tags": {"amenity": "shelter", "building": "yes", "shelter_type": "gazebo"}}, {"name": "N/A", "amenity": "shelter", "data_type": "way", "lat": "53.4469552", "lon": "-2.8090403", "other_tags": {"amenity": "shelter", "building": "yes", "shelter_type": "gazebo"}}, {"name": "N/A", "amenity": "shelter", "data_type": "way", "lat": "53.4458571", "lon": "-2.8040620", "other_tags": {"amenity": "shelter", "building": "yes"}}, {"name": "N/A", "amenity": "shelter", "data_type": "way", "lat": "53.4451299", "lon": "-2.8047328", "other_tags": {"amenity": "shelter", "building": "yes"}}, {"name": "N/A", "amenity": "shelter", "data_type": "way", "lat": "53.4440376", "lon": "-2.8042995", "other_tags": {"amenity": "shelter", "building": "yes", "shelter_type": "gazebo"}}, {"name": "N/A", "amenity": "shelter", "data_type": "way", "lat": "53.4424841", "lon": "-2.8091659", "other_tags": {"amenity": "shelter", "building": "yes", "shelter_type": "gazebo"}}, {"name": "N/A", "amenity": "shelter", "data_type": "way", "lat": "53.4494375", "lon": "-2.8143124", "other_tags": {"amenity": "shelter", "building": "yes"}}, {"name": "N/A", "amenity": "shelter", "data_type": "way", "lat": "53.4505460", "lon": "-2.8187698", "other_tags": {"amenity": "shelter", "building": "yes", "shelter_type": "gazebo"}}]}, {"county": "Merseyside", "code": "E00032632", "lad": "Knowsley", "rgn_main": "North West", "population": 348, "amenities": [{"name": "N/A", "amenity": "grave_yard", "data_type": "way", "lat": "53.4559912", "lon": "-2.8535049", "other_tags": {"amenity": "grave_yard"}}, {"name": "Knowsley Village School", "amenity": "school", "data_type": "way", "lat": "53.4492990", "lon": "-2.8538135", "other_tags": {"addr:city": "Prescot", "addr:country": "GB", "addr:postcode": "L34 0ER", "addr:street": "Sugar Lane", "amenity": "school", "name": "Knowsley Village School", "phone": "+44 151 289 5349", "ref:edubase": "104423", "source:addr": "edubase", "source:geometry": "OS_Open_Map_Local_FunctionalSite", "source:name": "edubase", "website": "https://knowsleyvillageschool.co.uk/", "wikidata": "Q66134900"}}, {"name": "The Derby Arms", "amenity": "pub", "data_type": "way", "lat": "53.4542610", "lon": "-2.8543454", "other_tags": {"amenity": "pub", "brewery": "Greene King;yes", "building": "yes", "name": "The Derby Arms", "outdoor_seating": "yes", "phone": "+44 151 458 0471", "website": "https://www.thederbyknowsleyvillage.co.uk/"}}, {"name": "N/A", "amenity": "parking", "data_type": "way", "lat": "53.4547518", "lon": "-2.8538711", "other_tags": {"access": "customers", "amenity": "parking", "parking": "surface", "surface": "asphalt"}}]}, {"county": "Merseyside", "code": "E00032633", "lad": "Knowsley", "rgn_main": "North West", "population": 311, "amenities": [{"name": "St John Fisher Catholic Primary School", "amenity": "school", "data_type": "way", "lat": "53.4531461", "lon": "-2.8524633", "other_tags": {"addr:city": "Prescot", "addr:country": "GB", "addr:postcode": "L34 0HA", "addr:street": "Tithebarn Road", "amenity": "school", "capacity": "210", "denomination": "roman_catholic", "diocese": "Archdiocese of Liverpool", "isced:level": "0;1", "max_age": "11", "min_age": "3", "name": "St John Fisher Catholic Primary School", "phone": "+44 151 477 8590", "ref:GB:uprn": "40043158", "ref:edubase": "104476", "religion": "christian", "school:boarding": "no", "school:gender": "mixed", "school:selective": "no", "school:trust": "no", "school:type": "voluntary_aided", "source:addr": "edubase", "source:geometry": "OS_Open_Map_Local_FunctionalSite", "source:name": "edubase", "website": "http://stjohnfisherprimary.co.uk/", "wikidata": "Q66134922"}}, {"name": "St John Fisher Church", "amenity": "place_of_worship", "data_type": "way", "lat": "53.4528957", "lon": "-2.8505339", "other_tags": {"amenity": "place_of_worship", "building": "yes", "name": "St John Fisher Church", "religion": "christian", "source": "OS OpenMap Local"}}]}, {"county": "Merseyside", "code": "E00032634", "lad": "Knowsley", "rgn_main": "North West", "population": 305, "amenities": [{"name": "SUGAR LANE KNOWSLEY VILLAGE", "amenity": "taxi", "data_type": "node", "lat": "53.4498374", "lon": "-2.8512909", "other_tags": {"amenity": "taxi", "name": "SUGAR LANE KNOWSLEY VILLAGE", "naptan:AtcoCode": "2800TX00044", "naptan:CommonName": "SUGAR LANE KNOWSLEY VILLAGE", "naptan:Indicator": "SUGAR LANE KNOWSLEY VILLAGE", "naptan:Landmark": "39.6M FROM JUNCTION WITH FOUNTAIN ROAD", "naptan:Notes": "No Notes", "naptan:PlusbusZoneRef": "LVRPLCH", "naptan:Street": "SUGAR LANE", "naptan:verified": "no", "source": "naptan_import"}}]}, {"county": "Merseyside", "code": "E00032635", "lad": "Knowsley", "rgn_main": "North West", "population": 303, "amenities": []}, {"county": "Merseyside", "code": "E00032636", "lad": "Knowsley", "rgn_main": "North West", "population": 232, "amenities": []}, {"county": "Merseyside", "code": "E00032637", "lad": "Knowsley", "rgn_main": "North West", "population": 356, "amenities": [{"name": "St Brigid's Catholic Primary School", "amenity": "school", "data_type": "way", "lat": "53.4341164", "lon": "-2.8674448", "other_tags": {"addr:city": "Liverpool", "addr:country": "GB", "addr:postcode": "L28 7RE", "addr:street": "Waterpark Drive", "alt_name": "St Bridgid's Roman Catholic Primary School", "amenity": "school", "name": "St Brigid's Catholic Primary School", "phone": "+44 151 477 8150", "ref:edubase": "104474", "source:addr": "edubase", "source:geometry": "OS_Open_Map_Local_FunctionalSite", "source:name": "edubase", "website": "stbrigid.knowsley.sch.uk", "wikidata": "Q66134920"}}]}, {"county": "Merseyside", "code": "E00032639", "lad": "Knowsley", "rgn_main": "North West", "population": 314, "amenities": []}, {"county": "Merseyside", "code": "E00032640", "lad": "Knowsley", "rgn_main": "North West", "population": 231, "amenities": []}, {"county": "Merseyside", "code": "E00032641", "lad": "Knowsley", "rgn_main": "North West", "population": 422, "amenities": [{"name": "N/A", "amenity": "school", "data_type": "way", "lat": "53.4313177", "lon": "-2.8637864", "other_tags": {"amenity": "school"}}]}, {"county": "Merseyside", "code": "E00032644", "lad": "Knowsley", "rgn_main": "North West", "population": 257, "amenities": [{"name": "Knowsley Lane Primary School", "amenity": "school", "data_type": "way", "lat": "53.4280950", "lon": "-2.8398968", "other_tags": {"addr:city": "Huyton", "addr:postcode": "L36 8DB", "addr:street": "Knowsley Lane", "amenity": "school", "name": "Knowsley Lane Primary School", "phone": "+44 151 556 9999", "ref:edubase": "141205", "source": "Bing", "website": "https://knowsleylane.knowsley.sch.uk/", "wikidata": "Q66140376"}}, {"name": "N/A", "amenity": "parking", "data_type": "way", "lat": "53.4280858", "lon": "-2.8396847", "other_tags": {"amenity": "parking"}}]}, {"county": "Merseyside", "code": "E00032645", "lad": "Knowsley", "rgn_main": "North West", "population": 350, "amenities": [{"name": "N/A", "amenity": "parking", "data_type": "node", "lat": "53.4268125", "lon": "-2.8275830", "other_tags": {"amenity": "parking"}}, {"name": "N/A", "amenity": "charging_station", "data_type": "node", "lat": "53.4279329", "lon": "-2.8259085", "other_tags": {"access": "yes", "amenity": "charging_station", "capacity": "4", "covered": "yes"}}, {"name": "Knowsley Safari Park Car Park", "amenity": "parking", "data_type": "way", "lat": "53.4369659", "lon": "-2.8133347", "other_tags": {"amenity": "parking", "name": "Knowsley Safari Park Car Park"}}, {"name": "N/A", "amenity": "parking", "data_type": "way", "lat": "53.4370764", "lon": "-2.8102285", "other_tags": {"amenity": "parking"}}, {"name": "N/A", "amenity": "toilets", "data_type": "way", "lat": "53.4360166", "lon": "-2.8136520", "other_tags": {"amenity": "toilets", "building": "yes"}}, {"name": "N/A", "amenity": "toilets", "data_type": "way", "lat": "53.4371056", "lon": "-2.8108528", "other_tags": {"amenity": "toilets", "building": "yes"}}, {"name": "N/A", "amenity": "toilets", "data_type": "way", "lat": "53.4378257", "lon": "-2.8100511", "other_tags": {"amenity": "toilets", "building": "yes"}}, {"name": "Coaches", "amenity": "parking", "data_type": "way", "lat": "53.4353538", "lon": "-2.8137513", "other_tags": {"amenity": "parking", "name": "Coaches"}}, {"name": "Knowsley Safari Park Staff Car Park", "amenity": "parking", "data_type": "way", "lat": "53.4357021", "lon": "-2.8130496", "other_tags": {"amenity": "parking", "name": "Knowsley Safari Park Staff Car Park"}}, {"name": "Knowsley Safari Park Staff Car Park", "amenity": "parking", "data_type": "way", "lat": "53.4397831", "lon": "-2.8104194", "other_tags": {"amenity": "parking", "name": "Knowsley Safari Park Staff Car Park"}}, {"name": "The Prescot School", "amenity": "school", "data_type": "way", "lat": "53.4333693", "lon": "-2.8128769", "other_tags": {"addr:postcode": "L34 3NB", "addr:street": "Knowsley Park Lane", "amenity": "school", "capacity": "1050", "isced:level": "2", "max_age": "16", "min_age": "11", "name": "The Prescot School", "phone": "+44 151 4778680", "ref:GB:uprn": "40075126", "ref:edubase": "142798", "ref:edubase:group": "3372", "religion": "none", "school:boarding": "no", "school:gender": "mixed", "school:selective": "no", "school:trust": "yes", "school:trust:name": "The Heath Family (North West)", "school:trust:type": "multi_academy", "school:type": "academy", "source:addr:postcode": "get-information-schools.service.gov.uk", "website": "https://www.prescotschool.org.uk/", "wikidata": "Q7240832"}}, {"name": "N/A", "amenity": "parking", "data_type": "way", "lat": "53.4267518", "lon": "-2.8268928", "other_tags": {"amenity": "parking"}}, {"name": "Oasis Restaurant", "amenity": "restaurant", "data_type": "way", "lat": "53.4362993", "lon": "-2.8142856", "other_tags": {"amenity": "restaurant", "building": "yes", "name": "Oasis Restaurant"}}, {"name": "N/A", "amenity": "ice_cream", "data_type": "way", "lat": "53.4366354", "lon": "-2.8136731", "other_tags": {"amenity": "ice_cream", "building": "yes"}}, {"name": "N/A", "amenity": "toilets", "data_type": "way", "lat": "53.4368743", "lon": "-2.8167265", "other_tags": {"amenity": "toilets", "building": "yes"}}, {"name": "Shell", "amenity": "fuel", "data_type": "way", "lat": "53.4282567", "lon": "-2.8267516", "other_tags": {"amenity": "fuel", "brand": "Shell", "brand:wikidata": "Q110716465", "name": "Shell", "operator": "Shell"}}, {"name": "Starbucks", "amenity": "cafe", "data_type": "way", "lat": "53.4286341", "lon": "-2.8259583", "other_tags": {"amenity": "cafe", "brand": "Starbucks", "brand:wikidata": "Q37158", "building": "yes", "cuisine": "coffee_shop", "drive_through": "yes", "name": "Starbucks", "official_name": "Starbucks Coffee", "takeaway": "yes"}}, {"name": "N/A", "amenity": "parking", "data_type": "way", "lat": "53.4284354", "lon": "-2.8260526", "other_tags": {"amenity": "parking"}}]}, {"county": "Merseyside", "code": "E00032646", "lad": "Knowsley", "rgn_main": "North West", "population": 266, "amenities": []}, {"county": "Merseyside", "code": "E00032647", "lad": "Knowsley", "rgn_main": "North West", "population": 231, "amenities": []}, {"county": "Merseyside", "code": "E00032648", "lad": "Knowsley", "rgn_main": "North West", "population": 272, "amenities": []}, {"county": "Merseyside", "code": "E00032649", "lad": "Knowsley", "rgn_main": "North West", "population": 399, "amenities": [{"name": "HILLSIDE ROAD", "amenity": "taxi", "data_type": "node", "lat": "53.4234416", "lon": "-2.8374849", "other_tags": {"amenity": "taxi", "name": "HILLSIDE ROAD", "naptan:AtcoCode": "2800TX00066", "naptan:CommonName": "HILLSIDE ROAD", "naptan:Indicator": "HILLSIDE ROAD", "naptan:Landmark": "SERVICE ROAD 12.5M FROM JUNCTION WITH WASTLEBRID", "naptan:Notes": "No Notes", "naptan:PlusbusZoneRef": "LVRPLCH", "naptan:Street": "HILLSIDE ROAD", "naptan:verified": "no", "source": "naptan_import"}}, {"name": "Culley's Cafe & Shop", "amenity": "cafe", "data_type": "node", "lat": "53.4220800", "lon": "-2.8421836", "other_tags": {"amenity": "cafe", "name": "Culley's Cafe & Shop"}}, {"name": "N/A", "amenity": "waste_basket", "data_type": "node", "lat": "53.4220257", "lon": "-2.8423560", "other_tags": {"amenity": "waste_basket"}}, {"name": "N/A", "amenity": "parking", "data_type": "way", "lat": "53.4221623", "lon": "-2.8423289", "other_tags": {"amenity": "parking"}}, {"name": "N/A", "amenity": "parking", "data_type": "way", "lat": "53.4224666", "lon": "-2.8431964", "other_tags": {"amenity": "parking"}}]}, {"county": "Merseyside", "code": "E00032650", "lad": "Knowsley", "rgn_main": "North West", "population": 295, "amenities": []}, {"county": "Merseyside", "code": "E00032651", "lad": "Knowsley", "rgn_main": "North West", "population": 255, "amenities": []}, {"county": "Merseyside", "code": "E00032652", "lad": "Knowsley", "rgn_main": "North West", "population": 263, "amenities": []}, {"county": "Merseyside", "code": "E00032653", "lad": "Knowsley", "rgn_main": "North West", "population": 226, "amenities": [{"name": "N/A", "amenity": "parking", "data_type": "node", "lat": "53.4236539", "lon": "-2.8352618", "other_tags": {"amenity": "parking"}}, {"name": "To Le", "amenity": "fast_food", "data_type": "way", "lat": "53.4242504", "lon": "-2.8381961", "other_tags": {"amenity": "fast_food", "building": "yes", "cuisine": "fish_and_chips;english;chinese", "name": "To Le"}}, {"name": "Rowlands Pharmacy", "amenity": "pharmacy", "data_type": "way", "lat": "53.4239967", "lon": "-2.8375217", "other_tags": {"amenity": "pharmacy", "brand": "Rowlands Pharmacy", "brand:wikidata": "Q62663235", "building": "yes", "dispensing": "yes", "healthcare": "pharmacy", "name": "Rowlands Pharmacy"}}, {"name": "Hillside Dental Practice", "amenity": "dentist", "data_type": "way", "lat": "53.4238491", "lon": "-2.8371487", "other_tags": {"amenity": "dentist", "building": "yes", "healthcare": "dentist", "name": "Hillside Dental Practice"}}, {"name": "The Apostolic Church of Liverpool", "amenity": "place_of_worship", "data_type": "way", "lat": "53.4234595", "lon": "-2.8349223", "other_tags": {"amenity": "place_of_worship", "building": "yes", "name": "The Apostolic Church of Liverpool", "religion": "christian"}}, {"name": "N/A", "amenity": "parking", "data_type": "way", "lat": "53.4234434", "lon": "-2.8346379", "other_tags": {"amenity": "parking"}}, {"name": "N/A", "amenity": "parking_space", "data_type": "way", "lat": "53.4235815", "lon": "-2.8344609", "other_tags": {"amenity": "parking_space"}}, {"name": "N/A", "amenity": "parking_space", "data_type": "way", "lat": "53.4235890", "lon": "-2.8344273", "other_tags": {"amenity": "parking_space"}}, {"name": "N/A", "amenity": "parking_space", "data_type": "way", "lat": "53.4235966", "lon": "-2.8343932", "other_tags": {"amenity": "parking_space"}}, {"name": "N/A", "amenity": "parking_space", "data_type": "way", "lat": "53.4236040", "lon": "-2.8343596", "other_tags": {"amenity": "parking_space"}}, {"name": "N/A", "amenity": "parking_space", "data_type": "way", "lat": "53.4236340", "lon": "-2.8342232", "other_tags": {"amenity": "parking_space"}}, {"name": "N/A", "amenity": "parking_space", "data_type": "way", "lat": "53.4236267", "lon": "-2.8342566", "other_tags": {"amenity": "parking_space"}}, {"name": "N/A", "amenity": "parking_space", "data_type": "way", "lat": "53.4236191", "lon": "-2.8342913", "other_tags": {"amenity": "parking_space"}}, {"name": "N/A", "amenity": "parking_space", "data_type": "way", "lat": "53.4236116", "lon": "-2.8343254", "other_tags": {"amenity": "parking_space"}}, {"name": "N/A", "amenity": "parking_space", "data_type": "way", "lat": "53.4235739", "lon": "-2.8344943", "other_tags": {"amenity": "parking_space"}}, {"name": "N/A", "amenity": "parking_space", "data_type": "way", "lat": "53.4236415", "lon": "-2.8341889", "other_tags": {"amenity": "parking_space"}}, {"name": "N/A", "amenity": "parking_space", "data_type": "way", "lat": "53.4237570", "lon": "-2.8341729", "other_tags": {"amenity": "parking_space"}}, {"name": "N/A", "amenity": "parking_space", "data_type": "way", "lat": "53.4237496", "lon": "-2.8342073", "other_tags": {"amenity": "parking_space"}}, {"name": "N/A", "amenity": "parking_space", "data_type": "way", "lat": "53.4237425", "lon": "-2.8342408", "other_tags": {"amenity": "parking_space"}}, {"name": "N/A", "amenity": "parking_space", "data_type": "way", "lat": "53.4237351", "lon": "-2.8342756", "other_tags": {"amenity": "parking_space"}}, {"name": "N/A", "amenity": "parking_space", "data_type": "way", "lat": "53.4237277", "lon": "-2.8343098", "other_tags": {"amenity": "parking_space"}}, {"name": "N/A", "amenity": "parking_space", "data_type": "way", "lat": "53.4237204", "lon": "-2.8343441", "other_tags": {"amenity": "parking_space"}}, {"name": "N/A", "amenity": "parking_space", "data_type": "way", "lat": "53.4237131", "lon": "-2.8343778", "other_tags": {"amenity": "parking_space"}}, {"name": "N/A", "amenity": "parking_space", "data_type": "way", "lat": "53.4237057", "lon": "-2.8344120", "other_tags": {"amenity": "parking_space"}}, {"name": "N/A", "amenity": "parking_space", "data_type": "way", "lat": "53.4236910", "lon": "-2.8344792", "other_tags": {"amenity": "parking_space"}}, {"name": "N/A", "amenity": "parking_space", "data_type": "way", "lat": "53.4236983", "lon": "-2.8344457", "other_tags": {"amenity": "parking_space"}}, {"name": "N/A", "amenity": "parking_space", "data_type": "way", "lat": "53.4236796", "lon": "-2.8345285", "other_tags": {"amenity": "parking_space", "parking_space": "disabled"}}, {"name": "N/A", "amenity": "parking_space", "data_type": "way", "lat": "53.4236196", "lon": "-2.8346256", "other_tags": {"amenity": "parking_space", "parking_space": "disabled"}}, {"name": "N/A", "amenity": "parking_space", "data_type": "way", "lat": "53.4235880", "lon": "-2.8346087", "other_tags": {"amenity": "parking_space", "parking_space": "disabled"}}, {"name": "N/A", "amenity": "parking_space", "data_type": "way", "lat": "53.4235169", "lon": "-2.8345694", "other_tags": {"amenity": "parking_space"}}, {"name": "N/A", "amenity": "parking_space", "data_type": "way", "lat": "53.4235576", "lon": "-2.8345908", "other_tags": {"amenity": "parking_space"}}, {"name": "N/A", "amenity": "parking_space", "data_type": "way", "lat": "53.4235372", "lon": "-2.8345801", "other_tags": {"amenity": "parking_space"}}, {"name": "N/A", "amenity": "parking_space", "data_type": "way", "lat": "53.4235479", "lon": "-2.8341515", "other_tags": {"amenity": "parking_space"}}, {"name": "N/A", "amenity": "parking_space", "data_type": "way", "lat": "53.4235405", "lon": "-2.8341859", "other_tags": {"amenity": "parking_space"}}, {"name": "N/A", "amenity": "parking_space", "data_type": "way", "lat": "53.4235334", "lon": "-2.8342194", "other_tags": {"amenity": "parking_space"}}, {"name": "N/A", "amenity": "parking_space", "data_type": "way", "lat": "53.4235260", "lon": "-2.8342542", "other_tags": {"amenity": "parking_space"}}, {"name": "N/A", "amenity": "parking_space", "data_type": "way", "lat": "53.4235187", "lon": "-2.8342884", "other_tags": {"amenity": "parking_space"}}, {"name": "N/A", "amenity": "parking_space", "data_type": "way", "lat": "53.4235113", "lon": "-2.8343227", "other_tags": {"amenity": "parking_space"}}, {"name": "N/A", "amenity": "parking_space", "data_type": "way", "lat": "53.4235040", "lon": "-2.8343564", "other_tags": {"amenity": "parking_space"}}, {"name": "N/A", "amenity": "parking_space", "data_type": "way", "lat": "53.4234966", "lon": "-2.8343907", "other_tags": {"amenity": "parking_space"}}, {"name": "N/A", "amenity": "parking_space", "data_type": "way", "lat": "53.4234892", "lon": "-2.8344243", "other_tags": {"amenity": "parking_space"}}, {"name": "N/A", "amenity": "parking_space", "data_type": "way", "lat": "53.4235698", "lon": "-2.8340490", "other_tags": {"amenity": "parking_space"}}, {"name": "N/A", "amenity": "parking_space", "data_type": "way", "lat": "53.4235625", "lon": "-2.8340834", "other_tags": {"amenity": "parking_space"}}, {"name": "N/A", "amenity": "parking_space", "data_type": "way", "lat": "53.4235550", "lon": "-2.8341183", "other_tags": {"amenity": "parking_space"}}, {"name": "N/A", "amenity": "parking_space", "data_type": "way", "lat": "53.4236362", "lon": "-2.8340591", "other_tags": {"amenity": "parking_space"}}, {"name": "N/A", "amenity": "parking_space", "data_type": "way", "lat": "53.4236566", "lon": "-2.8340718", "other_tags": {"amenity": "parking_space"}}, {"name": "N/A", "amenity": "parking_space", "data_type": "way", "lat": "53.4236774", "lon": "-2.8340847", "other_tags": {"amenity": "parking_space"}}, {"name": "N/A", "amenity": "parking_space", "data_type": "way", "lat": "53.4236971", "lon": "-2.8340969", "other_tags": {"amenity": "parking_space"}}, {"name": "N/A", "amenity": "parking_space", "data_type": "way", "lat": "53.4237175", "lon": "-2.8341096", "other_tags": {"amenity": "parking_space"}}, {"name": "N/A", "amenity": "parking_space", "data_type": "way", "lat": "53.4237374", "lon": "-2.8341219", "other_tags": {"amenity": "parking_space"}}, {"name": "N/A", "amenity": "parking_space", "data_type": "way", "lat": "53.4237580", "lon": "-2.8341346", "other_tags": {"amenity": "parking_space"}}, {"name": "N/A", "amenity": "parking_space", "data_type": "way", "lat": "53.4239494", "lon": "-2.8350146", "other_tags": {"amenity": "parking_space"}}, {"name": "N/A", "amenity": "parking_space", "data_type": "way", "lat": "53.4239710", "lon": "-2.8350260", "other_tags": {"amenity": "parking_space"}}, {"name": "N/A", "amenity": "parking_space", "data_type": "way", "lat": "53.4239938", "lon": "-2.8350380", "other_tags": {"amenity": "parking_space"}}, {"name": "N/A", "amenity": "parking_space", "data_type": "way", "lat": "53.4240145", "lon": "-2.8350489", "other_tags": {"amenity": "parking_space"}}, {"name": "N/A", "amenity": "parking_space", "data_type": "way", "lat": "53.4240341", "lon": "-2.8350591", "other_tags": {"amenity": "parking_space"}}]}, {"county": "Merseyside", "code": "E00032654", "lad": "Knowsley", "rgn_main": "North West", "population": 317, "amenities": []}, {"county": "Merseyside", "code": "E00032656", "lad": "Knowsley", "rgn_main": "North West", "population": 349, "amenities": []}, {"county": "Merseyside", "code": "E00032657", "lad": "Knowsley", "rgn_main": "North West", "population": 200, "amenities": [{"name": "Bluebell Lane Medical Practice", "amenity": "clinic", "data_type": "way", "lat": "53.4208164", "lon": "-2.8429203", "other_tags": {"amenity": "clinic", "building": "yes", "healthcare": "clinic", "name": "Bluebell Lane Medical Practice"}}]}, {"county": "Merseyside", "code": "E00032659", "lad": "Knowsley", "rgn_main": "North West", "population": 216, "amenities": []}, {"county": "Merseyside", "code": "E00032660", "lad": "Knowsley", "rgn_main": "North West", "population": 221, "amenities": []}, {"county": "Merseyside", "code": "E00032661", "lad": "Knowsley", "rgn_main": "North West", "population": 283, "amenities": [{"name": "N/A", "amenity": "grave_yard", "data_type": "way", "lat": "53.4138506", "lon": "-2.8426741", "other_tags": {"amenity": "grave_yard"}}]}, {"county": "Merseyside", "code": "E00032662", "lad": "Knowsley", "rgn_main": "North West", "population": 339, "amenities": []}, {"county": "Merseyside", "code": "E00032663", "lad": "Knowsley", "rgn_main": "North West", "population": 417, "amenities": [{"name": "Hillside Care Home", "amenity": "social_facility", "data_type": "way", "lat": "53.4267586", "lon": "-2.8443270", "other_tags": {"addr:city": "Huyton", "addr:postcode": "L36 8DU", "addr:street": "Hillside Avenue", "amenity": "social_facility", "building": "yes", "name": "Hillside Care Home", "operator": "Qualia Care", "phone": "+44 151 443 0271", "social_facility": "group_home", "social_facility:for": "senior", "website": "https://qualiacare.co.uk/our-homes/hillside/", "wheelchair": "yes"}}, {"name": "St Columba's Church", "amenity": "place_of_worship", "data_type": "way", "lat": "53.4260782", "lon": "-2.8425307", "other_tags": {"amenity": "place_of_worship", "building": "church", "denomination": "anglican", "name": "St Columba's Church", "religion": "christian"}}]}, {"county": "Merseyside", "code": "E00032664", "lad": "Knowsley", "rgn_main": "North West", "population": 315, "amenities": [{"name": "St Columba's Catholic Primary School", "amenity": "school", "data_type": "way", "lat": "53.4251225", "lon": "-2.8390083", "other_tags": {"addr:city": "Huyton", "addr:postcode": "L36 8BL", "addr:street": "Hillside Road", "amenity": "school", "capacity": "249", "denomination": "roman_catholic", "diocese": "Archdiocese of Liverpool", "isced:level": "0;1", "max_age": "11", "min_age": "3", "name": "St Columba's Catholic Primary School", "phone": "+44 151 4778360", "ref:GB:uprn": "40020523", "ref:edubase": "104480", "religion": "christian", "school:boarding": "no", "school:gender": "mixed", "school:selective": "no", "school:trust": "no", "school:type": "voluntary_aided", "website": "https://stcolumbasknowsley.co.uk/", "wikidata": "Q67147975"}}, {"name": "SPACE Building", "amenity": "social_facility", "data_type": "way", "lat": "53.4249585", "lon": "-2.8391518", "other_tags": {"amenity": "social_facility", "building": "yes", "name": "SPACE Building"}}, {"name": "N/A", "amenity": "bench", "data_type": "way", "lat": "53.4255101", "lon": "-2.8408343", "other_tags": {"amenity": "bench", "backrest": "no"}}, {"name": "N/A", "amenity": "bench", "data_type": "way", "lat": "53.4254885", "lon": "-2.8408437", "other_tags": {"amenity": "bench", "backrest": "no"}}, {"name": "N/A", "amenity": "bench", "data_type": "way", "lat": "53.4254633", "lon": "-2.8408363", "other_tags": {"amenity": "bench", "backrest": "no"}}, {"name": "N/A", "amenity": "bench", "data_type": "way", "lat": "53.4254477", "lon": "-2.8408054", "other_tags": {"amenity": "bench", "backrest": "no"}}, {"name": "N/A", "amenity": "bench", "data_type": "way", "lat": "53.4254437", "lon": "-2.8407699", "other_tags": {"amenity": "bench"}}, {"name": "N/A", "amenity": "bench", "data_type": "way", "lat": "53.4254577", "lon": "-2.8407397", "other_tags": {"amenity": "bench", "backrest": "no"}}, {"name": "N/A", "amenity": "parking", "data_type": "way", "lat": "53.4248299", "lon": "-2.8397786", "other_tags": {"amenity": "parking"}}, {"name": "N/A", "amenity": "bench", "data_type": "way", "lat": "53.4253934", "lon": "-2.8400881", "other_tags": {"amenity": "bench", "backrest": "no"}}, {"name": "N/A", "amenity": "parking", "data_type": "way", "lat": "53.4249624", "lon": "-2.8403127", "other_tags": {"amenity": "parking"}}, {"name": "N/A", "amenity": "parking", "data_type": "way", "lat": "53.4250144", "lon": "-2.8412133", "other_tags": {"amenity": "parking"}}, {"name": "St George's Church", "amenity": "place_of_worship", "data_type": "way", "lat": "53.4248375", "lon": "-2.8416942", "other_tags": {"amenity": "place_of_worship", "building": "yes", "denomination": "anglican", "name": "St George's Church", "religion": "christian"}}, {"name": "N/A", "amenity": "parking_space", "data_type": "way", "lat": "53.4249218", "lon": "-2.8414298", "other_tags": {"amenity": "parking_space", "capacity": "1"}}, {"name": "N/A", "amenity": "parking_space", "data_type": "way", "lat": "53.4249412", "lon": "-2.8414408", "other_tags": {"amenity": "parking_space", "capacity": "1"}}, {"name": "N/A", "amenity": "parking_space", "data_type": "way", "lat": "53.4249598", "lon": "-2.8414511", "other_tags": {"amenity": "parking_space", "capacity": "1"}}, {"name": "N/A", "amenity": "parking_space", "data_type": "way", "lat": "53.4249838", "lon": "-2.8414658", "other_tags": {"amenity": "parking_space", "capacity": "1"}}, {"name": "N/A", "amenity": "parking_space", "data_type": "way", "lat": "53.4250024", "lon": "-2.8414761", "other_tags": {"amenity": "parking_space", "capacity": "1"}}, {"name": "N/A", "amenity": "parking_space", "data_type": "way", "lat": "53.4250215", "lon": "-2.8414880", "other_tags": {"amenity": "parking_space", "capacity": "1"}}, {"name": "N/A", "amenity": "parking_space", "data_type": "way", "lat": "53.4250441", "lon": "-2.8415017", "other_tags": {"amenity": "parking_space", "capacity": "1"}}, {"name": "N/A", "amenity": "parking_space", "data_type": "way", "lat": "53.4250789", "lon": "-2.8414394", "other_tags": {"amenity": "parking_space", "capacity": "1"}}, {"name": "N/A", "amenity": "parking_space", "data_type": "way", "lat": "53.4250859", "lon": "-2.8414047", "other_tags": {"amenity": "parking_space", "capacity": "1"}}, {"name": "N/A", "amenity": "parking_space", "data_type": "way", "lat": "53.4250935", "lon": "-2.8413666", "other_tags": {"amenity": "parking_space", "capacity": "1"}}, {"name": "N/A", "amenity": "parking", "data_type": "way", "lat": "53.4247458", "lon": "-2.8420374", "other_tags": {"amenity": "parking"}}, {"name": "N/A", "amenity": "parking_space", "data_type": "way", "lat": "53.4245629", "lon": "-2.8420169", "other_tags": {"amenity": "parking_space", "capacity": "1"}}, {"name": "N/A", "amenity": "parking_space", "data_type": "way", "lat": "53.4245856", "lon": "-2.8420294", "other_tags": {"amenity": "parking_space", "capacity": "1"}}, {"name": "N/A", "amenity": "parking_space", "data_type": "way", "lat": "53.4246069", "lon": "-2.8420419", "other_tags": {"amenity": "parking_space", "capacity": "1"}}, {"name": "N/A", "amenity": "parking_space", "data_type": "way", "lat": "53.4246281", "lon": "-2.8420539", "other_tags": {"amenity": "parking_space", "capacity": "1"}}, {"name": "N/A", "amenity": "parking_space", "data_type": "way", "lat": "53.4246497", "lon": "-2.8420661", "other_tags": {"amenity": "parking_space", "capacity": "1"}}, {"name": "N/A", "amenity": "parking_space", "data_type": "way", "lat": "53.4247061", "lon": "-2.8420142", "other_tags": {"amenity": "parking_space", "capacity": "1", "parking_space": "disabled"}}, {"name": "N/A", "amenity": "parking_space", "data_type": "way", "lat": "53.4247177", "lon": "-2.8419596", "other_tags": {"amenity": "parking_space", "capacity": "1", "parking_space": "disabled"}}, {"name": "N/A", "amenity": "parking_space", "data_type": "way", "lat": "53.4247701", "lon": "-2.8407994", "other_tags": {"amenity": "parking_space", "capacity": "1"}}, {"name": "N/A", "amenity": "parking_space", "data_type": "way", "lat": "53.4247780", "lon": "-2.8407607", "other_tags": {"amenity": "parking_space", "capacity": "1"}}, {"name": "N/A", "amenity": "parking_space", "data_type": "way", "lat": "53.4247853", "lon": "-2.8407251", "other_tags": {"amenity": "parking_space", "capacity": "1"}}, {"name": "N/A", "amenity": "parking", "data_type": "way", "lat": "53.4247643", "lon": "-2.8408189", "other_tags": {"amenity": "parking"}}]}, {"county": "Merseyside", "code": "E00032665", "lad": "Knowsley", "rgn_main": "North West", "population": 305, "amenities": []}, {"county": "Merseyside", "code": "E00032666", "lad": "Knowsley", "rgn_main": "North West", "population": 301, "amenities": []}, {"county": "Merseyside", "code": "E00032667", "lad": "Knowsley", "rgn_main": "North West", "population": 341, "amenities": []}, {"county": "Merseyside", "code": "E00032668", "lad": "Knowsley", "rgn_main": "North West", "population": 238, "amenities": []}, {"county": "Merseyside", "code": "E00032669", "lad": "Knowsley", "rgn_main": "North West", "population": 380, "amenities": [{"name": "N/A", "amenity": "parking", "data_type": "way", "lat": "53.4885075", "lon": "-2.8698992", "other_tags": {"amenity": "parking"}}, {"name": "N/A", "amenity": "parking", "data_type": "way", "lat": "53.4893412", "lon": "-2.8713053", "other_tags": {"amenity": "parking"}}, {"name": "N/A", "amenity": "parking", "data_type": "way", "lat": "53.4885141", "lon": "-2.8739825", "other_tags": {"amenity": "parking"}}]}, {"county": "Merseyside", "code": "E00032670", "lad": "Knowsley", "rgn_main": "North West", "population": 215, "amenities": []}, {"county": "Merseyside", "code": "E00032671", "lad": "Knowsley", "rgn_main": "North West", "population": 346, "amenities": []}, {"county": "Merseyside", "code": "E00032672", "lad": "Knowsley", "rgn_main": "North West", "population": 362, "amenities": [{"name": "N/A", "amenity": "parking", "data_type": "way", "lat": "53.4823661", "lon": "-2.8738289", "other_tags": {"amenity": "parking"}}]}, {"county": "Merseyside", "code": "E00032673", "lad": "Knowsley", "rgn_main": "North West", "population": 300, "amenities": [{"name": "N/A", "amenity": "parking", "data_type": "way", "lat": "53.4819836", "lon": "-2.8710313", "other_tags": {"amenity": "parking"}}]}, {"county": "Merseyside", "code": "E00032674", "lad": "Knowsley", "rgn_main": "North West", "population": 288, "amenities": []}, {"county": "Merseyside", "code": "E00032675", "lad": "Knowsley", "rgn_main": "North West", "population": 337, "amenities": [{"name": "N/A", "amenity": "parking", "data_type": "way", "lat": "53.4909028", "lon": "-2.8729141", "other_tags": {"amenity": "parking"}}, {"name": "St Mark's Church", "amenity": "place_of_worship", "data_type": "way", "lat": "53.4896940", "lon": "-2.8750823", "other_tags": {"amenity": "place_of_worship", "building": "yes", "denomination": "anglican", "name": "St Mark's Church", "religion": "christian", "source": "OS OpenMap Local", "wikidata": "Q105099232"}}]}, {"county": "Merseyside", "code": "E00032676", "lad": "Knowsley", "rgn_main": "North West", "population": 352, "amenities": [{"name": "ROUGHWOOD DRIVE KIRKBY", "amenity": "taxi", "data_type": "node", "lat": "53.4910354", "lon": "-2.8719160", "other_tags": {"amenity": "taxi", "name": "ROUGHWOOD DRIVE KIRKBY", "naptan:AtcoCode": "2800TX00050", "naptan:CommonName": "ROUGHWOOD DRIVE KIRKBY", "naptan:Indicator": "ROUGHWOOD DRIVE KIRKBY", "naptan:Landmark": "AT JUNCTION WITH PENTLAND ROAD", "naptan:Notes": "No Notes", "naptan:PlusbusZoneRef": "LVRPLCH", "naptan:Street": "ROUGHWOOD DRIVE", "naptan:verified": "no", "source": "naptan_import"}}, {"name": "N/A", "amenity": "post_box", "data_type": "node", "lat": "53.4892348", "lon": "-2.8486683", "other_tags": {"amenity": "post_box"}}, {"name": "N/A", "amenity": "parking", "data_type": "way", "lat": "53.4901079", "lon": "-2.8692943", "other_tags": {"amenity": "parking"}}, {"name": "N/A", "amenity": "parking", "data_type": "way", "lat": "53.4878638", "lon": "-2.8675954", "other_tags": {"amenity": "parking"}}]}, {"county": "Merseyside", "code": "E00032677", "lad": "Knowsley", "rgn_main": "North West", "population": 367, "amenities": []}, {"county": "Merseyside", "code": "E00032678", "lad": "Knowsley", "rgn_main": "North West", "population": 251, "amenities": [{"name": "N/A", "amenity": "parking", "data_type": "way", "lat": "53.4783545", "lon": "-2.8510912", "other_tags": {"amenity": "parking"}}, {"name": "N/A", "amenity": "parking", "data_type": "way", "lat": "53.4733323", "lon": "-2.8564266", "other_tags": {"amenity": "parking"}}, {"name": "N/A", "amenity": "parking", "data_type": "way", "lat": "53.4791574", "lon": "-2.8498842", "other_tags": {"amenity": "parking"}}, {"name": "N/A", "amenity": "parking", "data_type": "way", "lat": "53.4740582", "lon": "-2.8590667", "other_tags": {"access": "private", "amenity": "parking", "parking": "surface", "surface": "asphalt"}}]}, {"county": "Merseyside", "code": "E00032679", "lad": "Knowsley", "rgn_main": "North West", "population": 254, "amenities": [{"name": "Subway", "amenity": "fast_food", "data_type": "node", "lat": "53.4759085", "lon": "-2.8659140", "other_tags": {"addr:postcode": "L33 7SE", "addr:street": "Lees Road", "amenity": "fast_food", "brand": "Subway", "brand:wikidata": "Q244457", "brand:wikipedia": "en:Subway (restaurant)", "contact:website": "https://restaurants.subway.com/united-kingdom/en/liverpool/kirkby-lees-road-knowsley-industrial-park", "cuisine": "sandwich", "name": "Subway", "opening_hours": "Mo-Fr 07:00-20:00; Sa 08:30-19:00; Su 08:30-17:00", "phone": "+44 1515466151", "takeaway": "yes"}}, {"name": "Sovereign Transport Services", "amenity": "parking", "data_type": "node", "lat": "53.4868955", "lon": "-2.8512917", "other_tags": {"access": "private", "amenity": "parking", "name": "Sovereign Transport Services", "operator": "Sovereign Transport Services", "operator:type": "business"}}, {"name": "N/A", "amenity": "parking", "data_type": "way", "lat": "53.4822403", "lon": "-2.8699245", "other_tags": {"amenity": "parking"}}, {"name": "N/A", "amenity": "parking", "data_type": "way", "lat": "53.4789609", "lon": "-2.8646308", "other_tags": {"access": "private", "amenity": "parking"}}, {"name": "N/A", "amenity": "parking", "data_type": "way", "lat": "53.4782882", "lon": "-2.8657827", "other_tags": {"access": "private", "amenity": "parking"}}, {"name": "N/A", "amenity": "parking", "data_type": "way", "lat": "53.4848836", "lon": "-2.8678662", "other_tags": {"amenity": "parking"}}, {"name": "N/A", "amenity": "parking", "data_type": "way", "lat": "53.4814042", "lon": "-2.8530254", "other_tags": {"access": "private", "amenity": "parking", "parking": "surface", "surface": "asphalt"}}, {"name": "N/A", "amenity": "parking", "data_type": "way", "lat": "53.4858932", "lon": "-2.8584912", "other_tags": {"access": "private", "amenity": "parking", "parking": "surface", "surface": "asphalt"}}, {"name": "N/A", "amenity": "parking", "data_type": "way", "lat": "53.4745984", "lon": "-2.8604968", "other_tags": {"access": "private", "amenity": "parking", "parking": "surface", "surface": "asphalt"}}]}, {"county": "Merseyside", "code": "E00032680", "lad": "Knowsley", "rgn_main": "North West", "population": 283, "amenities": [{"name": "N/A", "amenity": "parking", "data_type": "way", "lat": "53.4877092", "lon": "-2.8761741", "other_tags": {"amenity": "parking"}}, {"name": "Appleby Court Nursing Home", "amenity": "hospital", "data_type": "way", "lat": "53.4879036", "lon": "-2.8805060", "other_tags": {"amenity": "hospital", "healthcare": "hospital", "name": "Appleby Court Nursing Home", "source": "OS OpenMap Local"}}, {"name": "St Mary's Church", "amenity": "place_of_worship", "data_type": "way", "lat": "53.4878701", "lon": "-2.8752618", "other_tags": {"amenity": "place_of_worship", "building": "yes", "name": "St Mary's Church", "religion": "christian", "source": "OS OpenMap Local"}}, {"name": "St Mary's Church", "amenity": "place_of_worship", "data_type": "way", "lat": "53.4879474", "lon": "-2.8756577", "other_tags": {"amenity": "place_of_worship", "building": "yes", "name": "St Mary's Church", "religion": "christian", "source": "OS OpenMap Local"}}]}, {"county": "Merseyside", "code": "E00032681", "lad": "Knowsley", "rgn_main": "North West", "population": 190, "amenities": []}, {"county": "Merseyside", "code": "E00032682", "lad": "Knowsley", "rgn_main": "North West", "population": 434, "amenities": [{"name": "N/A", "amenity": "parking", "data_type": "way", "lat": "53.4868537", "lon": "-2.8748512", "other_tags": {"amenity": "parking"}}]}, {"county": "Merseyside", "code": "E00032683", "lad": "Knowsley", "rgn_main": "North West", "population": 155, "amenities": [{"name": "N/A", "amenity": "parking", "data_type": "way", "lat": "53.4867700", "lon": "-2.8787638", "other_tags": {"amenity": "parking"}}]}, {"county": "Merseyside", "code": "E00032684", "lad": "Knowsley", "rgn_main": "North West", "population": 171, "amenities": [{"name": "BIGDALE DRIVE KIRKBY", "amenity": "taxi", "data_type": "node", "lat": "53.4842693", "lon": "-2.8764792", "other_tags": {"amenity": "taxi", "name": "BIGDALE DRIVE KIRKBY", "naptan:AtcoCode": "2800TX00051", "naptan:CommonName": "BIGDALE DRIVE KIRKBY", "naptan:Indicator": "BIGDALE DRIVE KIRKBY", "naptan:Landmark": "AT JUNCTION WITH OLD ROUGH LANE", "naptan:Notes": "No Notes", "naptan:PlusbusZoneRef": "LVRPLCH", "naptan:Street": "BIGDALE DRIVE", "naptan:verified": "no", "source": "naptan_import"}}, {"name": "N/A", "amenity": "parking", "data_type": "way", "lat": "53.4844065", "lon": "-2.8757831", "other_tags": {"amenity": "parking"}}]}, {"county": "Merseyside", "code": "E00032685", "lad": "Knowsley", "rgn_main": "North West", "population": 314, "amenities": [{"name": "St Marie's Catholic Primary School", "amenity": "school", "data_type": "way", "lat": "53.4876815", "lon": "-2.8742999", "other_tags": {"addr:city": "Liverpool", "addr:postcode": "L33 6XL", "addr:street": "Bigdale Drive", "amenity": "school", "name": "St Marie's Catholic Primary School", "ref:edubase": "104466", "source:addr:postcode": "get-information-schools.service.gov.uk", "wikidata": "Q66134916"}}, {"name": "N/A", "amenity": "parking", "data_type": "way", "lat": "53.4878133", "lon": "-2.8712081", "other_tags": {"amenity": "parking"}}, {"name": "N/A", "amenity": "parking", "data_type": "way", "lat": "53.4880958", "lon": "-2.8719699", "other_tags": {"amenity": "parking"}}]}, {"county": "Merseyside", "code": "E00032686", "lad": "Knowsley", "rgn_main": "North West", "population": 313, "amenities": [{"name": "St Aloysius Parochial Club", "amenity": "pub", "data_type": "node", "lat": "53.4164782", "lon": "-2.8527571", "other_tags": {"amenity": "pub", "name": "St Aloysius Parochial Club"}}]}, {"county": "Merseyside", "code": "E00032687", "lad": "Knowsley", "rgn_main": "North West", "population": 452, "amenities": []}, {"county": "Merseyside", "code": "E00032688", "lad": "Knowsley", "rgn_main": "North West", "population": 268, "amenities": []}, {"county": "Merseyside", "code": "E00032689", "lad": "Knowsley", "rgn_main": "North West", "population": 312, "amenities": [{"name": "Trinity Church", "amenity": "place_of_worship", "data_type": "way", "lat": "53.4209031", "lon": "-2.8646564", "other_tags": {"addr:city": "Liverpool", "addr:housename": "Trinity Church", "addr:housenumber": "1", "addr:postcode": "L36 2PE", "addr:street": "Huyton House Road", "amenity": "place_of_worship", "building": "church", "denomination": "anglican;methodist", "name": "Trinity Church", "religion": "christian", "wikidata": "Q105098672"}}]}, {"county": "Merseyside", "code": "E00032690", "lad": "Knowsley", "rgn_main": "North West", "population": 192, "amenities": []}, {"county": "Merseyside", "code": "E00032691", "lad": "Knowsley", "rgn_main": "North West", "population": 444, "amenities": [{"name": "Roby Park Primary School", "amenity": "school", "data_type": "way", "lat": "53.4157466", "lon": "-2.8643660", "other_tags": {"addr:city": "Liverpool", "addr:postcode": "L36 4NY", "addr:street": "Easton Road", "amenity": "school", "name": "Roby Park Primary School", "ref:edubase": "104420", "source:addr:postcode": "get-information-schools.service.gov.uk", "wikidata": "Q66134899"}}]}, {"county": "Merseyside", "code": "E00032692", "lad": "Knowsley", "rgn_main": "North West", "population": 266, "amenities": []}, {"county": "Merseyside", "code": "E00032693", "lad": "Knowsley", "rgn_main": "North West", "population": 551, "amenities": [{"name": "N/A", "amenity": "parking", "data_type": "way", "lat": "53.4183859", "lon": "-2.8558844", "other_tags": {"amenity": "parking"}}]}, {"county": "Merseyside", "code": "E00032694", "lad": "Knowsley", "rgn_main": "North West", "population": 245, "amenities": []}, {"county": "Merseyside", "code": "E00032695", "lad": "Knowsley", "rgn_main": "North West", "population": 267, "amenities": []}, {"county": "Merseyside", "code": "E00032696", "lad": "Knowsley", "rgn_main": "North West", "population": 278, "amenities": [{"name": "N/A", "amenity": "parking", "data_type": "way", "lat": "53.4172258", "lon": "-2.8525350", "other_tags": {"amenity": "parking"}}]}, {"county": "Merseyside", "code": "E00032697", "lad": "Knowsley", "rgn_main": "North West", "population": 280, "amenities": []}, {"county": "Merseyside", "code": "E00032698", "lad": "Knowsley", "rgn_main": "North West", "population": 311, "amenities": []}, {"county": "Merseyside", "code": "E00032699", "lad": "Knowsley", "rgn_main": "North West", "population": 223, "amenities": [{"name": "N/A", "amenity": "post_box", "data_type": "node", "lat": "53.4103250", "lon": "-2.8557278", "other_tags": {"amenity": "post_box", "operator": "Royal Mail", "operator:wikidata": "Q638098", "ref": "L36 649D"}}]}, {"county": "Merseyside", "code": "E00032700", "lad": "Knowsley", "rgn_main": "North West", "population": 279, "amenities": [{"name": "The Swan", "amenity": "pub", "data_type": "node", "lat": "53.4136032", "lon": "-2.8490406", "other_tags": {"amenity": "pub", "created_by": "Potlatch 0.10b", "name": "The Swan"}}]}, {"county": "Merseyside", "code": "E00032701", "lad": "Knowsley", "rgn_main": "North West", "population": 341, "amenities": [{"name": "St Bartholomew's", "amenity": "place_of_worship", "data_type": "way", "lat": "53.4121463", "lon": "-2.8558386", "other_tags": {"addr:street": "Church Road", "amenity": "place_of_worship", "building": "yes", "denomination": "anglican", "name": "St Bartholomew's", "religion": "christian", "wikidata": "Q26338991"}}, {"name": "N/A", "amenity": "grave_yard", "data_type": "way", "lat": "53.4124853", "lon": "-2.8551090", "other_tags": {"amenity": "grave_yard"}}]}, {"county": "Merseyside", "code": "E00032702", "lad": "Knowsley", "rgn_main": "North West", "population": 296, "amenities": [{"name": "LIVERPOOL ROAD HUYTON", "amenity": "taxi", "data_type": "node", "lat": "53.4213117", "lon": "-2.8614298", "other_tags": {"amenity": "taxi", "name": "LIVERPOOL ROAD HUYTON", "naptan:AtcoCode": "2800TX00053", "naptan:CommonName": "LIVERPOOL ROAD HUYTON", "naptan:Indicator": "LIVERPOOL ROAD HUYTON", "naptan:Landmark": "SERVICE ROAD", "naptan:Notes": "No Notes", "naptan:PlusbusZoneRef": "LVRPLCH", "naptan:Street": "LIVERPOOL ROAD", "naptan:verified": "no", "source": "naptan_import"}}]}, {"county": "Merseyside", "code": "E00032703", "lad": "Knowsley", "rgn_main": "North West", "population": 315, "amenities": [{"name": "Bethany Gospel Hall", "amenity": "place_of_worship", "data_type": "node", "lat": "53.4201341", "lon": "-2.8668925", "other_tags": {"amenity": "place_of_worship", "created_by": "JOSM", "name": "Bethany Gospel Hall", "religion": "christian"}}]}, {"county": "Merseyside", "code": "E00032704", "lad": "Knowsley", "rgn_main": "North West", "population": 289, "amenities": []}, {"county": "Merseyside", "code": "E00032705", "lad": "Knowsley", "rgn_main": "North West", "population": 374, "amenities": [{"name": "Shell", "amenity": "fuel", "data_type": "way", "lat": "53.4201441", "lon": "-2.8493422", "other_tags": {"addr:city": "Liverpool", "addr:postcode": "L36 3RN", "addr:street": "Liverpool Road", "amenity": "fuel", "brand": "Shell", "brand:wikidata": "Q110716465", "brand:wikipedia": "en:Royal Dutch Shell", "building": "roof", "name": "Shell", "phone": "+44 151 480 7446", "ref:navads": "NVDS353_10019252"}}]},