[{"county": "Cambridgeshire", "code": "E00090512", "lad": "Cambridge", "rgn_main": "East of England", "population": 297, "amenities": [{"name": "N/A", "amenity": "bicycle_parking", "data_type": "node", "lat": "52.2089586", "lon": "0.1546881", "other_tags": {"amenity": "bicycle_parking", "bicycle_parking": "stands", "capacity": "28", "covered": "no", "fee": "no"}}, {"name": "N/A", "amenity": "bench", "data_type": "node", "lat": "52.2045624", "lon": "0.1565583", "other_tags": {"amenity": "bench"}}, {"name": "N/A", "amenity": "recycling", "data_type": "node", "lat": "52.2091353", "lon": "0.1555708", "other_tags": {"amenity": "recycling", "recycling:shoes": "yes", "recycling_type": "container"}}, {"name": "N/A", "amenity": "recycling", "data_type": "node", "lat": "52.2091221", "lon": "0.1555869", "other_tags": {"amenity": "recycling", "recycling:batteries": "yes", "recycling_type": "container"}}, {"name": "N/A", "amenity": "bicycle_parking", "data_type": "node", "lat": "52.2091565", "lon": "0.1550390", "other_tags": {"amenity": "bicycle_parking", "bicycle_parking": "stands", "capacity": "16", "covered": "no"}}, {"name": "N/A", "amenity": "bicycle_parking", "data_type": "node", "lat": "52.2089938", "lon": "0.1546370", "other_tags": {"amenity": "bicycle_parking", "bicycle_parking": "two-tier", "capacity": "36"}}, {"name": "N/A", "amenity": "bicycle_parking", "data_type": "node", "lat": "52.2087986", "lon": "0.1545467", "other_tags": {"amenity": "bicycle_parking", "bicycle_parking": "stands", "capacity": "10", "covered": "no"}}, {"name": "N/A", "amenity": "bench", "data_type": "node", "lat": "52.2090112", "lon": "0.1542494", "other_tags": {"amenity": "bench", "backrest": "yes", "colour": "black", "material": "metal", "seats": "8"}}, {"name": "N/A", "amenity": "bicycle_parking", "data_type": "node", "lat": "52.2090429", "lon": "0.1542626", "other_tags": {"amenity": "bicycle_parking", "bicycle_parking": "stands", "capacity": "8", "covered": "no"}}, {"name": "N/A", "amenity": "bicycle_parking", "data_type": "node", "lat": "52.2090798", "lon": "0.1536367", "other_tags": {"amenity": "bicycle_parking", "bicycle_parking": "stands", "capacity": "10", "covered": "no"}}, {"name": "N/A", "amenity": "bench", "data_type": "node", "lat": "52.2078143", "lon": "0.1605445", "other_tags": {"amenity": "bench", "backrest": "yes"}}, {"name": "N/A", "amenity": "parking", "data_type": "way", "lat": "52.2092979", "lon": "0.1558658", "other_tags": {"amenity": "parking", "parking": "surface", "source": "Bing"}}, {"name": "RSPCA", "amenity": "veterinary", "data_type": "way", "lat": "52.2096687", "lon": "0.1556760", "other_tags": {"amenity": "veterinary", "building": "yes", "name": "RSPCA"}}]}, {"county": "Cambridgeshire", "code": "E00090514", "lad": "Cambridge", "rgn_main": "East of England", "population": 327, "amenities": [{"name": "N/A", "amenity": "recycling", "data_type": "node", "lat": "52.2108012", "lon": "0.1371416", "other_tags": {"amenity": "recycling", "location": "overground", "recycling_type": "container"}}, {"name": "Little Free Library", "amenity": "public_bookcase", "data_type": "node", "lat": "52.2099383", "lon": "0.1408229", "other_tags": {"addr:housenumber": "64", "addr:street": "Beche Rd", "amenity": "public_bookcase", "brand": "Little Free Library", "brand:wikidata": "Q6650101", "brand:wikipedia": "en:Little Free Library", "name": "Little Free Library", "website": "https://littlefreelibrary.org/"}}, {"name": "Riverside", "amenity": "parking", "data_type": "way", "lat": "52.2106749", "lon": "0.1370518", "other_tags": {"amenity": "parking", "capacity": "8", "fee": "Mo-Fr 08:00-17:00; Sa 09:00-17:00", "name": "Riverside", "operator": "Cambridge City Council", "parking": "surface", "website": "https://www.cambridge.gov.uk/riverside-car-park"}}]}, {"county": "Cambridgeshire", "code": "E00090515", "lad": "Cambridge", "rgn_main": "East of England", "population": 298, "amenities": [{"name": "N/A", "amenity": "bicycle_parking", "data_type": "node", "lat": "52.2090497", "lon": "0.1613593", "other_tags": {"amenity": "bicycle_parking"}}, {"name": "N/A", "amenity": "school", "data_type": "way", "lat": "52.2091590", "lon": "0.1612729", "other_tags": {"addr:city": "Cambridge", "addr:postcode": "CB5 8ND", "addr:street": "Galfrid Road", "amenity": "school", "school": "shared_site"}}, {"name": "N/A", "amenity": "parking", "data_type": "way", "lat": "52.2092782", "lon": "0.1608792", "other_tags": {"access": "yes", "amenity": "parking"}}]}, {"county": "Cambridgeshire", "code": "E00090516", "lad": "Cambridge", "rgn_main": "East of England", "population": 325, "amenities": []}, {"county": "Cambridgeshire", "code": "E00090517", "lad": "Cambridge", "rgn_main": "East of England", "population": 530, "amenities": [{"name": "Health Centre parking", "amenity": "parking", "data_type": "node", "lat": "52.2149924", "lon": "0.1692606", "other_tags": {"amenity": "parking", "created_by": "JOSM", "name": "Health Centre parking"}}, {"name": "N/A", "amenity": "bicycle_parking", "data_type": "node", "lat": "52.2163492", "lon": "0.1743196", "other_tags": {"amenity": "bicycle_parking", "bicycle_parking": "stands", "capacity": "6", "covered": "no"}}, {"name": "N/A", "amenity": "bicycle_parking", "data_type": "node", "lat": "52.2165310", "lon": "0.1735178", "other_tags": {"amenity": "bicycle_parking", "bicycle_parking": "stands", "capacity": "8", "covered": "no"}}, {"name": "N/A", "amenity": "social_facility", "data_type": "way", "lat": "52.2157738", "lon": "0.1733332", "other_tags": {"addr:city": "Cambridge", "addr:housenumber": "120", "addr:postcode": "CB5 8UB", "addr:street": "Thorpe Way", "amenity": "social_facility", "building": "yes", "operator": "CHS Group", "social_facility": "group_home", "social_facility:for": "homeless", "source": "survey,Bing"}}, {"name": "N/A", "amenity": "parking", "data_type": "way", "lat": "52.2145249", "lon": "0.1691797", "other_tags": {"amenity": "parking"}}]}, {"county": "Cambridgeshire", "code": "E00090518", "lad": "Cambridge", "rgn_main": "East of England", "population": 448, "amenities": []}, {"county": "Cambridgeshire", "code": "E00090519", "lad": "Cambridge", "rgn_main": "East of England", "population": 356, "amenities": [{"name": "N/A", "amenity": "post_box", "data_type": "node", "lat": "52.2162504", "lon": "0.1654561", "other_tags": {"amenity": "post_box", "collection_times": "Mo-Fr 09:00; Sa 07:00", "operator": "Royal Mail", "post_box:type": "lamp", "postal_code": "CB5 8", "ref": "CB5 48D", "royal_cypher": "EIIR"}}]}, {"county": "Cambridgeshire", "code": "E00090520", "lad": "Cambridge", "rgn_main": "East of England", "population": 467, "amenities": [{"name": "Cambridge United FC", "amenity": "parking", "data_type": "node", "lat": "52.2123360", "lon": "0.1556567", "other_tags": {"amenity": "parking", "created_by": "Potlatch 0.4b", "name": "Cambridge United FC"}}, {"name": "Grill Brothers", "amenity": "fast_food", "data_type": "node", "lat": "52.2134885", "lon": "0.1544135", "other_tags": {"addr:city": "Cambridge", "addr:housenumber": "529b", "addr:postcode": "CB5 8LG", "addr:street": "Newmarket Road", "amenity": "fast_food", "cuisine": "burger;kebab;chicken", "drive_through": "no", "fhrs:id": "1472800", "name": "Grill Brothers", "opening_hours": "16:00-02:00", "opening_hours:covid19": "open", "phone": "+44 1223 243 666", "website": "https://www.thegrillbrothers.co.uk"}}, {"name": "Yu Garden", "amenity": "restaurant", "data_type": "node", "lat": "52.2136778", "lon": "0.1541953", "other_tags": {"addr:city": "Cambridge", "addr:housenumber": "529", "addr:postcode": "CB5 8LG", "addr:street": "Newmarket Road", "amenity": "restaurant", "cuisine": "chinese", "disused": "yes", "name": "Yu Garden"}}, {"name": "Pipasha", "amenity": "restaurant", "data_type": "node", "lat": "52.2135402", "lon": "0.1544283", "other_tags": {"addr:city": "Cambridge", "addr:housenumber": "529c", "addr:postcode": "CB5 8LG", "addr:street": "Newmarket Road", "amenity": "restaurant", "cuisine": "indian;bangladeshi", "fhrs:id": "1473193", "name": "Pipasha"}}, {"name": "N/A", "amenity": "bench", "data_type": "node", "lat": "52.2151692", "lon": "0.1452604", "other_tags": {"amenity": "bench", "backrest": "yes", "inscription": "In Loving Memory of\nAlla Kladkova\n27/12/1946 - 08/11/2011", "material": "wood", "openbenches:id": "18823", "seats": "4"}}, {"name": "N/A", "amenity": "bench", "data_type": "node", "lat": "52.2154373", "lon": "0.1454314", "other_tags": {"amenity": "bench", "backrest": "yes", "check_date": "2021-09-12", "material": "wood", "seats": "4"}}, {"name": "N/A", "amenity": "bench", "data_type": "node", "lat": "52.2157664", "lon": "0.1456172", "other_tags": {"amenity": "bench", "backrest": "yes", "inscription": "Roy Mc Fayden\nIn loving memory of my Dad\nwho fell asleep 6th of february 2018\nSleep tight Dad", "material": "wood", "openbenches:id": "18824", "seats": "4"}}, {"name": "N/A", "amenity": "bench", "data_type": "node", "lat": "52.2161602", "lon": "0.1456573", "other_tags": {"amenity": "bench", "backrest": "yes", "inscription": "\u6d41\u6c34\u6f7a\u6e72\n\u6811\u836b\u95f2\u606f\n\u5fc6\u5c3d\u819d\u524d\u6e29\u539a\u8bed\n\u9065\u7948\u82cd\u7a79\u83ab\u76f8\u5fd8\n\u656c\u601d\u6148\u7236 \u8c22\u8363\u65b0 1953-2012", "material": "wood", "openbenches:id": "18828", "seats": "4"}}, {"name": "N/A", "amenity": "bench", "data_type": "node", "lat": "52.2180455", "lon": "0.1496111", "other_tags": {"amenity": "bench", "backrest": "yes", "check_date": "2022-05-02", "material": "wood", "seats": "4"}}, {"name": "N/A", "amenity": "waste_basket", "data_type": "node", "lat": "52.2191691", "lon": "0.1540687", "other_tags": {"amenity": "waste_basket"}}, {"name": "N/A", "amenity": "bench", "data_type": "node", "lat": "52.2192425", "lon": "0.1539630", "other_tags": {"amenity": "bench", "backrest": "yes", "material": "wood", "seats": "4"}}, {"name": "KingsGate Community Church", "amenity": "place_of_worship", "data_type": "node", "lat": "52.2147970", "lon": "0.1482384", "other_tags": {"addr:city": "Cambridge", "addr:housenumber": "20", "addr:postcode": "CB5 8HY", "addr:street": "Mercers Row", "amenity": "place_of_worship", "name": "KingsGate Community Church", "religion": "christian"}}, {"name": "Star Radio Cambridge", "amenity": "studio", "data_type": "node", "lat": "52.2147218", "lon": "0.1483643", "other_tags": {"addr:city": "Cambridge", "addr:housenumber": "20", "addr:postcode": "CB5 8HY", "addr:street": "Mercers Row", "amenity": "studio", "name": "Star Radio Cambridge", "website": "https://www.starradioonline.com/", "wikidata": "Q7600841"}}, {"name": "Cambridge Dialysis Unit", "amenity": "clinic", "data_type": "node", "lat": "52.2164448", "lon": "0.1564158", "other_tags": {"amenity": "clinic", "healthcare": "clinic", "name": "Cambridge Dialysis Unit"}}, {"name": "Rhinocorn Studios", "amenity": "studio", "data_type": "node", "lat": "52.2146688", "lon": "0.1482519", "other_tags": {"addr:city": "Cambridge", "addr:full": "20 Mercers Row", "addr:housenumber": "Unit C", "addr:postcode": "CB5 8HY", "addr:street": "Mercers Row", "amenity": "studio", "name": "Rhinocorn Studios"}}, {"name": "N/A", "amenity": "bench", "data_type": "node", "lat": "52.2170804", "lon": "0.1464170", "other_tags": {"amenity": "bench", "backrest": "yes"}}, {"name": "N/A", "amenity": "bench", "data_type": "node", "lat": "52.2177699", "lon": "0.1481723", "other_tags": {"amenity": "bench", "backrest": "yes", "inscription": "In loving memory of\nRyan Crow\n1st May 1995 - 14th February 2020\nTake me home, United road", "material": "wood", "openbenches:id": "18825"}}, {"name": "N/A", "amenity": "waste_basket", "data_type": "node", "lat": "52.2150429", "lon": "0.1465628", "other_tags": {"amenity": "waste_basket"}}, {"name": "N/A", "amenity": "waste_basket", "data_type": "node", "lat": "52.2149196", "lon": "0.1466375", "other_tags": {"amenity": "waste_basket", "waste": "dog_excrement"}}, {"name": "N/A", "amenity": "parking", "data_type": "node", "lat": "52.2168822", "lon": "0.1589540", "other_tags": {"access": "customers", "amenity": "parking", "capacity": "7", "capacity:disabled": "1", "parking": "surface", "surface": "asphalt"}}, {"name": "N/A", "amenity": "bicycle_parking", "data_type": "node", "lat": "52.2132949", "lon": "0.1542323", "other_tags": {"access": "destination", "amenity": "bicycle_parking", "bicycle_parking": "stands", "covered": "no"}}, {"name": "N/A", "amenity": "bicycle_parking", "data_type": "node", "lat": "52.2126636", "lon": "0.1491217", "other_tags": {"access": "destination", "amenity": "bicycle_parking", "bicycle_parking": "stands", "capacity": "4"}}, {"name": "N/A", "amenity": "waste_basket", "data_type": "node", "lat": "52.2118035", "lon": "0.1529043", "other_tags": {"amenity": "waste_basket", "waste": "trash"}}, {"name": "N/A", "amenity": "waste_basket", "data_type": "node", "lat": "52.2126675", "lon": "0.1535088", "other_tags": {"amenity": "waste_basket", "waste": "trash"}}, {"name": "Leper Chapel of St Mary Magdalene", "amenity": "place_of_worship", "data_type": "way", "lat": "52.2139102", "lon": "0.1527018", "other_tags": {"addr:city": "Cambridge", "addr:postcode": "CB5 8LG", "addr:street": "Newmarket Road", "amenity": "place_of_worship", "building": "chapel", "he:inscription_date": "1950", "heritage": "2", "heritage:operator": "he", "heritage:website": "https://historicengland.org.uk/listing/the-list/list-entry/1126144", "name": "Leper Chapel of St Mary Magdalene", "ref:he": "1126144", "religion": "christian", "source": "Bing", "wikidata": "Q6527355", "wikipedia": "en:Leper Chapel, Cambridge"}}, {"name": "N/A", "amenity": "social_facility", "data_type": "way", "lat": "52.2129131", "lon": "0.1491413", "other_tags": {"addr:city": "Cambridge", "addr:housenumber": "451", "addr:postcode": "CB5 8JJ", "addr:street": "Newmarket Road", "amenity": "social_facility", "building": "yes", "noname": "yes", "operator": "Cambridge Cyrenians", "social_facility": "group_home"}}, {"name": "N/A", "amenity": "parking", "data_type": "way", "lat": "52.2133462", "lon": "0.1540989", "other_tags": {"amenity": "parking"}}, {"name": "N/A", "amenity": "parking", "data_type": "way", "lat": "52.2143602", "lon": "0.1518209", "other_tags": {"amenity": "parking"}}, {"name": "N/A", "amenity": "parking", "data_type": "way", "lat": "52.2143073", "lon": "0.1509718", "other_tags": {"amenity": "parking"}}, {"name": "N/A", "amenity": "parking", "data_type": "way", "lat": "52.2146880", "lon": "0.1469564", "other_tags": {"access": "destination", "amenity": "parking"}}, {"name": "N/A", "amenity": "parking", "data_type": "way", "lat": "52.2155235", "lon": "0.1511558", "other_tags": {"access": "destination", "amenity": "parking"}}, {"name": "N/A", "amenity": "parking", "data_type": "way", "lat": "52.2152755", "lon": "0.1507536", "other_tags": {"access": "destination", "amenity": "parking"}}, {"name": "N/A", "amenity": "parking", "data_type": "way", "lat": "52.2146276", "lon": "0.1491902", "other_tags": {"access": "destination", "amenity": "parking"}}, {"name": "N/A", "amenity": "parking", "data_type": "way", "lat": "52.2149860", "lon": "0.1477314", "other_tags": {"access": "destination", "amenity": "parking"}}, {"name": "N/A", "amenity": "parking", "data_type": "way", "lat": "52.2151377", "lon": "0.1498002", "other_tags": {"access": "destination", "amenity": "parking"}}, {"name": "N/A", "amenity": "parking", "data_type": "way", "lat": "52.2139312", "lon": "0.1541625", "other_tags": {"access": "destination", "amenity": "parking"}}, {"name": "N/A", "amenity": "parking", "data_type": "way", "lat": "52.2115134", "lon": "0.1571080", "other_tags": {"access": "destination", "amenity": "parking"}}]}, {"county": "Cambridgeshire", "code": "E00090521", "lad": "Cambridge", "rgn_main": "East of England", "population": 344, "amenities": [{"name": "N/A", "amenity": "bicycle_parking", "data_type": "node", "lat": "52.2121403", "lon": "0.1468278", "other_tags": {"amenity": "bicycle_parking", "bicycle_parking": "stands", "capacity": "8", "covered": "no"}}, {"name": "N/A", "amenity": "bicycle_parking", "data_type": "node", "lat": "52.2117424", "lon": "0.1476939", "other_tags": {"amenity": "bicycle_parking", "bicycle_parking": "stands", "capacity": "20", "covered": "no"}}, {"name": "Cambridge Car Wash", "amenity": "car_wash", "data_type": "node", "lat": "52.2125456", "lon": "0.1453543", "other_tags": {"addr:city": "Cambridge", "addr:housenumber": "23", "addr:postcode": "CB5 8LD", "addr:street": "Cheddars Lane", "amenity": "car_wash", "name": "Cambridge Car Wash", "source": "survey;Bing"}}, {"name": "N/A", "amenity": "bicycle_parking", "data_type": "node", "lat": "52.2119381", "lon": "0.1457381", "other_tags": {"amenity": "bicycle_parking", "bicycle_parking": "stands", "capacity": "12", "covered": "no"}}, {"name": "N/A", "amenity": "charging_station", "data_type": "node", "lat": "52.2120583", "lon": "0.1470615", "other_tags": {"amenity": "charging_station", "authentication:contactless": "yes", "capacity": "2", "fee": "no", "operator": "NewMotion", "socket:type2_combo": "2", "socket:type2_combo:output": "22kW"}}, {"name": "N/A", "amenity": "bicycle_parking", "data_type": "node", "lat": "52.2116693", "lon": "0.1474406", "other_tags": {"amenity": "bicycle_parking", "bicycle_parking": "stands", "capacity": "42", "covered": "yes"}}, {"name": "N/A", "amenity": "recycling", "data_type": "node", "lat": "52.2123638", "lon": "0.1470458", "other_tags": {"amenity": "recycling", "operator": "People Unite", "recycling:clothes": "yes", "recycling:shoes": "yes", "recycling_type": "container"}}, {"name": "N/A", "amenity": "parking", "data_type": "way", "lat": "52.2119112", "lon": "0.1480040", "other_tags": {"access": "customers", "amenity": "parking", "capacity:disabled": "3", "fee": "no", "note": "3 disabled spaces that I could see, all near the shop entrances.", "parking": "surface"}}, {"name": "Brickfields (City Church Cambridge)", "amenity": "place_of_worship", "data_type": "way", "lat": "52.2120199", "lon": "0.1452728", "other_tags": {"addr:city": "Cambridge", "addr:housenumber": "12-14", "addr:postcode": "CB5 8LD", "addr:street": "Cheddars Lane", "amenity": "place_of_worship", "building": "yes", "denomination": "new_frontiers", "name": "Brickfields (City Church Cambridge)", "religion": "christian", "website": "https://www.citychurchcambridge.org.uk/"}}, {"name": "Brickfields House (City Church Cambridge)", "amenity": "place_of_worship", "data_type": "way", "lat": "52.2118918", "lon": "0.1449211", "other_tags": {"addr:city": "Cambridge", "addr:postcode": "CB5 8LD", "addr:street": "Cheddars Lane", "amenity": "place_of_worship", "building": "yes", "denomination": "evangelical", "name": "Brickfields House (City Church Cambridge)", "religion": "christian"}}, {"name": "Kingdom Hall of Jehovah's Witnesses", "amenity": "place_of_worship", "data_type": "way", "lat": "52.2125547", "lon": "0.1471937", "other_tags": {"addr:city": "Cambridge", "addr:postcode": "CB5 8LF", "addr:street": "Stanley Road", "amenity": "place_of_worship", "building": "yes", "denomination": "jehovahs_witness", "name": "Kingdom Hall of Jehovah's Witnesses", "religion": "christian"}}, {"name": "N/A", "amenity": "parking", "data_type": "way", "lat": "52.2119337", "lon": "0.1453778", "other_tags": {"access": "destination", "amenity": "parking", "capacity": "22", "parking": "surface", "surface": "asphalt"}}]}, {"county": "Cambridgeshire", "code": "E00090522", "lad": "Cambridge", "rgn_main": "East of England", "population": 383, "amenities": [{"name": "N/A", "amenity": "bench", "data_type": "node", "lat": "52.2151919", "lon": "0.1590024", "other_tags": {"amenity": "bench", "backrest": "yes"}}]}, {"county": "Cambridgeshire", "code": "E00090523", "lad": "Cambridge", "rgn_main": "East of England", "population": 254, "amenities": [{"name": "N/A", "amenity": "post_box", "data_type": "node", "lat": "52.2151993", "lon": "0.1687701", "other_tags": {"amenity": "post_box", "brand": "Royal Mail", "brand:wikidata": "Q638098", "brand:wikipedia": "en:Royal Mail", "collection_times": "Mo-Fr 16:15; Sa 13:00", "operator": "Royal Mail", "operator:wikidata": "Q638098", "post_box:type": "pillar", "postal_code": "CB5 8", "ref": "CB5 52", "royal_cypher": "EIIR"}}, {"name": "Barracuda Fish Bar", "amenity": "fast_food", "data_type": "node", "lat": "52.2152939", "lon": "0.1688945", "other_tags": {"addr:city": "Cambridge", "addr:housenumber": "39", "addr:postcode": "CB5 8SR", "addr:street": "Ditton Lane", "amenity": "fast_food", "cuisine": "fish_and_chips;kebab;burger;fried_chicken", "fhrs:id": "1472659", "name": "Barracuda Fish Bar"}}, {"name": "Ditton Pharmacy", "amenity": "pharmacy", "data_type": "node", "lat": "52.2151802", "lon": "0.1690109", "other_tags": {"addr:city": "Cambridge", "addr:housenumber": "37", "addr:postcode": "CB5 8SR", "addr:street": "Ditton Lane", "amenity": "pharmacy", "name": "Ditton Pharmacy", "wheelchair": "yes"}}, {"name": "N/A", "amenity": "bicycle_parking", "data_type": "node", "lat": "52.2150455", "lon": "0.1691072", "other_tags": {"amenity": "bicycle_parking", "bicycle_parking": "stands", "capacity": "8"}}, {"name": "N/A", "amenity": "atm", "data_type": "node", "lat": "52.2155121", "lon": "0.1690172", "other_tags": {"amenity": "atm", "operator": "RBS"}}, {"name": "N/A", "amenity": "bicycle_parking", "data_type": "node", "lat": "52.2152060", "lon": "0.1688142", "other_tags": {"amenity": "bicycle_parking", "bicycle_parking": "stands", "capacity": "6", "covered": "no"}}, {"name": "Ditton Court", "amenity": "social_facility", "data_type": "relation", "lat": "52.2157537", "lon": "0.1692702", "other_tags": {"addr:city": "Cambridge", "addr:postcode": "CB5 8UD", "addr:street": "Ditton Lane", "amenity": "social_facility", "building": "yes", "name": "Ditton Court", "operator": "Cambridge City Council", "social_facility": "assisted_living", "social_facility:for": "senior", "type": "multipolygon"}}, {"name": "East Barnwell Health Centre", "amenity": "doctors", "data_type": "relation", "lat": "52.2148442", "lon": "0.1690041", "other_tags": {"addr:city": "Cambridge", "addr:postcode": "CB5 8SP", "addr:street": "Ditton Lane", "amenity": "doctors", "building": "yes", "name": "East Barnwell Health Centre", "type": "multipolygon", "website": "www.eastbarnwellhealthcentre.co.uk"}}]}, {"county": "Cambridgeshire", "code": "E00090524", "lad": "Cambridge", "rgn_main": "East of England", "population": 281, "amenities": []}, {"county": "Cambridgeshire", "code": "E00090525", "lad": "Cambridge", "rgn_main": "East of England", "population": 371, "amenities": [{"name": "Cambridge Cemetery", "amenity": "parking", "data_type": "node", "lat": "52.2118416", "lon": "0.1701777", "other_tags": {"amenity": "parking", "created_by": "JOSM", "name": "Cambridge Cemetery"}}, {"name": "N/A", "amenity": "parking", "data_type": "way", "lat": "52.2120243", "lon": "0.1701873", "other_tags": {"amenity": "parking"}}, {"name": "St Vincent de Paul", "amenity": "place_of_worship", "data_type": "way", "lat": "52.2149952", "lon": "0.1680455", "other_tags": {"addr:city": "Cambridge", "addr:postcode": "CB5 8SP", "addr:street": "Ditton Lane", "amenity": "place_of_worship", "building": "church", "denomination": "roman_catholic", "name": "St Vincent de Paul", "religion": "christian"}}]}, {"county": "Cambridgeshire", "code": "E00090526", "lad": "Cambridge", "rgn_main": "East of England", "population": 185, "amenities": [{"name": "N/A", "amenity": "parking", "data_type": "way", "lat": "52.2133230", "lon": "0.1475262", "other_tags": {"access": "private", "amenity": "parking", "parking": "surface"}}, {"name": "N/A", "amenity": "parking", "data_type": "way", "lat": "52.2135867", "lon": "0.1473137", "other_tags": {"access": "private", "amenity": "parking", "parking": "surface"}}]}, {"county": "Cambridgeshire", "code": "E00090527", "lad": "Cambridge", "rgn_main": "East of England", "population": 323, "amenities": [{"name": "N/A", "amenity": "parking", "data_type": "way", "lat": "52.2128099", "lon": "0.1655743", "other_tags": {"access": "destination", "amenity": "parking"}}]}, {"county": "Cambridgeshire", "code": "E00090528", "lad": "Cambridge", "rgn_main": "East of England", "population": 319, "amenities": [{"name": "N/A", "amenity": "post_box", "data_type": "node", "lat": "52.2137473", "lon": "0.1547997", "other_tags": {"amenity": "post_box", "collection_times": "Mo-Fr 09:00; Sa 07:00", "operator": "Royal Mail", "post_box:type": "pillar", "postal_code": "CB5", "ref": "CB5 46D", "royal_cypher": "EIIR"}}, {"name": "Thrifty", "amenity": "car_rental", "data_type": "node", "lat": "52.2130089", "lon": "0.1547018", "other_tags": {"addr:city": "Cambridge", "addr:postcode": "CB5 8LN", "addr:street": "Newmarket Road", "amenity": "car_rental", "brand": "Thrifty", "brand:wikidata": "Q2429546", "brand:wikipedia": "en:Thrifty Car Rental", "name": "Thrifty"}}, {"name": "N/A", "amenity": "bicycle_parking", "data_type": "node", "lat": "52.2136804", "lon": "0.1547697", "other_tags": {"amenity": "bicycle_parking", "bicycle_parking": "stands", "capacity": "6", "covered": "no"}}, {"name": "N/A", "amenity": "parking", "data_type": "way", "lat": "52.2127312", "lon": "0.1552246", "other_tags": {"amenity": "parking"}}, {"name": "N/A", "amenity": "parking", "data_type": "way", "lat": "52.2127668", "lon": "0.1606929", "other_tags": {"access": "customers", "amenity": "parking"}}, {"name": "N/A", "amenity": "parking", "data_type": "way", "lat": "52.2127425", "lon": "0.1609576", "other_tags": {"amenity": "parking"}}]}, {"county": "Cambridgeshire", "code": "E00090529", "lad": "Cambridge", "rgn_main": "East of England", "population": 344, "amenities": [{"name": "N/A", "amenity": "charging_station", "data_type": "node", "lat": "52.2143558", "lon": "0.1627602", "other_tags": {"amenity": "charging_station", "capacity": "2", "maxstay": "1 hour", "network": "evolt", "socket:chademo": "1", "socket:chademo:output": "50 kW", "socket:type2": "1", "socket:type2:output": "43 kW", "socket:type2_combo": "1", "socket:type2_combo:output": "50 kW"}}, {"name": "N/A", "amenity": "charging_station", "data_type": "node", "lat": "52.2142764", "lon": "0.1627737", "other_tags": {"amenity": "charging_station", "capacity": "2", "maxstay": "1 hour", "network": "evolt", "socket:chademo": "1", "socket:chademo:output": "50 kW", "socket:type2": "1", "socket:type2:output": "43 kW", "socket:type2_combo": "1", "socket:type2_combo:output": "50 kW"}}, {"name": "Little Free Library", "amenity": "public_bookcase", "data_type": "node", "lat": "52.2130904", "lon": "0.1627189", "other_tags": {"amenity": "public_bookcase", "brand": "Little Free Library", "brand:wikidata": "Q6650101", "brand:wikipedia": "en:Little Free Library", "name": "Little Free Library", "public_bookcase:type": "reading_box", "ref": "140698"}}, {"name": "InstaVolt", "amenity": "charging_station", "data_type": "node", "lat": "52.2128771", "lon": "0.1631198", "other_tags": {"access": "yes", "amenity": "charging_station", "capacity": "2", "name": "InstaVolt", "operator": "InstaVolt", "operator:wikidata": "Q111173904"}}, {"name": "N/A", "amenity": "parking", "data_type": "way", "lat": "52.2130447", "lon": "0.1631456", "other_tags": {"access": "customers", "amenity": "parking", "fee": "no", "park_ride": "no", "surface": "asphalt"}}]}, {"county": "Cambridgeshire", "code": "E00090530", "lad": "Cambridge", "rgn_main": "East of England", "population": 251, "amenities": [{"name": "N/A", "amenity": "waste_basket", "data_type": "node", "lat": "52.2168758", "lon": "0.1615591", "other_tags": {"amenity": "waste_basket"}}, {"name": "N/A", "amenity": "recycling", "data_type": "node", "lat": "52.2168718", "lon": "0.1615510", "other_tags": {"amenity": "recycling", "recycling_type": "container"}}, {"name": "N/A", "amenity": "waste_basket", "data_type": "node", "lat": "52.2173271", "lon": "0.1611772", "other_tags": {"amenity": "waste_basket", "waste": "dog_excrement"}}, {"name": "N/A", "amenity": "bicycle_parking", "data_type": "node", "lat": "52.2176960", "lon": "0.1604191", "other_tags": {"access": "private", "amenity": "bicycle_parking", "bicycle_parking": "stands", "capacity": "14", "covered": "no"}}, {"name": "N/A", "amenity": "bench", "data_type": "node", "lat": "52.2199389", "lon": "0.1566360", "other_tags": {"amenity": "bench", "backrest": "no", "layer": "2", "location": "bridge", "material": "wood"}}, {"name": "Barnwell Baptist Church", "amenity": "place_of_worship", "data_type": "way", "lat": "52.2161884", "lon": "0.1626625", "other_tags": {"addr:city": "Cambridge", "addr:postcode": "CB5 8QS", "addr:street": "Howard Road", "amenity": "place_of_worship", "building": "church", "denomination": "baptist", "fhrs:id": "705111", "name": "Barnwell Baptist Church", "religion": "christian"}}]}, {"county": "Cambridgeshire", "code": "E00090531", "lad": "Cambridge", "rgn_main": "East of England", "population": 436, "amenities": [{"name": "N/A", "amenity": "bicycle_parking", "data_type": "node", "lat": "52.2120449", "lon": "0.1653455", "other_tags": {"access": "yes", "amenity": "bicycle_parking", "bicycle_parking": "stands", "covered": "no", "fee": "no"}}, {"name": "N/A", "amenity": "parking", "data_type": "way", "lat": "52.2121327", "lon": "0.1642678", "other_tags": {"amenity": "parking", "created_by": "JOSM"}}, {"name": "East Barnwell Community Centre", "amenity": "community_centre", "data_type": "way", "lat": "52.2119848", "lon": "0.1652512", "other_tags": {"addr:city": "Cambridge", "addr:postcode": "CB5 8RS", "addr:street": "Newmarket Road", "amenity": "community_centre", "building": "yes", "name": "East Barnwell Community Centre", "source": "survey,Bing"}}, {"name": "Christ the Redeemer Church", "amenity": "place_of_worship", "data_type": "way", "lat": "52.2119585", "lon": "0.1647510", "other_tags": {"addr:city": "Cambridge", "addr:postcode": "CB5 8RS", "addr:street": "Newmarket Road", "amenity": "place_of_worship", "building": "church", "denomination": "anglican", "name": "Christ the Redeemer Church", "religion": "christian", "source": "survey,Bing", "wikidata": "Q105085504"}}, {"name": "Cambridge Spiritualist Centre", "amenity": "place_of_worship", "data_type": "way", "lat": "52.2119671", "lon": "0.1657737", "other_tags": {"addr:city": "Cambridge", "addr:housenumber": "662", "addr:postcode": "CB5 8RS", "addr:street": "Newmarket Road", "amenity": "place_of_worship", "building": "church", "name": "Cambridge Spiritualist Centre", "religion": "christian", "source": "survey,Bing", "website": "www.cambridgespiritualchurch.co.uk"}}, {"name": "N/A", "amenity": "parking", "data_type": "way", "lat": "52.2122265", "lon": "0.1651607", "other_tags": {"access": "destination", "amenity": "parking"}}]}, {"county": "Cambridgeshire", "code": "E00090532", "lad": "Cambridge", "rgn_main": "East of England", "population": 190, "amenities": [{"name": "N/A", "amenity": "bicycle_parking", "data_type": "node", "lat": "52.2120272", "lon": "0.1632220", "other_tags": {"access": "yes", "amenity": "bicycle_parking", "bicycle_parking": "stands", "capacity": "4", "covered": "no"}}, {"name": "Delight", "amenity": "fast_food", "data_type": "node", "lat": "52.2115830", "lon": "0.1634258", "other_tags": {"addr:city": "Cambridge", "addr:housenumber": "23", "addr:postcode": "CB5 8RG", "addr:street": "Barnwell Road", "amenity": "fast_food", "cuisine": "chinese", "fhrs:id": "1472948", "name": "Delight"}}, {"name": "The Codfather", "amenity": "fast_food", "data_type": "node", "lat": "52.2119488", "lon": "0.1633842", "other_tags": {"addr:city": "Cambridge", "addr:housenumber": "7", "addr:postcode": "CB5 8RG", "addr:street": "Barnwell Road", "amenity": "fast_food", "cuisine": "fish_and_chips", "fhrs:id": "1473495", "name": "The Codfather"}}, {"name": "Well Cambridge", "amenity": "pharmacy", "data_type": "node", "lat": "52.2116890", "lon": "0.1634163", "other_tags": {"addr:city": "Cambridge", "addr:housenumber": "17", "addr:postcode": "CB5 8RG", "addr:street": "Barnwell Road", "amenity": "pharmacy", "fhrs:id": "506879", "healthcare": "pharmacy", "name": "Well Cambridge", "operator": "Well Pharmacy", "website": "https://finder.well.co.uk/store/cambridge-barnwell-road"}}, {"name": "The Hub", "amenity": "community_centre", "data_type": "node", "lat": "52.2117679", "lon": "0.1634110", "other_tags": {"addr:city": "Cambridge", "addr:housenumber": "15", "addr:postcode": "CB5 8RG", "addr:street": "Barnwell Road", "amenity": "community_centre", "fhrs:id": "1226470", "name": "The Hub", "old_name": "Cambridge Laptop Repair", "operator": "Abbey People CIO", "operator:website": "https://www.abbeypeople.org.uk/"}}, {"name": "N/A", "amenity": "bicycle_parking", "data_type": "node", "lat": "52.2118627", "lon": "0.1632606", "other_tags": {"access": "yes", "amenity": "bicycle_parking", "bicycle_parking": "stands", "capacity": "8", "covered": "no"}}, {"name": "N/A", "amenity": "telephone", "data_type": "node", "lat": "52.2115280", "lon": "0.1630570", "other_tags": {"amenity": "telephone", "booth": "KX100", "covered": "booth"}}, {"name": "N/A", "amenity": "recycling", "data_type": "node", "lat": "52.2115849", "lon": "0.1632010", "other_tags": {"amenity": "recycling", "operator": "Pink Elephant Group Ltd", "recycling:belts": "yes", "recycling:clothes": "yes", "recycling:handbags": "yes", "recycling:shoes": "yes", "recycling_type": "container"}}, {"name": "N/A", "amenity": "bicycle_parking", "data_type": "node", "lat": "52.2116843", "lon": "0.1632811", "other_tags": {"access": "yes", "amenity": "bicycle_parking", "bicycle_parking": "stands", "capacity": "6", "covered": "no"}}, {"name": "Rawlyn Court", "amenity": "social_facility", "data_type": "relation", "lat": "52.2118122", "lon": "0.1602059", "other_tags": {"addr:city": "Cambridge", "addr:postcode": "CB5 8NR", "amenity": "social_facility", "building": "yes", "name": "Rawlyn Court", "operator": "Cambridge City Council", "social_facility": "assisted_living", "type": "multipolygon"}}, {"name": "Barnwell Library", "amenity": "library", "data_type": "way", "lat": "52.2114881", "lon": "0.1631512", "other_tags": {"addr:city": "Cambridge", "addr:housename": "Barnwell Library", "addr:housenumber": "49", "addr:postcode": "CB5 8RG", "addr:street": "Barnwell Road", "amenity": "library", "building": "civic", "internet_access": "yes", "name": "Barnwell Library", "wikidata": "Q55163428"}}, {"name": "N/A", "amenity": "parking", "data_type": "way", "lat": "52.2117609", "lon": "0.1631124", "other_tags": {"access": "yes", "amenity": "parking", "capacity": "8", "capacity:disabled": "2", "fee": "no", "parking": "surface", "surface": "asphalt"}}]}, {"county": "Cambridgeshire", "code": "E00090533", "lad": "Cambridge", "rgn_main": "East of England", "population": 338, "amenities": [{"name": "N/A", "amenity": "post_box", "data_type": "node", "lat": "52.2101957", "lon": "0.1567557", "other_tags": {"amenity": "post_box", "brand": "Royal Mail", "brand:wikidata": "Q638098", "brand:wikipedia": "en:Royal Mail", "collection_times": "Mo-Fr 09:00; Sa 07:00", "operator": "Royal Mail", "operator:wikidata": "Q638098", "post_box:type": "pillar", "postal_code": "CB5 8", "ref": "CB5 45D", "royal_cypher": "GVIR", "source": "survey"}}, {"name": "N/A", "amenity": "parking", "data_type": "way", "lat": "52.2103165", "lon": "0.1599239", "other_tags": {"amenity": "parking"}}]}, {"county": "Cambridgeshire", "code": "E00090534", "lad": "Cambridge", "rgn_main": "East of England", "population": 407, "amenities": [{"name": "N/A", "amenity": "post_box", "data_type": "node", "lat": "52.2124818", "lon": "0.1638680", "other_tags": {"amenity": "post_box", "brand": "Royal Mail", "brand:wikidata": "Q638098", "brand:wikipedia": "en:Royal Mail", "collection_times": "Mo-Fr 09:00; Sa 07:00", "operator": "Royal Mail", "operator:wikidata": "Q638098", "post_box:type": "pillar", "postal_code": "CB5", "ref": "CB5 49D", "royal_cypher": "EIIR"}}, {"name": "N/A", "amenity": "post_box", "data_type": "node", "lat": "52.2112408", "lon": "0.1713631", "other_tags": {"amenity": "post_box", "collection_times": "Mo-Fr 09:00; Sa 07:00", "operator": "Royal Mail", "post_box:type": "pillar", "postal_code": "CB5 8", "ref": "CB5 53D", "royal_cypher": "GVIR", "source": "local_knowledge"}}, {"name": "N/A", "amenity": "bicycle_parking", "data_type": "node", "lat": "52.2125718", "lon": "0.1633960", "other_tags": {"access": "yes", "amenity": "bicycle_parking", "capacity": "30", "covered": "no", "operator": "McDonald's"}}, {"name": "Papa John's Pizza", "amenity": "fast_food", "data_type": "node", "lat": "52.2126249", "lon": "0.1637717", "other_tags": {"addr:city": "Cambridge", "addr:housenumber": "643", "addr:postcode": "CB5 8PB", "addr:street": "Newmarket Road", "amenity": "fast_food", "cuisine": "pizza", "fhrs:id": "1472645", "name": "Papa John's Pizza", "website": "https://www.papajohns.co.uk/"}}, {"name": "Cambridge Cemetery", "amenity": "parking", "data_type": "node", "lat": "52.2130551", "lon": "0.1671284", "other_tags": {"amenity": "parking", "name": "Cambridge Cemetery"}}, {"name": "McDonald's", "amenity": "fast_food", "data_type": "way", "lat": "52.2126441", "lon": "0.1635912", "other_tags": {"addr:city": "Cambridge", "addr:housenumber": "639", "addr:postcode": "CB5 8WL", "addr:street": "Newmarket Road", "amenity": "fast_food", "brand": "McDonald's", "brand:wikidata": "Q38076", "brand:wikipedia": "en:McDonald's", "building": "yes", "contact:website": "https://www.mcdonalds.com/gb/en-gb/location/cambridge/cambridge---newmarket-road/639-newmarket-road/8261111.html", "cuisine": "burger", "drive_through": "yes", "fhrs:id": "1473120", "name": "McDonald's", "takeaway": "yes"}}, {"name": "Cemetery Chapel", "amenity": "place_of_worship", "data_type": "way", "lat": "52.2125994", "lon": "0.1669399", "other_tags": {"addr:city": "Cambridge", "addr:postcode": "CB5 8PE", "addr:street": "Newmarket Road", "amenity": "place_of_worship", "building": "church", "name": "Cemetery Chapel"}}, {"name": "N/A", "amenity": "parking", "data_type": "way", "lat": "52.2121713", "lon": "0.1658166", "other_tags": {"access": "destination", "amenity": "parking"}}, {"name": "N/A", "amenity": "parking", "data_type": "way", "lat": "52.2126008", "lon": "0.1635893", "other_tags": {"access": "customers", "amenity": "parking", "capacity": "2", "capacity:disabled": "0", "fee": "no", "operator": "McDonald's", "operator:type": "private", "park_ride": "no", "parking": "surface", "surface": "asphalt"}}, {"name": "N/A", "amenity": "parking", "data_type": "way", "lat": "52.2131385", "lon": "0.1672596", "other_tags": {"amenity": "parking"}}]}, {"county": "Cambridgeshire", "code": "E00090535", "lad": "Cambridge", "rgn_main": "East of England", "population": 201, "amenities": [{"name": "Abbey Meadows Community Primary School", "amenity": "school", "data_type": "node", "lat": "52.2088021", "lon": "0.1617994", "other_tags": {"addr:city": "Cambridge", "addr:postcode": "CB5 8ND", "addr:street": "Galfrid Road", "amenity": "school", "name": "Abbey Meadows Community Primary School", "ref:edubase": "132127"}}, {"name": "The Fields Early Learning Centre", "amenity": "school", "data_type": "node", "lat": "52.2080209", "lon": "0.1620721", "other_tags": {"addr:city": "Cambridge", "addr:postcode": "CB5 8ND", "addr:street": "Galfrid Road", "amenity": "school", "name": "The Fields Early Learning Centre", "ref:edubase": "23190"}}, {"name": "Companion Care", "amenity": "veterinary", "data_type": "node", "lat": "52.2041142", "lon": "0.1635158", "other_tags": {"addr:city": "Cambridge", "addr:housenumber": "255", "addr:postcode": "CB5 8SL", "addr:street": "Barnwell Road", "amenity": "veterinary", "name": "Companion Care"}}, {"name": "N/A", "amenity": "telephone", "data_type": "node", "lat": "52.2099355", "lon": "0.1628233", "other_tags": {"amenity": "telephone", "booth": "KXPlus", "check_date": "2021-10-16", "covered": "booth", "operator": "BT"}}, {"name": "N/A", "amenity": "bicycle_parking", "data_type": "node", "lat": "52.2067306", "lon": "0.1652779", "other_tags": {"amenity": "bicycle_parking"}}, {"name": "N/A", "amenity": "waste_basket", "data_type": "node", "lat": "52.2091297", "lon": "0.1629170", "other_tags": {"amenity": "waste_basket", "waste": "dog_excrement"}}, {"name": "N/A", "amenity": "bicycle_parking", "data_type": "way", "lat": "52.2073719", "lon": "0.1647715", "other_tags": {"amenity": "bicycle_parking"}}, {"name": "N/A", "amenity": "parking", "data_type": "way", "lat": "52.2085238", "lon": "0.1610979", "other_tags": {"access": "destination", "amenity": "parking"}}, {"name": "N/A", "amenity": "parking", "data_type": "way", "lat": "52.2073798", "lon": "0.1614264", "other_tags": {"access": "destination", "amenity": "parking"}}]}, {"county": "Cambridgeshire", "code": "E00090536", "lad": "Cambridge", "rgn_main": "East of England", "population": 469, "amenities": [{"name": "N/A", "amenity": "post_box", "data_type": "node", "lat": "52.2109796", "lon": "0.1387736", "other_tags": {"amenity": "post_box", "collection_times": "Mo-Fr 09:00; Sa 07:00", "note": "post box has a spikey to to stop people sitting on it", "operator": "Royal Mail", "post_box:type": "pillar", "postal_code": "CB5", "ref": "CB5 34D", "royal_cypher": "no"}}, {"name": "N/A", "amenity": "bicycle_parking", "data_type": "node", "lat": "52.2111166", "lon": "0.1376505", "other_tags": {"amenity": "bicycle_parking", "bicycle_parking": "stands", "capacity": "8", "covered": "no"}}, {"name": "N/A", "amenity": "bicycle_parking", "data_type": "node", "lat": "52.2110967", "lon": "0.1382402", "other_tags": {"amenity": "bicycle_parking", "bicycle_parking": "stands", "capacity": "8", "covered": "no"}}, {"name": "N/A", "amenity": "bench", "data_type": "node", "lat": "52.2110319", "lon": "0.1387923", "other_tags": {"amenity": "bench", "backrest": "yes", "material": "metal", "seats": "4"}}, {"name": "N/A", "amenity": "waste_basket", "data_type": "node", "lat": "52.2110911", "lon": "0.1373183", "other_tags": {"amenity": "waste_basket"}}, {"name": "N/A", "amenity": "waste_basket", "data_type": "node", "lat": "52.2110237", "lon": "0.1388740", "other_tags": {"amenity": "waste_basket"}}, {"name": "N/A", "amenity": "waste_basket", "data_type": "node", "lat": "52.2110215", "lon": "0.1399953", "other_tags": {"amenity": "waste_basket"}}, {"name": "N/A", "amenity": "bicycle_parking", "data_type": "node", "lat": "52.2135412", "lon": "0.1431250", "other_tags": {"amenity": "bicycle_parking", "bicycle_parking": "stands", "covered": "yes", "fee": "no"}}, {"name": "Ace Day Nursery", "amenity": "kindergarten", "data_type": "way", "lat": "52.2099153", "lon": "0.1393741", "other_tags": {"addr:city": "Cambridge", "addr:country": "GB", "addr:housenumber": "6A", "addr:postcode": "CB5 8HT", "addr:street": "Priory Road", "amenity": "kindergarten", "building": "yes", "fhrs:id": "506409", "name": "Ace Day Nursery", "phone": "+44 1223 366355", "source:addr:housenumber": "FHRS Open Data"}}, {"name": "N/A", "amenity": "parking", "data_type": "way", "lat": "52.2117595", "lon": "0.1418569", "other_tags": {"access": "private", "amenity": "parking"}}, {"name": "N/A", "amenity": "parking", "data_type": "way", "lat": "52.2111317", "lon": "0.1417173", "other_tags": {"access": "private", "amenity": "parking", "parking": "surface"}}]}, {"county": "Cambridgeshire", "code": "E00090537", "lad": "Cambridge", "rgn_main": "East of England", "population": 388, "amenities": [{"name": "N/A", "amenity": "post_box", "data_type": "node", "lat": "52.2084313", "lon": "0.1634924", "other_tags": {"amenity": "post_box", "collection_times": "Mo-Fr 18:45; Sa 12:30", "operator": "Royal Mail", "postal_code": "CB5 8", "ref": "CB5 54"}}, {"name": "N/A", "amenity": "parking", "data_type": "way", "lat": "52.2070835", "lon": "0.1638967", "other_tags": {"amenity": "parking"}}, {"name": "N/A", "amenity": "parking", "data_type": "way", "lat": "52.2082832", "lon": "0.1684204", "other_tags": {"access": "private", "amenity": "parking", "parking": "surface"}}, {"name": "N/A", "amenity": "parking", "data_type": "way", "lat": "52.2087298", "lon": "0.1669415", "other_tags": {"access": "private", "amenity": "parking"}}]}, {"county": "Cambridgeshire", "code": "E00090539", "lad": "Cambridge", "rgn_main": "East of England", "population": 177, "amenities": []}, {"county": "Cambridgeshire", "code": "E00090540", "lad": "Cambridge", "rgn_main": "East of England", "population": 247, "amenities": []}, {"county": "Cambridgeshire", "code": "E00090541", "lad": "Cambridge", "rgn_main": "East of England", "population": 330, "amenities": []}, {"county": "Cambridgeshire", "code": "E00090542", "lad": "Cambridge", "rgn_main": "East of England", "population": 311, "amenities": []}, {"county": "Cambridgeshire", "code": "E00090543", "lad": "Cambridge", "rgn_main": "East of England", "population": 310, "amenities": [{"name": "The Carlton Arms", "amenity": "pub", "data_type": "way", "lat": "52.2219731", "lon": "0.1188766", "other_tags": {"addr:city": "Cambridge", "addr:postcode": "CB4 2BY", "addr:street": "Carlton Way", "amenity": "pub", "building": "commercial", "fhrs:id": "506003", "name": "The Carlton Arms", "source:name": "local_knowledge", "source:outline": "Bing", "website": "http://thecarltonarmscambridge.co.uk/"}}]}, {"county": "Cambridgeshire", "code": "E00090545", "lad": "Cambridge", "rgn_main": "East of England", "population": 335, "amenities": [{"name": "N/A", "amenity": "post_box", "data_type": "node", "lat": "52.2190867", "lon": "0.1175250", "other_tags": {"amenity": "post_box", "collection_times": "Mo-Fr 09:00; Sa 07:00", "operator": "Royal Mail", "post_box:type": "pillar", "ref": "CB4 150D", "royal_cypher": "GR"}}, {"name": "Akeman Community Centre", "amenity": "community_centre", "data_type": "node", "lat": "52.2190969", "lon": "0.1165671", "other_tags": {"addr:city": "Cambridge", "addr:housenumber": "80", "addr:postcode": "CB4 3HG", "addr:street": "Akeman Street", "amenity": "community_centre", "name": "Akeman Community Centre", "operator": "Cambridge City Council"}}, {"name": "N/A", "amenity": "bicycle_parking", "data_type": "node", "lat": "52.2191820", "lon": "0.1166157", "other_tags": {"amenity": "bicycle_parking", "bicycle_parking": "stands", "capacity": "6", "covered": "no"}}, {"name": "N/A", "amenity": "bench", "data_type": "node", "lat": "52.2191999", "lon": "0.1165843", "other_tags": {"amenity": "bench", "backrest": "no", "material": "wood"}}, {"name": "N/A", "amenity": "bicycle_parking", "data_type": "node", "lat": "52.2192323", "lon": "0.1162179", "other_tags": {"amenity": "bicycle_parking", "bicycle_parking": "stands", "capacity": "6", "covered": "no"}}, {"name": "N/A", "amenity": "charging_station", "data_type": "node", "lat": "52.2191831", "lon": "0.1165391", "other_tags": {"amenity": "charging_station", "capacity": "2", "note": "Alternative ref: PG-85916", "operator": "Pod Point", "operator:wikidata": "Q42888154", "ref": "Anna-Maya", "socket:type2": "2", "socket:type2:output": "7 kW"}}]}, {"county": "Cambridgeshire", "code": "E00090546", "lad": "Cambridge", "rgn_main": "East of England", "population": 349, "amenities": [{"name": "N/A", "amenity": "parking", "data_type": "node", "lat": "52.2174101", "lon": "0.1114922", "other_tags": {"amenity": "parking", "capacity": "6"}}, {"name": "N/A", "amenity": "bicycle_parking", "data_type": "node", "lat": "52.2174538", "lon": "0.1115431", "other_tags": {"amenity": "bicycle_parking", "capacity": "20"}}, {"name": "N/A", "amenity": "parking", "data_type": "node", "lat": "52.2174490", "lon": "0.1116437", "other_tags": {"amenity": "parking", "capacity:disabled": "1"}}, {"name": "N/A", "amenity": "bicycle_parking", "data_type": "node", "lat": "52.2173157", "lon": "0.1120065", "other_tags": {"amenity": "bicycle_parking", "capacity": "60"}}, {"name": "Coffee Tree", "amenity": "cafe", "data_type": "node", "lat": "52.2192799", "lon": "0.1116700", "other_tags": {"addr:city": "Cambridge", "addr:housenumber": "184A", "addr:postcode": "CB4 3JP", "addr:street": "Histon Road", "amenity": "cafe", "cuisine": "coffee_shop", "fhrs:id": "679450", "name": "Coffee Tree"}}, {"name": "N/A", "amenity": "bicycle_parking", "data_type": "node", "lat": "52.2192200", "lon": "0.1116684", "other_tags": {"amenity": "bicycle_parking", "bicycle_parking": "stands", "capacity": "12", "covered": "no"}}, {"name": "St Luke's Barn", "amenity": "community_centre", "data_type": "way", "lat": "52.2188470", "lon": "0.1136107", "other_tags": {"addr:city": "Cambridge", "addr:postcode": "CB4 3JZ", "amenity": "community_centre", "building": "yes", "name": "St Luke's Barn"}}, {"name": "Richard Newcombe Court", "amenity": "social_facility", "data_type": "way", "lat": "52.2185408", "lon": "0.1117380", "other_tags": {"addr:city": "Cambridge", "addr:postcode": "CB4 3EY", "addr:street": "Rackham Close", "amenity": "social_facility", "building": "yes", "fhrs:id": "705116", "name": "Richard Newcombe Court", "operator": "CHS Group", "social_facility": "group_home", "social_facility:for": "senior"}}]}, {"county": "Cambridgeshire", "code": "E00090547", "lad": "Cambridge", "rgn_main": "East of England", "population": 270, "amenities": [{"name": "Tandoori Palace", "amenity": "restaurant", "data_type": "node", "lat": "52.2166947", "lon": "0.1112727", "other_tags": {"addr:city": "Cambridge", "addr:housenumber": "68", "addr:postcode": "CB4 3LE", "addr:street": "Histon Road", "amenity": "restaurant", "cuisine": "indian", "fhrs:id": "1473316", "name": "Tandoori Palace", "website": "https://www.facebook.com/pages/Tandoori-Palace/152558631433380"}}, {"name": "N/A", "amenity": "post_box", "data_type": "node", "lat": "52.2164790", "lon": "0.1111073", "other_tags": {"amenity": "post_box", "collection_times": "Mo-Fr 09:00; Sa 07:00", "operator": "Royal Mail", "post_box:type": "pillar", "ref": "CB4 151D", "royal_cypher": "EIIR"}}, {"name": "NoteMachine", "amenity": "atm", "data_type": "node", "lat": "52.2149953", "lon": "0.1110466", "other_tags": {"amenity": "atm", "brand": "NoteMachine", "brand:wikidata": "Q104368525", "fee": "yes", "location": "outdoor", "name": "NoteMachine", "operator": "NoteMachine", "operator:wikidata": "Q104368525", "short_name": "NMATM"}}, {"name": "N/A", "amenity": "social_facility", "data_type": "way", "lat": "52.2154528", "lon": "0.1115999", "other_tags": {"addr:city": "Cambridge", "addr:housename": "The Springs, 224", "addr:postcode": "CB4 3LG", "addr:street": "Victoria Road", "amenity": "social_facility", "building": "yes", "operator": "Riverside ECHG", "social_facility": "shelter", "social_facility:for": "homeless", "source": "Bing;survey"}}, {"name": "Riverside", "amenity": "social_facility", "data_type": "way", "lat": "52.2151868", "lon": "0.1119198", "other_tags": {"addr:city": "Cambridge", "addr:housenumber": "222", "addr:postcode": "CB4 3LG", "addr:street": "Victoria Road", "amenity": "social_facility", "building": "yes", "name": "Riverside", "operator": "Riverside ECHG", "social_facility": "shelter", "social_facility:for": "homeless", "source": "Bing;survey"}}, {"name": "N/A", "amenity": "social_facility", "data_type": "way", "lat": "52.2155469", "lon": "0.1117057", "other_tags": {"addr:city": "Cambridge", "addr:housename": "Cherry House", "addr:postcode": "CB4 3LG", "addr:street": "Victoria Road", "amenity": "social_facility", "building": "yes", "operator": "Riverside ECHG", "social_facility": "shelter", "social_facility:for": "homeless", "source": "Bing;survey"}}, {"name": "N/A", "amenity": "social_facility", "data_type": "way", "lat": "52.2151868", "lon": "0.1119198", "other_tags": {"addr:city": "Cambridge", "addr:housename": "Briggs House", "addr:postcode": "CB4 3LG", "addr:street": "Victoria Road", "amenity": "social_facility", "building": "yes", "operator": "Riverside ECHG", "social_facility": "shelter", "social_facility:for": "homeless", "source": "Bing;survey"}}]}, {"county": "Cambridgeshire", "code": "E00090548", "lad": "Cambridge", "rgn_main": "East of England", "population": 253, "amenities": [{"name": "St Hilda Free Library", "amenity": "public_bookcase", "data_type": "node", "lat": "52.2149136", "lon": "0.1176872", "other_tags": {"amenity": "public_bookcase", "name": "St Hilda Free Library"}}, {"name": "Golden Dragon", "amenity": "fast_food", "data_type": "way", "lat": "52.2154790", "lon": "0.1143376", "other_tags": {"addr:city": "Cambridge", "addr:housenumber": "175", "addr:postcode": "CB4 3BU", "addr:street": "Victoria Road", "amenity": "fast_food", "building": "commercial", "cuisine": "chinese;thai", "fhrs:id": "1473235", "name": "Golden Dragon", "phone": "+44 1223 312204", "wheelchair": "yes"}}]}, {"county": "Cambridgeshire", "code": "E00090549", "lad": "Cambridge", "rgn_main": "East of England", "population": 305, "amenities": []}, {"county": "Cambridgeshire", "code": "E00090550", "lad": "Cambridge", "rgn_main": "East of England", "population": 195, "amenities": [{"name": "N/A", "amenity": "bicycle_parking", "data_type": "node", "lat": "52.2113232", "lon": "0.1154366", "other_tags": {"access": "private", "amenity": "bicycle_parking", "bicycle_parking": "stands", "capacity": "80", "covered": "yes", "operator": "Clare College (University of Cambridge)"}}, {"name": "N/A", "amenity": "bicycle_parking", "data_type": "node", "lat": "52.2115774", "lon": "0.1148328", "other_tags": {"access": "private", "amenity": "bicycle_parking", "bicycle_parking": "mixed", "capacity": "11", "covered": "yes", "operator": "Clare College (University of Cambridge)"}}, {"name": "N/A", "amenity": "bicycle_parking", "data_type": "node", "lat": "52.2115916", "lon": "0.1144892", "other_tags": {"access": "private", "amenity": "bicycle_parking", "bicycle_parking": "stands", "capacity": "12", "covered": "yes", "operator": "Clare College (University of Cambridge)"}}, {"name": "N/A", "amenity": "bench", "data_type": "node", "lat": "52.2116714", "lon": "0.1147485", "other_tags": {"amenity": "bench"}}, {"name": "N/A", "amenity": "bench", "data_type": "node", "lat": "52.2116809", "lon": "0.1147698", "other_tags": {"amenity": "bench"}}, {"name": "N/A", "amenity": "bench", "data_type": "node", "lat": "52.2116809", "lon": "0.1147910", "other_tags": {"amenity": "bench"}}, {"name": "N/A", "amenity": "bench", "data_type": "node", "lat": "52.2116862", "lon": "0.1148269", "other_tags": {"amenity": "bench"}}, {"name": "N/A", "amenity": "bench", "data_type": "node", "lat": "52.2116927", "lon": "0.1147998", "other_tags": {"amenity": "bench"}}, {"name": "N/A", "amenity": "bench", "data_type": "node", "lat": "52.2116933", "lon": "0.1147668", "other_tags": {"amenity": "bench"}}, {"name": "N/A", "amenity": "bicycle_parking", "data_type": "node", "lat": "52.2117124", "lon": "0.1146416", "other_tags": {"access": "private", "amenity": "bicycle_parking", "bicycle_parking": "stands", "capacity": "30", "covered": "yes", "operator": "Clare College (University of Cambridge)"}}, {"name": "N/A", "amenity": "bicycle_parking", "data_type": "node", "lat": "52.2117630", "lon": "0.1151119", "other_tags": {"access": "private", "amenity": "bicycle_parking", "bicycle_parking": "stands", "capacity": "30", "covered": "yes", "operator": "Clare College (University of Cambridge)"}}, {"name": "N/A", "amenity": "bicycle_parking", "data_type": "node", "lat": "52.2119037", "lon": "0.1161009", "other_tags": {"access": "private", "amenity": "bicycle_parking", "bicycle_parking": "stands", "capacity": "16", "covered": "yes", "operator": "Clare College (University of Cambridge)"}}, {"name": "N/A", "amenity": "bicycle_parking", "data_type": "node", "lat": "52.2119816", "lon": "0.1158217", "other_tags": {"access": "private", "amenity": "bicycle_parking", "bicycle_parking": "stands", "capacity": "36", "covered": "yes", "operator": "Clare College (University of Cambridge)"}}, {"name": "N/A", "amenity": "bicycle_parking", "data_type": "node", "lat": "52.2119866", "lon": "0.1160222", "other_tags": {"access": "private", "amenity": "bicycle_parking", "bicycle_parking": "stands", "capacity": "4", "operator": "Clare College (University of Cambridge)"}}, {"name": "N/A", "amenity": "telephone", "data_type": "node", "lat": "52.2119967", "lon": "0.1160003", "other_tags": {"amenity": "telephone"}}, {"name": "N/A", "amenity": "wheelchair_lift", "data_type": "node", "lat": "52.2120667", "lon": "0.1158311", "other_tags": {"amenity": "wheelchair_lift"}}, {"name": "N/A", "amenity": "bicycle_parking", "data_type": "node", "lat": "52.2111113", "lon": "0.1149565", "other_tags": {"access": "yes", "amenity": "bicycle_parking", "bicycle_parking": "stands", "capacity": "6", "covered": "no", "fee": "no"}}, {"name": "Saint Giles", "amenity": "place_of_worship", "data_type": "way", "lat": "52.2110837", "lon": "0.1148226", "other_tags": {"addr:city": "Cambridge", "addr:postcode": "CB3 0AQ", "addr:street": "Castle Street", "amenity": "place_of_worship", "building": "church", "denomination": "anglican", "name": "Saint Giles", "religion": "christian", "wikidata": "Q17543334"}}, {"name": "N/A", "amenity": "bicycle_parking", "data_type": "way", "lat": "52.2121587", "lon": "0.1171691", "other_tags": {"access": "private", "amenity": "bicycle_parking", "bicycle_parking": "stands", "building": "yes", "capacity": "12", "covered": "yes", "operator": "Magdalene College (University of Cambridge)"}}, {"name": "N/A", "amenity": "bicycle_parking", "data_type": "way", "lat": "52.2118993", "lon": "0.1166424", "other_tags": {"access": "private", "amenity": "bicycle_parking", "bicycle_parking": "stands", "building": "yes", "capacity": "12", "covered": "yes", "operator": "Magdalene College (University of Cambridge)"}}, {"name": "Cripps Court (Magdalene College)", "amenity": "university", "data_type": "way", "lat": "52.2122346", "lon": "0.1158959", "other_tags": {"amenity": "university", "name": "Cripps Court (Magdalene College)", "operator": "Magdalene College (University of Cambridge)", "ref": "MAGD/CRIPPS"}}]}, {"county": "Cambridgeshire", "code": "E00090551", "lad": "Cambridge", "rgn_main": "East of England", "population": 418, "amenities": [{"name": "N/A", "amenity": "post_box", "data_type": "node", "lat": "52.2284184", "lon": "0.1208818", "other_tags": {"amenity": "post_box", "collection_times": "Mo-Fr 09:00; Sa 07:00", "operator": "Royal Mail", "post_box:type": "lamp", "postal_code": "CB4 2", "ref": "CB4 179D", "royal_cypher": "EIIR", "source": "survey"}}, {"name": "N/A", "amenity": "parking", "data_type": "node", "lat": "52.2283234", "lon": "0.1197137", "other_tags": {"amenity": "parking"}}, {"name": "N/A", "amenity": "parking", "data_type": "node", "lat": "52.2282216", "lon": "0.1194508", "other_tags": {"amenity": "parking"}}, {"name": "N/A", "amenity": "parking", "data_type": "node", "lat": "52.2276996", "lon": "0.1197218", "other_tags": {"amenity": "parking"}}]}, {"county": "Cambridgeshire", "code": "E00090552", "lad": "Cambridge", "rgn_main": "East of England", "population": 312, "amenities": [{"name": "N/A", "amenity": "parking", "data_type": "way", "lat": "52.2283204", "lon": "0.1143602", "other_tags": {"amenity": "parking", "parking": "surface"}}, {"name": "N/A", "amenity": "parking", "data_type": "way", "lat": "52.2277653", "lon": "0.1166673", "other_tags": {"amenity": "parking", "parking": "surface"}}]}, {"county": "Cambridgeshire", "code": "E00090553", "lad": "Cambridge", "rgn_main": "East of England", "population": 275, "amenities": [{"name": "Inclusion Drug and Alcohol Rehabilitation Centre", "amenity": "clinic", "data_type": "node", "lat": "52.2258188", "lon": "0.1255003", "other_tags": {"addr:city": "Cambridge", "addr:housenumber": "1A", "addr:postcode": "CB4 2JS", "addr:street": "Fortescue Road", "amenity": "clinic", "name": "Inclusion Drug and Alcohol Rehabilitation Centre", "phone": "+44 300 555 0101", "website": "https://www.inclusion.org/services/inclusion-cambridgeshire-cambridge/"}}, {"name": "The Annex - Over 65's Day Centre", "amenity": "community_centre", "data_type": "node", "lat": "52.2255492", "lon": "0.1258335", "other_tags": {"addr:city": "Cambridge", "addr:postcode": "CB4 2JS", "addr:street": "Mansel Way", "amenity": "community_centre", "name": "The Annex - Over 65's Day Centre"}}, {"name": "Cavendish House Dental Care", "amenity": "dentist", "data_type": "node", "lat": "52.2261092", "lon": "0.1268251", "other_tags": {"addr:city": "Cambridge", "addr:housenumber": "183", "addr:street": "Arbury Road", "amenity": "dentist", "name": "Cavendish House Dental Care"}}, {"name": "N/A", "amenity": "bench", "data_type": "node", "lat": "52.2256731", "lon": "0.1261365", "other_tags": {"amenity": "bench", "backrest": "yes", "material": "wood"}}, {"name": "Alex Wood House", "amenity": "social_facility", "data_type": "relation", "lat": "52.2255264", "lon": "0.1252490", "other_tags": {"addr:city": "Cambridge", "addr:housenumber": "3a", "addr:postcode": "CB4 2JS", "addr:street": "Fortescue Road", "amenity": "social_facility", "building": "yes", "name": "Alex Wood House", "operator": "CHS Group", "social_facility": "group_home", "social_facility:for": "senior", "source": "survey, Bing", "type": "multipolygon"}}, {"name": "Alex Wood House", "amenity": "social_facility", "data_type": "way", "lat": "52.2253246", "lon": "0.1252497", "other_tags": {"addr:city": "Cambridge", "addr:housenumber": "3A", "addr:postcode": "CB4 2JS", "addr:street": "Fortescue Road", "amenity": "social_facility", "fhrs:id": "506111", "name": "Alex Wood House", "operator": "CHS Group", "social_facility": "group_home", "social_facility:for": "senior;dementia"}}]}, {"county": "Cambridgeshire", "code": "E00090554", "lad": "Cambridge", "rgn_main": "East of England", "population": 303, "amenities": [{"name": "N/A", "amenity": "post_box", "data_type": "node", "lat": "52.2252898", "lon": "0.1217213", "other_tags": {"amenity": "post_box", "collection_times": "Mo-Fr 09:00; Sa 07:00", "operator": "Royal Mail", "post_box:type": "pillar", "postal_code": "CB4 2", "ref": "CB4 178D", "royal_cypher": "EIIR", "source": "survey"}}, {"name": "N/A", "amenity": "bench", "data_type": "node", "lat": "52.2252859", "lon": "0.1239418", "other_tags": {"amenity": "bench", "backrest": "yes", "material": "wood"}}, {"name": "N/A", "amenity": "bench", "data_type": "node", "lat": "52.2252846", "lon": "0.1235912", "other_tags": {"amenity": "bench", "backrest": "yes", "material": "wood"}}]}, {"county": "Cambridgeshire", "code": "E00090555", "lad": "Cambridge", "rgn_main": "East of England", "population": 299, "amenities": [{"name": "N/A", "amenity": "public_bookcase", "data_type": "node", "lat": "52.2258411", "lon": "0.1176498", "other_tags": {"amenity": "public_bookcase", "brand": "Little Free Library", "public_bookcase:type": "reading_box", "ref": "117747"}}]}, {"county": "Cambridgeshire", "code": "E00090556", "lad": "Cambridge", "rgn_main": "East of England", "population": 366, "amenities": []}, {"county": "Cambridgeshire", "code": "E00090557", "lad": "Cambridge", "rgn_main": "East of England", "population": 251, "amenities": [{"name": "N/A", "amenity": "post_box", "data_type": "node", "lat": "52.2246082", "lon": "0.1165877", "other_tags": {"amenity": "post_box", "collection_times": "Mo-Fr 09:00; Sa 07:00", "operator": "Royal Mail", "post_box:type": "pillar", "ref": "CB4 148D", "royal_cypher": "EIIR"}}, {"name": "N/A", "amenity": "bicycle_parking", "data_type": "node", "lat": "52.2257542", "lon": "0.1166825", "other_tags": {"access": "destination", "amenity": "bicycle_parking", "bicycle_parking": "stands", "capacity": "10", "covered": "yes"}}, {"name": "N/A", "amenity": "bench", "data_type": "node", "lat": "52.2246766", "lon": "0.1164332", "other_tags": {"amenity": "bench", "backrest": "yes", "material": "wood"}}, {"name": "N/A", "amenity": "public_bookcase", "data_type": "node", "lat": "52.2266677", "lon": "0.1132237", "other_tags": {"amenity": "public_bookcase", "brand": "Little Free Library", "public_bookcase:type": "reading_box", "ref": "114313"}}, {"name": "N/A", "amenity": "bench", "data_type": "node", "lat": "52.2248543", "lon": "0.1165103", "other_tags": {"amenity": "bench", "backrest": "yes", "material": "wood"}}, {"name": "N/A", "amenity": "parking", "data_type": "way", "lat": "52.2242124", "lon": "0.1175254", "other_tags": {"amenity": "parking"}}, {"name": "Roseford Chapel", "amenity": "place_of_worship", "data_type": "way", "lat": "52.2257628", "lon": "0.1164811", "other_tags": {"addr:city": "Cambridge", "addr:postcode": "CB4 2HD", "addr:street": "Roseford Road", "amenity": "place_of_worship", "building": "chapel", "denomination": "independent", "name": "Roseford Chapel", "religion": "christian", "source": "survey;Bing"}}]}, {"county": "Cambridgeshire", "code": "E00090558", "lad": "Cambridge", "rgn_main": "East of England", "population": 183, "amenities": [{"name": "N/A", "amenity": "parking", "data_type": "node", "lat": "52.2252226", "lon": "0.1210638", "other_tags": {"amenity": "parking", "created_by": "JOSM"}}, {"name": "N/A", "amenity": "bicycle_parking", "data_type": "node", "lat": "52.2253796", "lon": "0.1213836", "other_tags": {"amenity": "bicycle_parking", "capacity": "6"}}, {"name": "Kingsway Kebab", "amenity": "fast_food", "data_type": "node", "lat": "52.2250647", "lon": "0.1213270", "other_tags": {"addr:city": "Cambridge", "addr:postcode": "CB4 2DG", "addr:street": "Carlton Way", "amenity": "fast_food", "cuisine": "kebab", "name": "Kingsway Kebab", "note": "Permanent kebab van"}}, {"name": "N/A", "amenity": "parking", "data_type": "way", "lat": "52.2253462", "lon": "0.1211521", "other_tags": {"amenity": "parking"}}]}, {"county": "Cambridgeshire", "code": "E00090559", "lad": "Cambridge", "rgn_main": "East of England", "population": 340, "amenities": []}, {"county": "Cambridgeshire", "code": "E00090560", "lad": "Cambridge", "rgn_main": "East of England", "population": 261, "amenities": [{"name": "N/A", "amenity": "parking", "data_type": "node", "lat": "52.2239035", "lon": "0.1130101", "other_tags": {"amenity": "parking"}}, {"name": "N/A", "amenity": "parking", "data_type": "node", "lat": "52.2229213", "lon": "0.1125629", "other_tags": {"amenity": "parking"}}, {"name": "N/A", "amenity": "parking", "data_type": "node", "lat": "52.2231843", "lon": "0.1128165", "other_tags": {"amenity": "parking"}}]}, {"county": "Cambridgeshire", "code": "E00090561", "lad": "Cambridge", "rgn_main": "East of England", "population": 312, "amenities": [{"name": "N/A", "amenity": "atm", "data_type": "node", "lat": "52.2223847", "lon": "0.1193229", "other_tags": {"amenity": "atm", "operator": "Tesco Bank", "source": "survey", "wheelchair": "yes"}}, {"name": "N/A", "amenity": "bicycle_parking", "data_type": "node", "lat": "52.2222293", "lon": "0.1192796", "other_tags": {"amenity": "bicycle_parking", "bicycle_parking": "stands", "capacity": "8", "covered": "no"}}, {"name": "N/A", "amenity": "recycling", "data_type": "node", "lat": "52.2222418", "lon": "0.1192410", "other_tags": {"amenity": "recycling", "recycling:clothes": "yes", "recycling_type": "container"}}, {"name": "N/A", "amenity": "parking", "data_type": "way", "lat": "52.2230554", "lon": "0.1145850", "other_tags": {"amenity": "parking"}}, {"name": "N/A", "amenity": "parking", "data_type": "way", "lat": "52.2221268", "lon": "0.1192307", "other_tags": {"amenity": "parking", "source": "Bing"}}]}, {"county": "Cambridgeshire", "code": "E00090562", "lad": "Cambridge", "rgn_main": "East of England", "population": 315, "amenities": [{"name": "Golden Wok", "amenity": "fast_food", "data_type": "node", "lat": "52.2206398", "lon": "0.1115780", "other_tags": {"addr:city": "Cambridge", "addr:country": "GB", "addr:housenumber": "191", "addr:postcode": "CB4 3HL", "addr:street": "Histon Road", "amenity": "fast_food", "contact:phone": "+44 1223 350688", "contact:website": "http://www.goldenwokchinesetakeaway.co.uk", "cuisine": "chinese", "delivery": "Su-Th, PH 17:00-21:00;Fr-Sa 17:00-21:30;Tu off", "fhrs:id": "506205", "name": "Golden Wok", "opening_hours": "Mo-Sa 12:00-14:00,16:30-22:30; Su,PH 16:30-22:30; Tu off", "source": "Golden Wok menu", "source:date": "2016-02", "takeaway": "only"}}, {"name": "Rowlands Pharmacy", "amenity": "pharmacy", "data_type": "node", "lat": "52.2205850", "lon": "0.1115635", "other_tags": {"addr:city": "Cambridge", "addr:housenumber": "189", "addr:postcode": "CB4 3HL", "addr:street": "Histon Road", "amenity": "pharmacy", "brand": "Rowlands Pharmacy", "brand:wikidata": "Q62663235", "fhrs:id": "506203", "healthcare": "pharmacy", "name": "Rowlands Pharmacy", "wheelchair": "yes"}}, {"name": "Esso", "amenity": "fuel", "data_type": "node", "lat": "52.2194155", "lon": "0.1113207", "other_tags": {"addr:housenumber": "159", "addr:postcode": "CB4 3JD", "addr:street": "Histon Road", "amenity": "fuel", "brand": "Esso", "brand:wikidata": "Q867662", "brand:wikipedia": "en:Esso", "name": "Esso", "wheelchair": "limited"}}, {"name": "The Grapes", "amenity": "pub", "data_type": "node", "lat": "52.2150221", "lon": "0.1107362", "other_tags": {"addr:city": "Cambridge", "addr:housenumber": "19", "addr:postcode": "CB4 3JB", "addr:street": "Histon Road", "amenity": "pub", "fhrs:id": "1473248", "name": "The Grapes", "source:name": "local knowledge"}}, {"name": "McColl's", "amenity": "post_office", "data_type": "node", "lat": "52.2205302", "lon": "0.1115450", "other_tags": {"addr:city": "Cambridge", "addr:housenumber": "187", "addr:postcode": "CB4 3HL", "addr:street": "Histon Road", "amenity": "post_office", "brand": "McColl's", "brand:wikidata": "Q16997477", "brand:wikipedia": "en:McColl's", "contact:website": "https://www.mccolls.co.uk/storelocator/cambridge-histon-road/", "fhrs:id": "506888", "name": "McColl's", "ref:pol_id": "1489", "shop": "convenience"}}, {"name": "N/A", "amenity": "post_box", "data_type": "node", "lat": "52.2201679", "lon": "0.1116563", "other_tags": {"amenity": "post_box", "collection_times": "Mo-Fr 17:15; Sa 12:00", "note": "ref and collection_times same for both boxes\n(later) ref not currently visible", "operator": "Royal Mail", "post_box:apertures": "2", "post_box:design": "type_c", "post_box:type": "pillar", "ref": "CB4 145", "royal_cypher": "EIIR", "source:collection_times": "survey"}}, {"name": "Domino's", "amenity": "fast_food", "data_type": "node", "lat": "52.2173466", "lon": "0.1109119", "other_tags": {"addr:city": "Cambridge", "addr:country": "GB", "addr:housenumber": "113", "addr:postcode": "CB4 3JD", "addr:street": "Histon Road", "amenity": "fast_food", "brand": "Domino's", "brand:wikidata": "Q839466", "brand:wikipedia": "en:Domino's Pizza", "contact:phone": "+44 1223 359333", "contact:website": "https://www.dominos.co.uk/pizza-near-me/cambridge/113-histon-road", "cuisine": "pizza", "fhrs:id": "506561", "name": "Domino's", "wheelchair": "yes"}}, {"name": "Cardtronics", "amenity": "atm", "data_type": "node", "lat": "52.2202077", "lon": "0.1115180", "other_tags": {"amenity": "atm", "brand": "Cardtronics", "brand:wikidata": "Q50239180", "fee": "no", "name": "Cardtronics", "operator": "Cardtronics", "wheelchair": "yes"}}, {"name": "N/A", "amenity": "bicycle_parking", "data_type": "node", "lat": "52.2196800", "lon": "0.1115214", "other_tags": {"amenity": "bicycle_parking", "bicycle_parking": "stands", "capacity": "20", "covered": "no", "source": "local_knowledge"}}, {"name": "N/A", "amenity": "telephone", "data_type": "node", "lat": "52.2201512", "lon": "0.1116112", "other_tags": {"amenity": "telephone", "booth": "ST6", "covered": "yes", "note": "Handset broken 2021-06", "operator": "BT", "phone": "+44 1223 464246"}}, {"name": "N/A", "amenity": "bicycle_parking", "data_type": "node", "lat": "52.2201654", "lon": "0.1114136", "other_tags": {"amenity": "bicycle_parking", "bicycle_parking": "stands", "capacity": "22", "covered": "no"}}, {"name": "N/A", "amenity": "bicycle_parking", "data_type": "node", "lat": "52.2205917", "lon": "0.1117755", "other_tags": {"amenity": "bicycle_parking", "bicycle_parking": "stands", "capacity": "6", "covered": "no"}}, {"name": "N/A", "amenity": "telephone", "data_type": "node", "lat": "52.2147169", "lon": "0.1114486", "other_tags": {"amenity": "telephone", "booth": "ST6", "check_date": "2022-02-17", "operator": "BT", "operator:wikidata": "Q593786", "payment:coins": "yes", "phone": "+44 1223 359437", "source": "survey", "source:geometry": "GPS"}}, {"name": "N/A", "amenity": "recycling", "data_type": "node", "lat": "52.2167560", "lon": "0.1112701", "other_tags": {"amenity": "recycling", "operator": "The Salvation Army", "recycling:clothes": "yes", "recycling:shoes": "yes", "recycling_type": "container", "source": "survey"}}, {"name": "N/A", "amenity": "atm", "data_type": "node", "lat": "52.2205489", "lon": "0.1116130", "other_tags": {"amenity": "atm"}}, {"name": "N/A", "amenity": "bicycle_parking", "data_type": "node", "lat": "52.2194242", "lon": "0.1109365", "other_tags": {"access": "destination", "amenity": "bicycle_parking", "bicycle_parking": "stands", "capacity": "34"}}, {"name": "N/A", "amenity": "bicycle_parking", "data_type": "node", "lat": "52.2191439", "lon": "0.1106209", "other_tags": {"access": "destination", "amenity": "bicycle_parking", "bicycle_parking": "stands", "capacity": "18", "covered": "no"}}, {"name": "N/A", "amenity": "atm", "data_type": "node", "lat": "52.2195232", "lon": "0.1112602", "other_tags": {"amenity": "atm"}}, {"name": "N/A", "amenity": "recycling", "data_type": "node", "lat": "52.2196055", "lon": "0.1113625", "other_tags": {"amenity": "recycling", "operator": "People Unite", "recycling:clothes": "yes", "recycling:handbags": "yes", "recycling:sheets": "yes", "recycling:shoes": "yes", "recycling:towels": "yes", "recycling_type": "container"}}, {"name": "N/A", "amenity": "parking", "data_type": "way", "lat": "52.2193819", "lon": "0.1101556", "other_tags": {"amenity": "parking"}}, {"name": "N/A", "amenity": "parking", "data_type": "way", "lat": "52.2193189", "lon": "0.1108571", "other_tags": {"amenity": "parking"}}, {"name": "N/A", "amenity": "parking", "data_type": "way", "lat": "52.2192282", "lon": "0.1097762", "other_tags": {"amenity": "parking"}}, {"name": "N/A", "amenity": "parking", "data_type": "way", "lat": "52.2183583", "lon": "0.1099195", "other_tags": {"amenity": "parking"}}, {"name": "N/A", "amenity": "parking", "data_type": "way", "lat": "52.2183829", "lon": "0.1111131", "other_tags": {"amenity": "parking", "parking": "surface"}}, {"name": "N/A", "amenity": "parking", "data_type": "way", "lat": "52.2177890", "lon": "0.1106497", "other_tags": {"amenity": "parking"}}, {"name": "N/A", "amenity": "parking", "data_type": "way", "lat": "52.2185538", "lon": "0.1103353", "other_tags": {"amenity": "parking"}}, {"name": "N/A", "amenity": "parking", "data_type": "way", "lat": "52.2186787", "lon": "0.1088654", "other_tags": {"amenity": "parking"}}, {"name": "N/A", "amenity": "parking", "data_type": "way", "lat": "52.2206817", "lon": "0.1116668", "other_tags": {"access": "destination", "amenity": "parking", "fee": "no", "parking": "surface"}}, {"name": "N/A", "amenity": "bicycle_parking", "data_type": "way", "lat": "52.2193250", "lon": "0.1090557", "other_tags": {"access": "private", "amenity": "bicycle_parking", "bicycle_parking": "shed", "building": "yes"}}]}, {"county": "Cambridgeshire", "code": "E00090563", "lad": "Cambridge", "rgn_main": "East of England", "population": 195, "amenities": []}, {"county": "Cambridgeshire", "code": "E00090564", "lad": "Cambridge", "rgn_main": "East of England", "population": 258, "amenities": [{"name": "Carpenters Arms", "amenity": "pub", "data_type": "node", "lat": "52.2157657", "lon": "0.1141884", "other_tags": {"addr:city": "Cambridge", "addr:housenumber": "182-186", "addr:postcode": "CB4 3DZ", "addr:street": "Victoria Road", "amenity": "pub", "fhrs:id": "1472589;1473081", "name": "Carpenters Arms", "opening_hours": "Mo-Sa 12:00-23:00; Su 12:00-21:00", "source:addr:housenumber": "FHRS Open Data"}}, {"name": "N/A", "amenity": "bicycle_parking", "data_type": "node", "lat": "52.2159466", "lon": "0.1157319", "other_tags": {"amenity": "bicycle_parking", "bicycle_parking": "stands", "capacity": "4", "covered": "no", "source": "survey"}}, {"name": "N/A", "amenity": "bicycle_parking", "data_type": "node", "lat": "52.2157242", "lon": "0.1155029", "other_tags": {"amenity": "bicycle_parking", "bicycle_parking": "stands", "capacity": "4", "covered": "no"}}, {"name": "N/A", "amenity": "bicycle_parking", "data_type": "node", "lat": "52.2158067", "lon": "0.1156705", "other_tags": {"amenity": "bicycle_parking", "bicycle_parking": "stands", "capacity": "4", "covered": "no"}}, {"name": "N/A", "amenity": "bicycle_parking", "data_type": "node", "lat": "52.2159314", "lon": "0.1164434", "other_tags": {"access": "destination", "amenity": "bicycle_parking", "bicycle_parking": "stands", "capacity": "14", "covered": "no"}}, {"name": "Little Free Library", "amenity": "public_bookcase", "data_type": "node", "lat": "52.2162060", "lon": "0.1162398", "other_tags": {"amenity": "public_bookcase", "brand": "Little Free Library", "brand:wikidata": "Q6650101", "brand:wikipedia": "en:Little Free Library", "name": "Little Free Library", "public_bookcase:type": "reading_box"}}, {"name": "N/A", "amenity": "bench", "data_type": "node", "lat": "52.2157501", "lon": "0.1159849", "other_tags": {"amenity": "bench", "backrest": "yes"}}, {"name": "N/A", "amenity": "bicycle_parking", "data_type": "node", "lat": "52.2157775", "lon": "0.1159306", "other_tags": {"access": "destination", "amenity": "bicycle_parking", "bicycle_parking": "stands", "capacity": "20", "covered": "no"}}, {"name": "St Luke", "amenity": "place_of_worship", "data_type": "way", "lat": "52.2158924", "lon": "0.1161774", "other_tags": {"addr:city": "Cambridge", "addr:postcode": "CB4 3DZ", "addr:street": "Victoria Road", "amenity": "place_of_worship", "building": "church", "denomination": "united_reformed;anglican", "name": "St Luke", "religion": "christian", "wikidata": "Q84160883"}}, {"name": "N/A", "amenity": "parking", "data_type": "way", "lat": "52.2160139", "lon": "0.1171781", "other_tags": {"amenity": "parking", "parking": "surface"}}, {"name": "N/A", "amenity": "grave_yard", "data_type": "way", "lat": "52.2157593", "lon": "0.1161128", "other_tags": {"amenity": "grave_yard"}}]}, {"county": "Cambridgeshire", "code": "E00090565", "lad": "Cambridge", "rgn_main": "East of England", "population": 220, "amenities": [{"name": "St Luke's CofE Primary School", "amenity": "school", "data_type": "way", "lat": "52.2184834", "lon": "0.1149446", "other_tags": {"addr:city": "Cambridge", "addr:postcode": "CB4 3JZ", "addr:street": "French's Road", "amenity": "school", "name": "St Luke's CofE Primary School", "ref:edubase": "146965", "wikidata": "Q67151314"}}]}, {"county": "Cambridgeshire", "code": "E00090566", "lad": "Cambridge", "rgn_main": "East of England", "population": 301, "amenities": [{"name": "Meghna", "amenity": "restaurant", "data_type": "way", "lat": "52.2153685", "lon": "0.1129950", "other_tags": {"addr:city": "Cambridge", "addr:housenumber": "205", "addr:postcode": "CB4 3LF", "addr:street": "Victoria Road", "amenity": "restaurant", "building": "commercial", "building:levels": "2", "cuisine": "indian", "fhrs:id": "1473054", "name": "Meghna", "opening_hours": "Mo-Su 16:30-22:30", "phone": "+44 1223 727410", "roof:levels": "0"}}, {"name": "N/A", "amenity": "parking", "data_type": "way", "lat": "52.2141090", "lon": "0.1141119", "other_tags": {"access": "private", "amenity": "parking", "parking": "surface"}}]}, {"county": "Cambridgeshire", "code": "E00090567", "lad": "Cambridge", "rgn_main": "East of England", "population": 242, "amenities": [{"name": "N/A", "amenity": "waste_basket", "data_type": "node", "lat": "52.2140309", "lon": "0.1188744", "other_tags": {"amenity": "waste_basket", "check_date": "2021-09-20"}}, {"name": "N/A", "amenity": "bench", "data_type": "node", "lat": "52.2140358", "lon": "0.1188601", "other_tags": {"amenity": "bench", "backrest": "yes", "check_date": "2021-09-20", "material": "wood", "seats": "4"}}, {"name": "N/A", "amenity": "bicycle_parking", "data_type": "node", "lat": "52.2131728", "lon": "0.1196234", "other_tags": {"access": "customers", "amenity": "bicycle_parking", "bicycle_parking": "stands", "capacity": "4", "covered": "no", "cyclestreets_id": "112215"}}, {"name": "N/A", "amenity": "parking", "data_type": "way", "lat": "52.2132353", "lon": "0.1190325", "other_tags": {"access": "destination", "amenity": "parking"}}]}, {"county": "Cambridgeshire", "code": "E00090568", "lad": "Cambridge", "rgn_main": "East of England", "population": 329, "amenities": [{"name": "N/A", "amenity": "parking", "data_type": "node", "lat": "52.2274815", "lon": "0.1191102", "other_tags": {"amenity": "parking"}}, {"name": "N/A", "amenity": "waste_basket", "data_type": "node", "lat": "52.2293415", "lon": "0.1193247", "other_tags": {"amenity": "waste_basket", "material": "wood", "ref": "624", "waste": "mixed"}}, {"name": "N/A", "amenity": "waste_basket", "data_type": "node", "lat": "52.2296802", "lon": "0.1184462", "other_tags": {"amenity": "waste_basket", "material": "wood", "ref": "623"}}, {"name": "N/A", "amenity": "bench", "data_type": "node", "lat": "52.2296696", "lon": "0.1184610", "other_tags": {"amenity": "bench"}}, {"name": "N/A", "amenity": "waste_basket", "data_type": "node", "lat": "52.2293497", "lon": "0.1193426", "other_tags": {"amenity": "waste_basket", "waste": "dog_excrement"}}, {"name": "N/A", "amenity": "waste_basket", "data_type": "node", "lat": "52.2289123", "lon": "0.1185975", "other_tags": {"amenity": "waste_basket", "waste": "dog_excrement"}}, {"name": "N/A", "amenity": "waste_basket", "data_type": "node", "lat": "52.2300973", "lon": "0.1204175", "other_tags": {"amenity": "waste_basket", "waste": "dog_excrement"}}, {"name": "N/A", "amenity": "recycling", "data_type": "node", "lat": "52.2300705", "lon": "0.1186312", "other_tags": {"amenity": "recycling", "recycling_type": "container"}}, {"name": "N/A", "amenity": "waste_basket", "data_type": "node", "lat": "52.2300681", "lon": "0.1186194", "other_tags": {"amenity": "waste_basket"}}, {"name": "N/A", "amenity": "parking", "data_type": "way", "lat": "52.2285126", "lon": "0.1157228", "other_tags": {"amenity": "parking", "parking": "surface"}}]}, {"county": "Cambridgeshire", "code": "E00090569", "lad": "Cambridge", "rgn_main": "East of England", "population": 323, "amenities": [{"name": "N/A", "amenity": "shelter", "data_type": "node", "lat": "52.2272994", "lon": "0.1058810", "other_tags": {"access": "no", "amenity": "shelter", "shelter_type": "public_transport"}}]}, {"county": "Cambridgeshire", "code": "E00090570", "lad": "Cambridge", "rgn_main": "East of England", "population": 250, "amenities": [{"name": "N/A", "amenity": "post_box", "data_type": "node", "lat": "52.2284675", "lon": "0.1134464", "other_tags": {"amenity": "post_box", "collection_times": "Mo-Fr 16:15; Sa 12:30", "operator": "Royal Mail", "post_box:design": "type_l", "post_box:type": "lamp", "ref": "CB4 188", "royal_cypher": "EIIR", "source": "survey"}}, {"name": "N/A", "amenity": "telephone", "data_type": "node", "lat": "52.2284707", "lon": "0.1121080", "other_tags": {"amenity": "telephone", "booth": "KXPlus", "covered": "booth"}}, {"name": "N/A", "amenity": "post_box", "data_type": "node", "lat": "52.2276790", "lon": "0.1119520", "other_tags": {"amenity": "post_box", "collection_times": "Mo-Fr 09:00; Sa 07:00", "operator": "Royal Mail", "post_box:type": "pillar", "ref": "CB4 147D", "royal_cypher": "EIIR", "source": "survey"}}, {"name": "N/A", "amenity": "bicycle_parking", "data_type": "node", "lat": "52.2284560", "lon": "0.1133472", "other_tags": {"amenity": "bicycle_parking", "bicycle_parking": "stands", "capacity": "4", "covered": "no"}}, {"name": "Hazelwood Close Post Office", "amenity": "post_office", "data_type": "node", "lat": "52.2284932", "lon": "0.1133897", "other_tags": {"addr:country": "GB", "addr:postcode": "CB4 3SN", "amenity": "post_office", "brand": "Post Office", "brand:wikidata": "Q1783168", "contact:website": "https://www.postoffice.co.uk/branch-finder/2841134/hazelwood-close", "name": "Hazelwood Close Post Office", "ref:pol_id": "148742"}}, {"name": "N/A", "amenity": "waste_basket", "data_type": "node", "lat": "52.2289836", "lon": "0.1135977", "other_tags": {"amenity": "waste_basket", "colour": "black", "operator": "Cambridge City Council"}}, {"name": "Cash point", "amenity": "atm", "data_type": "node", "lat": "52.2284913", "lon": "0.1133412", "other_tags": {"amenity": "atm", "name": "Cash point"}}, {"name": "N/A", "amenity": "parking", "data_type": "way", "lat": "52.2287269", "lon": "0.1130441", "other_tags": {"amenity": "parking", "parking": "surface"}}, {"name": "N/A", "amenity": "parking", "data_type": "way", "lat": "52.2286580", "lon": "0.1128332", "other_tags": {"amenity": "parking", "parking": "surface"}}]}, {"county": "Cambridgeshire", "code": "E00090571", "lad": "Cambridge", "rgn_main": "East of England", "population": 423, "amenities": [{"name": "N/A", "amenity": "parking", "data_type": "node", "lat": "52.2268106", "lon": "0.1213806", "other_tags": {"amenity": "parking"}}, {"name": "N/A", "amenity": "parking", "data_type": "node", "lat": "52.2269270", "lon": "0.1210936", "other_tags": {"amenity": "parking"}}, {"name": "N/A", "amenity": "parking", "data_type": "node", "lat": "52.2271249", "lon": "0.1207811", "other_tags": {"amenity": "parking"}}, {"name": "N/A", "amenity": "parking", "data_type": "node", "lat": "52.2267976", "lon": "0.1217107", "other_tags": {"amenity": "parking"}}]}, {"county": "Cambridgeshire", "code": "E00090574", "lad": "Cambridge", "rgn_main": "East of England", "population": 493, "amenities": [{"name": "N/A", "amenity": "post_box", "data_type": "node", "lat": "52.2124177", "lon": "0.1117980", "other_tags": {"amenity": "post_box", "collection_times": "Mo-Fr 09:00; Sa 07:00", "operator": "Royal Mail", "post_box:type": "lamp", "postal_code": "CB3 0", "ref": "CB3 140D", "royal_cypher": "EIIR", "source": "survey"}}, {"name": "N/A", "amenity": "bench", "data_type": "node", "lat": "52.2127696", "lon": "0.1100911", "other_tags": {"amenity": "bench"}}, {"name": "N/A", "amenity": "bench", "data_type": "node", "lat": "52.2130127", "lon": "0.1093025", "other_tags": {"amenity": "bench"}}, {"name": "N/A", "amenity": "bench", "data_type": "node", "lat": "52.2130453", "lon": "0.1093299", "other_tags": {"amenity": "bench"}}, {"name": "N/A", "amenity": "bicycle_parking", "data_type": "node", "lat": "52.2134443", "lon": "0.1084803", "other_tags": {"access": "private", "amenity": "bicycle_parking", "bicycle_parking": "stands", "capacity": "80", "covered": "yes", "operator": "St Edmund's College (University of Cambridge)"}}, {"name": "N/A", "amenity": "bicycle_parking", "data_type": "node", "lat": "52.2111898", "lon": "0.1106772", "other_tags": {"access": "private", "amenity": "bicycle_parking", "bicycle_parking": "stands", "capacity": "70", "covered": "yes", "operator": "Lucy Cavendish College (University of Cambridge)"}}, {"name": "N/A", "amenity": "bicycle_parking", "data_type": "node", "lat": "52.2118166", "lon": "0.1092639", "other_tags": {"access": "private", "amenity": "bicycle_parking", "bicycle_parking": "v", "capacity": "12", "operator": "Lucy Cavendish College (University of Cambridge)"}}, {"name": "N/A", "amenity": "bicycle_parking", "data_type": "node", "lat": "52.2139583", "lon": "0.1097535", "other_tags": {"access": "private", "amenity": "bicycle_parking", "covered": "yes", "operator": "Murray Edwards College (University of Cambridge)"}}, {"name": "N/A", "amenity": "bench", "data_type": "node", "lat": "52.2126010", "lon": "0.1114654", "other_tags": {"amenity": "bench", "backrest": "yes"}}, {"name": "N/A", "amenity": "bench", "data_type": "node", "lat": "52.2124974", "lon": "0.1112883", "other_tags": {"amenity": "bench", "backrest": "yes"}}, {"name": "N/A", "amenity": "bicycle_parking", "data_type": "node", "lat": "52.2136747", "lon": "0.1108811", "other_tags": {"access": "destination", "amenity": "bicycle_parking", "bicycle_parking": "stands", "capacity": "6", "covered": "no"}}, {"name": "N/A", "amenity": "bicycle_parking", "data_type": "node", "lat": "52.2142026", "lon": "0.1100017", "other_tags": {"access": "destination", "amenity": "bicycle_parking", "covered": "no"}}, {"name": "N/A", "amenity": "parking", "data_type": "way", "lat": "52.2105664", "lon": "0.1111569", "other_tags": {"access": "private", "amenity": "parking"}}, {"name": "Huntingdon Road Surgery", "amenity": "doctors", "data_type": "way", "lat": "52.2140812", "lon": "0.1098187", "other_tags": {"addr:city": "Cambridge", "addr:country": "GB", "addr:housename": "Huntingdon Road Surgery", "addr:housenumber": "1", "addr:postcode": "CB3 0DB", "addr:street": "Huntingdon Road Surgery", "amenity": "doctors", "building": "yes", "name": "Huntingdon Road Surgery", "source": "survey", "website": "http://www.huntingdonroadsurgery.co.uk/"}}, {"name": "N/A", "amenity": "parking", "data_type": "way", "lat": "52.2137817", "lon": "0.1100718", "other_tags": {"access": "private", "amenity": "parking"}}, {"name": "N/A", "amenity": "bicycle_parking", "data_type": "way", "lat": "52.2124806", "lon": "0.1095505", "other_tags": {"access": "private", "amenity": "bicycle_parking", "bicycle_parking": "stands", "building": "yes", "capacity": "18", "covered": "yes", "operator": "St Edmund's College (University of Cambridge)", "ref": "STEDMUNDS0XX"}}, {"name": "N/A", "amenity": "bicycle_parking", "data_type": "way", "lat": "52.2134841", "lon": "0.1086055", "other_tags": {"access": "private", "amenity": "bicycle_parking", "bicycle_parking": "stands", "building": "yes", "capacity": "44", "covered": "yes", "operator": "St Edmund's College (University of Cambridge)"}}, {"name": "N/A", "amenity": "bicycle_parking", "data_type": "way", "lat": "52.2134464", "lon": "0.1085719", "other_tags": {"amenity": "bicycle_parking", "building": "yes", "operator": "St Edmund's College (University of Cambridge)"}}, {"name": "N/A", "amenity": "bicycle_parking", "data_type": "way", "lat": "52.2127328", "lon": "0.1091325", "other_tags": {"access": "private", "amenity": "bicycle_parking", "bicycle_parking": "stands", "building": "yes", "capacity": "80", "covered": "yes", "operator": "St Edmund's College (University of Cambridge)"}}, {"name": "N/A", "amenity": "parking", "data_type": "way", "lat": "52.2127286", "lon": "0.1092595", "other_tags": {"access": "private", "amenity": "parking", "operator": "St Edmund's College (University of Cambridge)"}}, {"name": "N/A", "amenity": "parking", "data_type": "way", "lat": "52.2134949", "lon": "0.1086968", "other_tags": {"access": "private", "amenity": "parking", "operator": "St Edmund's College (University of Cambridge)"}}, {"name": "N/A", "amenity": "university", "data_type": "way", "lat": "52.2111413", "lon": "0.1108069", "other_tags": {"amenity": "university", "operator": "St John's College (University of Cambridge)", "ref": "JOH/KNOTT"}}, {"name": "Lucy Cavendish College (University of Cambridge)", "amenity": "university", "data_type": "way", "lat": "52.2119999", "lon": "0.1091950", "other_tags": {"addr:city": "Cambridge", "addr:postcode": "CB3 0BU", "amenity": "university", "fhrs:id": "1473321", "name": "Lucy Cavendish College (University of Cambridge)", "operator": "Lucy Cavendish College (University of Cambridge)", "ref": "LUCY-CAV", "website": "https://www.lucy-cav.cam.ac.uk/", "wikidata": "Q1146631", "wikipedia": "en:Lucy Cavendish College, Cambridge"}}, {"name": "N/A", "amenity": "parking", "data_type": "way", "lat": "52.2118983", "lon": "0.1100059", "other_tags": {"access": "private", "amenity": "parking", "operator": "St John's College (University of Cambridge)"}}, {"name": "N/A", "amenity": "parking", "data_type": "way", "lat": "52.2117085", "lon": "0.1098293", "other_tags": {"access": "private", "amenity": "parking", "operator": "Lucy Cavendish College (University of Cambridge)"}}, {"name": "N/A", "amenity": "parking", "data_type": "way", "lat": "52.2120481", "lon": "0.1092438", "other_tags": {"access": "private", "amenity": "parking", "operator": "Lucy Cavendish College (University of Cambridge)"}}, {"name": "N/A", "amenity": "bicycle_parking", "data_type": "way", "lat": "52.2111513", "lon": "0.1107896", "other_tags": {"amenity": "bicycle_parking", "bicycle_parking": "stands", "building": "yes", "capacity": "60", "covered": "yes", "operator": "Lucy Cavendish College (University of Cambridge)", "ref": "LUCY-CAV022"}}, {"name": "N/A", "amenity": "parking", "data_type": "way", "lat": "52.2118628", "lon": "0.1098328", "other_tags": {"access": "private", "amenity": "parking", "operator": "St John's College (University of Cambridge)"}}, {"name": "Storey's House", "amenity": "social_facility", "data_type": "way", "lat": "52.2123982", "lon": "0.1105035", "other_tags": {"addr:city": "Cambridge", "addr:postcode": "CB3 0BZ", "addr:street": "Mount Pleasant", "amenity": "social_facility", "building": "yes", "name": "Storey's House", "operator": "Edward Storey Foundation", "social_facility": "assisted_living", "social_facility:for": "senior;female", "source": "survey"}}, {"name": "Edward House", "amenity": "social_facility", "data_type": "way", "lat": "52.2119270", "lon": "0.1115826", "other_tags": {"addr:city": "Cambridge", "addr:housenumber": "8 Albion Row", "addr:postcode": "CB3 0BH", "addr:street": "Albion Row", "amenity": "social_facility", "building": "yes", "fhrs:id": "1473251", "name": "Edward House", "operator": "Edward Storey Foundation", "social_facility": "assisted_living", "social_facility:for": "senior;female", "source": "survey", "source:addr:housenumber": "FHRS Open Data"}}, {"name": "Westminster College", "amenity": "university", "data_type": "way", "lat": "52.2105882", "lon": "0.1105754", "other_tags": {"addr:city": "Cambridge", "addr:postcode": "CB3 0AA", "addr:street": "Madingley Road", "amenity": "university", "name": "Westminster College", "operator": "United Reformed Church Westminster College", "ref:university_of_cambridge": "EXT/WESTMINSTERCOLLEGE", "website": "https://www.westminster.cam.ac.uk/", "wikidata": "Q7989147"}}]}, {"county": "Cambridgeshire", "code": "E00090575", "lad": "Cambridge", "rgn_main": "East of England", "population": 232, "amenities": [{"name": "Resurrection Lutheran Church", "amenity": "place_of_worship", "data_type": "way", "lat": "52.2153733", "lon": "0.1092697", "other_tags": {"addr:city": "Cambridge", "addr:housenumber": "25", "addr:postcode": "CB4 3QS", "addr:street": "Westfield Lane", "amenity": "place_of_worship", "building": "church", "denomination": "lutheran", "name": "Resurrection Lutheran Church", "religion": "christian"}}, {"name": "N/A", "amenity": "college", "data_type": "way", "lat": "52.2153932", "lon": "0.1094197", "other_tags": {"amenity": "college"}}]}, {"county": "Cambridgeshire", "code": "E00090576", "lad": "Cambridge", "rgn_main": "East of England", "population": 226, "amenities": []}, {"county": "Cambridgeshire", "code": "E00090577", "lad": "Cambridge", "rgn_main": "East of England", "population": 1773, "amenities": [{"name": "Pointing Figure with Child", "amenity": "sculpture", "data_type": "node", "lat": "52.2120733", "lon": "0.1033048", "other_tags": {"amenity": "sculpture", "artist_name": "Bernard Meadows", "material": "bronze", "name": "Pointing Figure with Child", "start_date": "1966"}}, {"name": "Flight", "amenity": "sculpture", "data_type": "node", "lat": "52.2123227", "lon": "0.1026413", "other_tags": {"amenity": "sculpture", "artist_name": "Peter Lyon", "material": "bronze", "name": "Flight", "start_date": "1981"}}, {"name": "The Now", "amenity": "sculpture", "data_type": "node", "lat": "52.2124680", "lon": "0.1037587", "other_tags": {"amenity": "sculpture", "artist_name": "Nigel Hall", "artwork_type": "sculpture", "material": "bronze", "name": "The Now", "start_date": "1999", "tourism": "artwork"}}, {"name": "Southern Shade I", "amenity": "sculpture", "data_type": "node", "lat": "52.2127482", "lon": "0.1039572", "other_tags": {"amenity": "sculpture", "artist_name": "Nigel Hall", "artwork_type": "sculpture", "material": "bronze", "name": "Southern Shade I", "start_date": "2012", "tourism": "artwork"}}, {"name": "N/A", "amenity": "bicycle_parking", "data_type": "node", "lat": "52.2128724", "lon": "0.1042029", "other_tags": {"access": "private", "amenity": "bicycle_parking", "bicycle_parking": "stands", "capacity": "112", "covered": "no", "operator": "Churchill College (University of Cambridge)"}}, {"name": "Four Square Walk-Through", "amenity": "sculpture", "data_type": "node", "lat": "52.2129730", "lon": "0.1021699", "other_tags": {"amenity": "sculpture", "artist_name": "Barbara Hepworth", "material": "bronze", "name": "Four Square Walk-Through", "source": "http://www.cambridgesculpturetrails.co.uk/trail3/", "start_date": "1966", "tourism": "artwork"}}, {"name": "N/A", "amenity": "parking", "data_type": "node", "lat": "52.2129921", "lon": "0.1039899", "other_tags": {"access": "private", "amenity": "parking", "capacity:disabled": "1", "operator": "Churchill College (University of Cambridge)", "parking": "disabled"}}, {"name": "N/A", "amenity": "sculpture", "data_type": "node", "lat": "52.2130559", "lon": "0.1026459", "other_tags": {"amenity": "sculpture"}}, {"name": "N/A", "amenity": "bicycle_parking", "data_type": "node", "lat": "52.2131561", "lon": "0.1033654", "other_tags": {"access": "private", "amenity": "bicycle_parking", "bicycle_parking": "v", "capacity": "17", "operator": "Churchill College (University of Cambridge)"}}, {"name": "N/A", "amenity": "parking", "data_type": "node", "lat": "52.2131906", "lon": "0.1032764", "other_tags": {"access": "private", "amenity": "parking", "capacity:disabled": "1", "operator": "Churchill College (University of Cambridge)", "parking": "disabled"}}, {"name": "N/A", "amenity": "sculpture", "data_type": "node", "lat": "52.2134063", "lon": "0.1023131", "other_tags": {"amenity": "sculpture"}}, {"name": "N/A", "amenity": "bicycle_parking", "data_type": "node", "lat": "52.2135616", "lon": "0.1021299", "other_tags": {"access": "private", "amenity": "bicycle_parking", "bicycle_parking": "stands", "capacity": "48", "operator": "Churchill College (University of Cambridge)"}}, {"name": "N/A", "amenity": "parking", "data_type": "node", "lat": "52.2136175", "lon": "0.1028863", "other_tags": {"access": "private", "amenity": "parking", "capacity:disabled": "1", "operator": "Churchill College (University of Cambridge)", "parking": "disabled"}}, {"name": "N/A", "amenity": "sculpture", "data_type": "node", "lat": "52.2137171", "lon": "0.1017852", "other_tags": {"amenity": "sculpture"}}, {"name": "N/A", "amenity": "bicycle_parking", "data_type": "node", "lat": "52.2139104", "lon": "0.1018155", "other_tags": {"access": "private", "amenity": "bicycle_parking", "bicycle_parking": "stands", "capacity": "6", "operator": "Churchill College (University of Cambridge)"}}, {"name": "To Boullee", "amenity": "sculpture", "data_type": "node", "lat": "52.2127290", "lon": "0.1022787", "other_tags": {"amenity": "sculpture", "artist_name": "Michael Dan Archer", "material": "granite", "name": "To Boullee", "start_date": "1993"}}, {"name": "N/A", "amenity": "toilets", "data_type": "node", "lat": "52.2128530", "lon": "0.1032302", "other_tags": {"amenity": "toilets", "wheelchair": "yes"}}, {"name": "N/A", "amenity": "bicycle_parking", "data_type": "node", "lat": "52.2131133", "lon": "0.1067679", "other_tags": {"access": "private", "amenity": "bicycle_parking", "bicycle_parking": "v", "capacity": "7", "covered": "yes", "operator": "Murray Edwards College (University of Cambridge)"}}, {"name": "N/A", "amenity": "bicycle_parking", "data_type": "node", "lat": "52.2131683", "lon": "0.1067970", "other_tags": {"access": "private", "amenity": "bicycle_parking", "bicycle_parking": "v", "capacity": "7", "covered": "yes", "operator": "Murray Edwards College (University of Cambridge)"}},