[{"county": "North Yorkshire", "code": "E00140249", "lad": "Craven", "rgn_main": "Yorkshire and The Humber", "population": 249, "amenities": []}, {"county": "North Yorkshire", "code": "E00140250", "lad": "Craven", "rgn_main": "Yorkshire and The Humber", "population": 288, "amenities": [{"name": "Methodist Church", "amenity": "place_of_worship", "data_type": "way", "lat": "53.9325089", "lon": "-1.9962614", "other_tags": {"amenity": "place_of_worship", "denomination": "methodist", "name": "Methodist Church", "religion": "christian"}}]}, {"county": "North Yorkshire", "code": "E00140251", "lad": "Craven", "rgn_main": "Yorkshire and The Humber", "population": 283, "amenities": [{"name": "St Mary's", "amenity": "place_of_worship", "data_type": "way", "lat": "53.9311679", "lon": "-1.9935821", "other_tags": {"amenity": "place_of_worship", "denomination": "anglican", "name": "St Mary's", "religion": "christian", "wikidata": "Q105084357"}}, {"name": "The Slaters Arms", "amenity": "pub", "data_type": "way", "lat": "53.9299068", "lon": "-1.9957173", "other_tags": {"addr:city": "Keighley", "addr:county": "North Yorkshire", "addr:postcode": "BD20 9DE", "addr:street": "Crag Lane", "addr:village": "Low Bradley", "amenity": "pub", "building": "yes", "fhrs:id": "292227", "name": "The Slaters Arms", "source:addr": "FHRS Open Data", "website": "http://www.theslatersarms.co.uk/"}}, {"name": "N/A", "amenity": "grave_yard", "data_type": "way", "lat": "53.9308784", "lon": "-1.9904754", "other_tags": {"amenity": "grave_yard"}}]}, {"county": "North Yorkshire", "code": "E00140252", "lad": "Craven", "rgn_main": "Yorkshire and The Humber", "population": 383, "amenities": [{"name": "N/A", "amenity": "bench", "data_type": "node", "lat": "53.9255388", "lon": "-2.0023628", "other_tags": {"amenity": "bench"}}, {"name": "Subway", "amenity": "fast_food", "data_type": "node", "lat": "53.9412090", "lon": "-2.0137347", "other_tags": {"addr:city": "Skipton", "addr:postcode": "BD23 2UB", "addr:street": "Millennium Road", "amenity": "fast_food", "brand": "Subway", "brand:wikidata": "Q244457", "brand:wikipedia": "en:Subway (restaurant)", "cuisine": "sandwich", "fhrs:id": "817820", "name": "Subway", "phone": "+44 1756 793116", "takeaway": "yes"}}, {"name": "McDonald's", "amenity": "fast_food", "data_type": "node", "lat": "53.9410881", "lon": "-2.0128919", "other_tags": {"addr:city": "Skipton", "addr:district": "Airedale Business Centre", "addr:postcode": "BD23 2UB", "amenity": "fast_food", "brand": "McDonald's", "brand:wikidata": "Q38076", "brand:wikipedia": "en:McDonald's", "contact:website": "https://www.mcdonalds.com/gb/en-gb/location/skipton/skipton---millenium-way/airedale-business-centre/8261286.html", "cuisine": "burger", "delivery": "no", "drive_through": "yes", "fhrs:id": "292503", "name": "McDonald's", "outdoor_seating": "yes", "source:addr": "FHRS Open Data", "takeaway": "yes"}}, {"name": "N/A", "amenity": "parking", "data_type": "way", "lat": "53.9308590", "lon": "-2.0004282", "other_tags": {"access": "yes", "amenity": "parking", "fee": "no", "parking": "surface"}}, {"name": "Bradleys Both Community Primary School", "amenity": "school", "data_type": "way", "lat": "53.9333070", "lon": "-1.9974951", "other_tags": {"addr:city": "Keighley", "addr:postcode": "BD20 9EF", "addr:street": "Skipton Road", "addr:village": "Bradley", "amenity": "school", "fhrs:id": "292234", "name": "Bradleys Both Community Primary School", "phone": "+44 1535 633116", "ref:edubase": "121383", "website": "https://www.bradleysbothcpschool.org.uk/"}}, {"name": "Craven Nursing home", "amenity": "nursing_home", "data_type": "way", "lat": "53.9432512", "lon": "-2.0118807", "other_tags": {"addr:city": "Skipton", "addr:postcode": "BD23 2TA", "addr:street": "Keighley Road", "amenity": "nursing_home", "building": "yes", "fhrs:id": "293158", "name": "Craven Nursing home", "phone": "+44 1756 700994"}}, {"name": "Bay Horse", "amenity": "pub", "data_type": "way", "lat": "53.9408231", "lon": "-2.0116814", "other_tags": {"addr:city": "Keighley", "addr:postcode": "BD20 9HB", "addr:street": "Skipton Road", "addr:village": "Low Bradley", "amenity": "pub", "building": "yes", "fhrs:id": "293162", "name": "Bay Horse", "source:addr": "FHRS Open Data"}}, {"name": "N/A", "amenity": "parking", "data_type": "way", "lat": "53.9409354", "lon": "-2.0115529", "other_tags": {"access": "customers", "amenity": "parking", "fee": "no", "park_ride": "no", "parking": "surface", "supervised": "no"}}, {"name": "Aldi Car Park", "amenity": "parking", "data_type": "way", "lat": "53.9418428", "lon": "-2.0132350", "other_tags": {"access": "yes", "amenity": "parking", "fee": "no", "name": "Aldi Car Park", "parking": "surface"}}, {"name": "McDonald's Car Park", "amenity": "parking", "data_type": "way", "lat": "53.9411788", "lon": "-2.0132611", "other_tags": {"access": "customers", "amenity": "parking", "name": "McDonald's Car Park"}}, {"name": "N/A", "amenity": "parking", "data_type": "way", "lat": "53.9418528", "lon": "-2.0135332", "other_tags": {"access": "yes", "amenity": "parking", "fee": "no", "parking": "surface"}}]}, {"county": "North Yorkshire", "code": "E00140253", "lad": "Craven", "rgn_main": "Yorkshire and The Humber", "population": 210, "amenities": [{"name": "Cononley Community Primary School", "amenity": "school", "data_type": "way", "lat": "53.9190990", "lon": "-2.0168335", "other_tags": {"addr:city": "Keighley", "addr:county": "North Yorkshire", "addr:postcode": "BD20 8NA", "addr:street": "Meadow Lane", "addr:village": "Cononley", "amenity": "school", "fhrs:id": "292384", "name": "Cononley Community Primary School", "phone": "+44 1535 633040", "ref:edubase": "121387", "website": "http://www.cononley.n-yorks.sch.uk"}}, {"name": "The New Inn", "amenity": "pub", "data_type": "way", "lat": "53.9184686", "lon": "-2.0174565", "other_tags": {"addr:city": "Keighley", "addr:district": "Cononley", "addr:postcode": "BD20 8NR", "addr:street": "Main Street", "amenity": "pub", "building": "yes", "fhrs:id": "292379", "name": "The New Inn", "source:addr": "FHRS Open Data"}}]}, {"county": "North Yorkshire", "code": "E00140254", "lad": "Craven", "rgn_main": "Yorkshire and The Humber", "population": 444, "amenities": [{"name": "N/A", "amenity": "parking", "data_type": "way", "lat": "53.9176032", "lon": "-2.0118338", "other_tags": {"amenity": "parking"}}, {"name": "The Railway", "amenity": "pub", "data_type": "way", "lat": "53.9180469", "lon": "-2.0129922", "other_tags": {"amenity": "pub", "building": "yes", "name": "The Railway", "outdoor_seating": "yes"}}]}, {"county": "North Yorkshire", "code": "E00140255", "lad": "Craven", "rgn_main": "Yorkshire and The Humber", "population": 218, "amenities": [{"name": "N/A", "amenity": "post_box", "data_type": "node", "lat": "53.9171167", "lon": "-2.0061573", "other_tags": {"amenity": "post_box"}}]}, {"county": "North Yorkshire", "code": "E00140256", "lad": "Craven", "rgn_main": "Yorkshire and The Humber", "population": 215, "amenities": []}, {"county": "North Yorkshire", "code": "E00140257", "lad": "Craven", "rgn_main": "Yorkshire and The Humber", "population": 382, "amenities": [{"name": "N/A", "amenity": "post_box", "data_type": "node", "lat": "53.9181105", "lon": "-2.0165229", "other_tags": {"amenity": "post_box", "post_box:type": "wall"}}, {"name": "Cononley Institute", "amenity": "community_centre", "data_type": "way", "lat": "53.9186844", "lon": "-2.0195988", "other_tags": {"addr:city": "Cononley", "addr:postcode": "BD20 8NT", "addr:street": "Main Street", "alt_name": "Cononley Village Institute", "amenity": "community_centre", "building": "public", "name": "Cononley Institute", "operator": "Cononley Parish Council", "start_date": "1909"}}, {"name": "N/A", "amenity": "grave_yard", "data_type": "way", "lat": "53.9185780", "lon": "-2.0221201", "other_tags": {"amenity": "grave_yard"}}, {"name": "St John the Evangelist", "amenity": "place_of_worship", "data_type": "way", "lat": "53.9190445", "lon": "-2.0217581", "other_tags": {"amenity": "place_of_worship", "building": "yes", "denomination": "anglican", "name": "St John the Evangelist", "religion": "christian", "wikidata": "Q105084360"}}, {"name": "Cononley Village Store", "amenity": "post_office", "data_type": "way", "lat": "53.9181043", "lon": "-2.0164801", "other_tags": {"addr:city": "Keighley", "addr:housenumber": "2-4", "addr:postcode": "BD20 8LH", "addr:street": "King Street", "addr:village": "Cononley", "amenity": "post_office", "building": "yes", "name": "Cononley Village Store", "opening_hours": "Mo-Fr 07:00-19:30; Sa 07:30-19:30; Su 08:30-12:30", "ref:pol_id": "11715", "shop": "convenience"}}]}, {"county": "North Yorkshire", "code": "E00140258", "lad": "Craven", "rgn_main": "Yorkshire and The Humber", "population": 280, "amenities": [{"name": "N/A", "amenity": "parking", "data_type": "node", "lat": "53.9173500", "lon": "-1.9978436", "other_tags": {"amenity": "parking"}}, {"name": "N/A", "amenity": "fountain", "data_type": "node", "lat": "53.9103791", "lon": "-1.9906677", "other_tags": {"amenity": "fountain"}}, {"name": "Farnhill Methodist Church", "amenity": "place_of_worship", "data_type": "way", "lat": "53.9118278", "lon": "-1.9889216", "other_tags": {"amenity": "place_of_worship", "building": "yes", "denomination": "methodist", "name": "Farnhill Methodist Church", "religion": "christian"}}]}, {"county": "North Yorkshire", "code": "E00140259", "lad": "Craven", "rgn_main": "Yorkshire and The Humber", "population": 201, "amenities": [{"name": "N/A", "amenity": "telephone", "data_type": "node", "lat": "53.9101711", "lon": "-1.9872196", "other_tags": {"amenity": "telephone", "booth": "KX100", "covered": "booth"}}, {"name": "N/A", "amenity": "parking", "data_type": "way", "lat": "53.9101738", "lon": "-1.9871898", "other_tags": {"access": "yes", "amenity": "parking"}}]}, {"county": "North Yorkshire", "code": "E00140260", "lad": "Craven", "rgn_main": "Yorkshire and The Humber", "population": 222, "amenities": [{"name": "N/A", "amenity": "post_box", "data_type": "node", "lat": "53.9087908", "lon": "-1.9834633", "other_tags": {"amenity": "post_box", "post_box:type": "lamp", "ref": "BD20 98", "source": "survey"}}, {"name": "N/A", "amenity": "parking", "data_type": "way", "lat": "53.9084341", "lon": "-1.9844344", "other_tags": {"amenity": "parking"}}, {"name": "N/A", "amenity": "parking", "data_type": "way", "lat": "53.9125250", "lon": "-1.9838526", "other_tags": {"access": "private", "amenity": "parking"}}, {"name": "N/A", "amenity": "grave_yard", "data_type": "way", "lat": "53.9089215", "lon": "-1.9829920", "other_tags": {"amenity": "grave_yard"}}, {"name": "St. Andrew's", "amenity": "place_of_worship", "data_type": "way", "lat": "53.9092480", "lon": "-1.9842850", "other_tags": {"amenity": "place_of_worship", "building": "church", "denomination": "anglican", "loc_name": "The Lang Kirk of Craven", "name": "St. Andrew's", "religion": "christian", "wikidata": "Q17538069"}}, {"name": "Kildwick Church of England Voluntary Controlled Primary School", "amenity": "school", "data_type": "way", "lat": "53.9091467", "lon": "-1.9824805", "other_tags": {"addr:city": "Keighley", "addr:postcode": "BD20 9BH", "addr:street": "Priest Bank Road", "addr:village": "Kildwick", "amenity": "school", "denomination": "anglican", "fhrs:id": "292724", "name": "Kildwick Church of England Voluntary Controlled Primary School", "phone": "+44 1535633682", "ref:edubase": "121600", "website": "http://www.kildwick.n-yorks.sch.uk"}}, {"name": "Co-op", "amenity": "fuel", "data_type": "way", "lat": "53.9062093", "lon": "-1.9853580", "other_tags": {"amenity": "fuel", "building": "roof", "layer": "2", "name": "Co-op", "opening_hours": "Mo-Su 05:00-23:00", "operator": "The Co-operative Group", "postal_code": "BD20 7DS", "website": "https://finder.coop.co.uk/food/store/BD20-7BQ/station-road"}}, {"name": "The White Lion Hotel", "amenity": "pub", "data_type": "way", "lat": "53.9086171", "lon": "-1.9844245", "other_tags": {"addr:city": "Keighley", "addr:district": "Kildwick", "addr:postcode": "BD20 9BH", "addr:street": "Priest Bank Road", "amenity": "pub", "building": "yes", "fhrs:id": "292723", "name": "The White Lion Hotel", "outdoor_seating": "yes", "source:addr": "FHRS Open Data"}}, {"name": "N/A", "amenity": "place_of_worship", "data_type": "way", "lat": "53.9082455", "lon": "-1.9842897", "other_tags": {"amenity": "place_of_worship", "building": "yes", "religion": "christian"}}, {"name": "N/A", "amenity": "parking", "data_type": "way", "lat": "53.9090957", "lon": "-1.9847784", "other_tags": {"access": "yes", "amenity": "parking", "capacity": "10", "capacity:disabled": "4", "fee": "no", "operator": "St Andrew's Church", "operator:type": "private_non_profit", "parking": "surface"}}, {"name": "The Trawlerman", "amenity": "restaurant", "data_type": "way", "lat": "53.9059589", "lon": "-1.9847929", "other_tags": {"addr:postcode": "BD20 7DS", "amenity": "restaurant", "building": "yes", "name": "The Trawlerman"}}]}, {"county": "North Yorkshire", "code": "E00140261", "lad": "Craven", "rgn_main": "Yorkshire and The Humber", "population": 509, "amenities": [{"name": "Hare And Hounds Inn", "amenity": "pub", "data_type": "node", "lat": "53.9098036", "lon": "-2.0642412", "other_tags": {"addr:city": "Keighley", "addr:district": "Lothersdale", "addr:postcode": "BD20 8EL", "addr:street": "Dale End", "amenity": "pub", "fhrs:id": "1107067", "food": "yes", "name": "Hare And Hounds Inn", "parking": "yes", "real_ale": "2 from Theakston", "real_fire": "yes", "source:addr": "FHRS Open Data", "wheelchair": "no"}}, {"name": "N/A", "amenity": "bench", "data_type": "node", "lat": "53.9091701", "lon": "-2.0652338", "other_tags": {"amenity": "bench", "backrest": "yes"}}, {"name": "N/A", "amenity": "bench", "data_type": "node", "lat": "53.9183560", "lon": "-2.0660937", "other_tags": {"amenity": "bench"}}, {"name": "N/A", "amenity": "bench", "data_type": "node", "lat": "53.9189957", "lon": "-2.0686579", "other_tags": {"amenity": "bench"}}, {"name": "N/A", "amenity": "bench", "data_type": "node", "lat": "53.9107851", "lon": "-2.0786580", "other_tags": {"amenity": "bench"}}, {"name": "N/A", "amenity": "post_box", "data_type": "node", "lat": "53.9106175", "lon": "-2.0780840", "other_tags": {"amenity": "post_box", "post_box:type": "wall"}}, {"name": "N/A", "amenity": "telephone", "data_type": "node", "lat": "53.9090416", "lon": "-2.0699328", "other_tags": {"amenity": "telephone", "booth": "K6", "covered": "booth"}}, {"name": "N/A", "amenity": "bench", "data_type": "node", "lat": "53.9085050", "lon": "-2.0529764", "other_tags": {"amenity": "bench"}}, {"name": "N/A", "amenity": "post_box", "data_type": "node", "lat": "53.9087593", "lon": "-2.0506670", "other_tags": {"amenity": "post_box"}}, {"name": "N/A", "amenity": "waste_basket", "data_type": "node", "lat": "53.9102089", "lon": "-2.0631584", "other_tags": {"amenity": "waste_basket", "waste": "dog_excrement"}}, {"name": "N/A", "amenity": "waste_basket", "data_type": "node", "lat": "53.9182823", "lon": "-2.0660164", "other_tags": {"amenity": "waste_basket", "waste": "dog_excrement"}}, {"name": "N/A", "amenity": "waste_basket", "data_type": "node", "lat": "53.9102708", "lon": "-2.0610914", "other_tags": {"amenity": "waste_basket", "waste": "dog_excrement"}}, {"name": "N/A", "amenity": "bench", "data_type": "node", "lat": "53.9102604", "lon": "-2.0610524", "other_tags": {"amenity": "bench", "backrest": "yes", "material": "wood"}}, {"name": "N/A", "amenity": "grave_yard", "data_type": "relation", "lat": "53.9106901", "lon": "-2.0755308", "other_tags": {"amenity": "grave_yard", "source": "View from SW;Bing", "type": "multipolygon"}}, {"name": "N/A", "amenity": "grave_yard", "data_type": "relation", "lat": "53.9098480", "lon": "-2.0573402", "other_tags": {"amenity": "grave_yard", "type": "multipolygon"}}, {"name": "N/A", "amenity": "place_of_worship", "data_type": "way", "lat": "53.9104171", "lon": "-2.0751963", "other_tags": {"amenity": "place_of_worship", "building": "yes", "religion": "christian", "source": "View from South;Bing"}}, {"name": "Christ Church, Lothersdale", "amenity": "place_of_worship", "data_type": "way", "lat": "53.9097682", "lon": "-2.0579753", "other_tags": {"amenity": "place_of_worship", "building": "church", "denomination": "anglican", "name": "Christ Church, Lothersdale", "religion": "christian", "wheelchair": "limited", "wikidata": "Q26603058"}}, {"name": "Lothersdale Primary School", "amenity": "school", "data_type": "way", "lat": "53.9100628", "lon": "-2.0727843", "other_tags": {"addr:city": "Keighley", "addr:locality": "Lothersdale", "addr:postcode": "BD20 8HB", "addr:street": "Calf Wood Lane", "amenity": "school", "capacity": "105", "fhrs:id": "292746", "isced:level": "1", "max_age": "11", "min_age": "4", "name": "Lothersdale Primary School", "phone": "+44 1535 632510", "ref:GB:uprn": "10012777428", "ref:edubase": "142201", "ref:edubase:group": "15713", "religion": "none", "school:boarding": "no", "school:gender": "mixed", "school:selective": "no", "school:trust": "yes", "school:trust:name": "Yorkshire Collaborative Academy Trust", "school:trust:type": "multi_academy", "school:type": "academy", "website": "https://www.lothersdaleschool.org.uk/"}}, {"name": "N/A", "amenity": "parking", "data_type": "way", "lat": "53.9101667", "lon": "-2.0607437", "other_tags": {"amenity": "parking", "parking": "street_side"}}, {"name": "Lothersdale Village Hall", "amenity": "community_centre", "data_type": "way", "lat": "53.9097049", "lon": "-2.0626219", "other_tags": {"amenity": "community_centre", "building": "yes", "name": "Lothersdale Village Hall"}}]}, {"county": "North Yorkshire", "code": "E00140262", "lad": "Craven", "rgn_main": "Yorkshire and The Humber", "population": 206, "amenities": [{"name": "Craven Arms", "amenity": "pub", "data_type": "node", "lat": "54.0376343", "lon": "-1.9246272", "other_tags": {"amenity": "pub", "name": "Craven Arms", "source": "survey"}}, {"name": "New Inn", "amenity": "pub", "data_type": "node", "lat": "54.0370301", "lon": "-1.9217389", "other_tags": {"addr:city": "Skipton", "addr:country": "GB", "addr:hamlet": "Appletreewick", "addr:postcode": "BD23 6DA", "amenity": "pub", "fhrs:id": "292964", "name": "New Inn", "source:addr": "FHRS Open Data"}}, {"name": "Stump Cross Caverns Cafe", "amenity": "cafe", "data_type": "node", "lat": "54.0674807", "lon": "-1.8654597", "other_tags": {"amenity": "cafe", "name": "Stump Cross Caverns Cafe", "source": "survey"}}, {"name": "N/A", "amenity": "parking", "data_type": "node", "lat": "54.0477828", "lon": "-1.8839632", "other_tags": {"amenity": "parking"}}, {"name": "N/A", "amenity": "bench", "data_type": "node", "lat": "54.0489018", "lon": "-1.8977273", "other_tags": {"amenity": "bench", "fixme": "no GPS that day, check location]\\", "source": "survey"}}, {"name": "N/A", "amenity": "cafe", "data_type": "node", "lat": "54.0448826", "lon": "-1.8970113", "other_tags": {"amenity": "cafe", "source": "survey"}}, {"name": "N/A", "amenity": "telephone", "data_type": "node", "lat": "54.0368914", "lon": "-1.9214379", "other_tags": {"amenity": "telephone", "booth": "K6", "covered": "booth"}}, {"name": "N/A", "amenity": "parking", "data_type": "way", "lat": "54.0374709", "lon": "-1.9247856", "other_tags": {"access": "customers", "amenity": "parking", "source": "Bing;survey"}}, {"name": "N/A", "amenity": "parking", "data_type": "way", "lat": "54.0742058", "lon": "-1.8489486", "other_tags": {"amenity": "parking", "source": "Bing"}}, {"name": "N/A", "amenity": "parking", "data_type": "way", "lat": "54.0723976", "lon": "-1.9044882", "other_tags": {"amenity": "parking", "source": "Bing"}}, {"name": "N/A", "amenity": "parking", "data_type": "way", "lat": "54.0722796", "lon": "-1.9050174", "other_tags": {"access": "yes", "amenity": "parking", "description": "Gate closes 1 hour before dusk. No overnight parking.", "fee": "no", "source": "Bing;survey"}}, {"name": "N/A", "amenity": "parking", "data_type": "way", "lat": "54.0810164", "lon": "-1.9009458", "other_tags": {"access": "private", "amenity": "parking", "source": "Bing"}}, {"name": "N/A", "amenity": "toilets", "data_type": "way", "lat": "54.0720330", "lon": "-1.9055802", "other_tags": {"access": "yes", "amenity": "toilets", "building": "yes", "toilets:disposal": "flush"}}, {"name": "St John the Baptist", "amenity": "place_of_worship", "data_type": "way", "lat": "54.0371815", "lon": "-1.9182499", "other_tags": {"amenity": "place_of_worship", "building": "church", "denomination": "anglican", "name": "St John the Baptist", "religion": "christian", "source": "Bing", "wikidata": "Q26588823"}}, {"name": "N/A", "amenity": "parking", "data_type": "way", "lat": "54.0676003", "lon": "-1.8645672", "other_tags": {"amenity": "parking", "source": "Bing"}}, {"name": "N/A", "amenity": "parking", "data_type": "way", "lat": "54.0340030", "lon": "-1.9041681", "other_tags": {"amenity": "parking", "source": "Bing"}}, {"name": "N/A", "amenity": "parking", "data_type": "way", "lat": "54.0673484", "lon": "-1.8722839", "other_tags": {"amenity": "parking", "fee": "no", "parking": "surface", "source": "Bing", "surface": "gravel"}}, {"name": "N/A", "amenity": "parking", "data_type": "way", "lat": "54.0452698", "lon": "-1.8975667", "other_tags": {"access": "customers", "amenity": "parking", "source": "survey;Bing"}}, {"name": "N/A", "amenity": "parking", "data_type": "way", "lat": "54.0472930", "lon": "-1.8979757", "other_tags": {"access": "private", "amenity": "parking", "source": "Bing"}}, {"name": "N/A", "amenity": "parking", "data_type": "way", "lat": "54.0372409", "lon": "-1.9216151", "other_tags": {"access": "customers", "amenity": "parking", "source": "Bing"}}, {"name": "N/A", "amenity": "parking", "data_type": "way", "lat": "54.0379002", "lon": "-1.9246261", "other_tags": {"access": "customers", "amenity": "parking", "source": "Bing"}}]}, {"county": "North Yorkshire", "code": "E00140265", "lad": "Craven", "rgn_main": "Yorkshire and The Humber", "population": 157, "amenities": [{"name": "Red Lion Hotel", "amenity": "pub", "data_type": "node", "lat": "54.0466830", "lon": "-1.9520399", "other_tags": {"addr:city": "Skipton", "addr:country": "GB", "addr:hamlet": "Burnsall", "addr:postcode": "BD23 6BU", "amenity": "pub", "fhrs:id": "292318", "name": "Red Lion Hotel", "outdoor_seating": "yes", "source:addr": "FHRS Open Data"}}, {"name": "Wharfe View Tea Room", "amenity": "cafe", "data_type": "node", "lat": "54.0466687", "lon": "-1.9527393", "other_tags": {"amenity": "cafe", "name": "Wharfe View Tea Room"}}, {"name": "N/A", "amenity": "telephone", "data_type": "node", "lat": "54.0464578", "lon": "-1.9527173", "other_tags": {"amenity": "telephone", "booth": "K6", "covered": "booth", "listed_status": "Grade II"}}, {"name": "refreshment kiosk", "amenity": "cafe", "data_type": "node", "lat": "54.0453176", "lon": "-1.9531640", "other_tags": {"amenity": "cafe", "created_by": "JOSM", "name": "refreshment kiosk"}}, {"name": "N/A", "amenity": "toilets", "data_type": "node", "lat": "54.0450455", "lon": "-1.9531236", "other_tags": {"amenity": "toilets"}}, {"name": "The Devonshire Hotel & Restaurant", "amenity": "restaurant", "data_type": "node", "lat": "54.0440122", "lon": "-1.9533671", "other_tags": {"amenity": "restaurant", "name": "The Devonshire Hotel & Restaurant", "tourism": "hotel"}}, {"name": "N/A", "amenity": "post_box", "data_type": "node", "lat": "54.0520136", "lon": "-1.9815959", "other_tags": {"amenity": "post_box", "created_by": "JOSM"}}, {"name": "River Cafe", "amenity": "cafe", "data_type": "node", "lat": "54.0475187", "lon": "-1.9515352", "other_tags": {"amenity": "cafe", "cuisine": "pizza", "name": "River Cafe", "source": "survey"}}, {"name": "N/A", "amenity": "bench", "data_type": "node", "lat": "54.0463824", "lon": "-1.9524308", "other_tags": {"amenity": "bench"}}, {"name": "N/A", "amenity": "bench", "data_type": "node", "lat": "54.0463616", "lon": "-1.9524573", "other_tags": {"amenity": "bench"}}, {"name": "N/A", "amenity": "bench", "data_type": "node", "lat": "54.0462993", "lon": "-1.9525493", "other_tags": {"amenity": "bench"}}, {"name": "N/A", "amenity": "bench", "data_type": "node", "lat": "54.0462816", "lon": "-1.9525723", "other_tags": {"amenity": "bench"}}, {"name": "N/A", "amenity": "bench", "data_type": "node", "lat": "54.0461819", "lon": "-1.9527457", "other_tags": {"amenity": "bench"}}, {"name": "N/A", "amenity": "bench", "data_type": "node", "lat": "54.0460686", "lon": "-1.9529050", "other_tags": {"amenity": "bench"}}, {"name": "N/A", "amenity": "parking", "data_type": "way", "lat": "54.0452075", "lon": "-1.9532352", "other_tags": {"amenity": "parking", "fee": "3.00", "parking": "surface", "surface": "unpaved"}}, {"name": "Burnsall Voluntary Aided Primary School", "amenity": "school", "data_type": "way", "lat": "54.0489486", "lon": "-1.9519429", "other_tags": {"addr:city": "Skipton", "addr:postcode": "BD23 6BP", "addr:village": "Burnsall", "amenity": "school", "capacity": "84", "isced:level": "1", "max_age": "11", "min_age": "4", "name": "Burnsall Voluntary Aided Primary School", "operator": "North Yorkshire County Council", "phone": "+44 1756 720273", "ref:GB:uprn": "10007563568", "ref:edubase": "121622", "ref:edubase:group": "16598", "religion": "christian", "school:boarding": "no", "school:federation:name": "The Upper Wharfedale Primary Federation", "school:gender": "mixed", "school:selective": "no", "school:trust": "no", "school:type": "voluntary_aided", "website": "https://burnsall.n-yorks.sch.uk", "wikidata": "Q66138500"}}, {"name": "N/A", "amenity": "grave_yard", "data_type": "way", "lat": "54.0492339", "lon": "-1.9521870", "other_tags": {"amenity": "grave_yard", "source": "survey"}}, {"name": "Parish Church of St. Wilfred, Burnsall", "amenity": "place_of_worship", "data_type": "way", "lat": "54.0496549", "lon": "-1.9519902", "other_tags": {"amenity": "place_of_worship", "building": "church", "denomination": "anglican", "name": "Parish Church of St. Wilfred, Burnsall", "religion": "christian", "source": "survey", "wikidata": "Q17582912"}}, {"name": "N/A", "amenity": "ice_cream", "data_type": "way", "lat": "54.0465462", "lon": "-1.9528475", "other_tags": {"amenity": "ice_cream", "building": "yes", "source": "Bing"}}, {"name": "Methodist Chapel", "amenity": "place_of_worship", "data_type": "way", "lat": "54.0478705", "lon": "-1.9515267", "other_tags": {"amenity": "place_of_worship", "building": "yes", "heritage": "yes", "name": "Methodist Chapel", "religion": "christian", "source": "Bing", "wikidata": "Q26460346"}}, {"name": "N/A", "amenity": "biergarten", "data_type": "way", "lat": "54.0467463", "lon": "-1.9522312", "other_tags": {"amenity": "biergarten", "outdoor_seating": "yes"}}]}, {"county": "North Yorkshire", "code": "E00140266", "lad": "Craven", "rgn_main": "Yorkshire and The Humber", "population": 169, "amenities": [{"name": "N/A", "amenity": "place_of_worship", "data_type": "node", "lat": "54.0357136", "lon": "-2.0338442", "other_tags": {"amenity": "place_of_worship", "fixme": "no evidence of this on the ground or OpenData StreetView. Certainly there is no Anglican church in the village.", "religion": "christian"}}, {"name": "Farm Shop Ice Cream Parlour Cafe", "amenity": "cafe", "data_type": "node", "lat": "54.0379193", "lon": "-2.0346116", "other_tags": {"amenity": "cafe", "name": "Farm Shop Ice Cream Parlour Cafe"}}, {"name": "The Devonshire Arms", "amenity": "pub", "data_type": "node", "lat": "54.0366845", "lon": "-2.0353679", "other_tags": {"addr:city": "Skipton", "addr:county": "North Yorkshire", "addr:hamlet": "Cracoe", "addr:postcode": "BD23 6LA", "amenity": "pub", "fhrs:id": "292403", "name": "The Devonshire Arms", "source:addr": "FHRS Open Data"}}, {"name": "N/A", "amenity": "post_box", "data_type": "node", "lat": "54.0370518", "lon": "-2.0345599", "other_tags": {"amenity": "post_box", "created_by": "JOSM"}}, {"name": "Cracoe and Rylstone CE VC Primary School", "amenity": "school", "data_type": "way", "lat": "54.0345492", "lon": "-2.0428154", "other_tags": {"addr:city": "Skipton", "addr:postcode": "BD23 6LQ", "addr:village": "Cracoe", "amenity": "school", "name": "Cracoe and Rylstone CE VC Primary School", "phone": "+44 1756 730259", "ref:edubase": "121558", "website": "http://www.cracoeprimaryschool.co.uk/", "wikidata": "Q66138440"}}, {"name": "N/A", "amenity": "parking", "data_type": "way", "lat": "54.0342732", "lon": "-2.0425599", "other_tags": {"amenity": "parking"}}, {"name": "Cracoe Village Hall", "amenity": "community_centre", "data_type": "way", "lat": "54.0338519", "lon": "-2.0425505", "other_tags": {"amenity": "community_centre", "building": "public", "name": "Cracoe Village Hall"}}, {"name": "Cracoe Cafe", "amenity": "cafe", "data_type": "way", "lat": "54.0364884", "lon": "-2.0357066", "other_tags": {"amenity": "cafe", "building": "yes", "name": "Cracoe Cafe", "source": "Maxar-Premium"}}, {"name": "N/A", "amenity": "parking", "data_type": "way", "lat": "54.0364681", "lon": "-2.0354406", "other_tags": {"amenity": "parking", "source": "Maxar-Premium"}}, {"name": "N/A", "amenity": "parking", "data_type": "way", "lat": "54.0380835", "lon": "-2.0346842", "other_tags": {"access": "customers", "amenity": "parking", "parking": "surface"}}, {"name": "N/A", "amenity": "parking", "data_type": "way", "lat": "54.0381021", "lon": "-2.0344153", "other_tags": {"access": "customers", "amenity": "parking", "parking": "surface"}}]}, {"county": "North Yorkshire", "code": "E00140267", "lad": "Craven", "rgn_main": "Yorkshire and The Humber", "population": 342, "amenities": [{"name": "N/A", "amenity": "parking", "data_type": "node", "lat": "53.9942506", "lon": "-1.9444295", "other_tags": {"access": "yes", "amenity": "parking", "fee": "no", "parking": "street_side"}}, {"name": "N/A", "amenity": "parking", "data_type": "node", "lat": "53.9690456", "lon": "-1.8934301", "other_tags": {"amenity": "parking", "note": "Unofficial"}}, {"name": "N/A", "amenity": "parking", "data_type": "node", "lat": "53.9664515", "lon": "-1.9577101", "other_tags": {"amenity": "parking"}}, {"name": "N/A", "amenity": "parking", "data_type": "node", "lat": "53.9659766", "lon": "-1.9606787", "other_tags": {"amenity": "parking"}}, {"name": "N/A", "amenity": "parking", "data_type": "node", "lat": "53.9655585", "lon": "-1.9423517", "other_tags": {"amenity": "parking", "parking": "layby"}}, {"name": "N/A", "amenity": "parking", "data_type": "node", "lat": "53.9653321", "lon": "-1.9402964", "other_tags": {"amenity": "parking", "parking": "layby"}}, {"name": "N/A", "amenity": "parking", "data_type": "node", "lat": "53.9767271", "lon": "-1.9237600", "other_tags": {"amenity": "parking"}}, {"name": "N/A", "amenity": "parking", "data_type": "node", "lat": "53.9758224", "lon": "-1.9277589", "other_tags": {"amenity": "parking", "parking": "layby"}}, {"name": "N/A", "amenity": "post_box", "data_type": "node", "lat": "53.9662143", "lon": "-1.9410480", "other_tags": {"amenity": "post_box", "post_box:type": "wall", "source": "survey"}}, {"name": "N/A", "amenity": "parking", "data_type": "node", "lat": "53.9656236", "lon": "-1.9394632", "other_tags": {"amenity": "parking", "capacity": "4"}}, {"name": "N/A", "amenity": "public_bookcase", "data_type": "node", "lat": "53.9662621", "lon": "-1.9411515", "other_tags": {"amenity": "public_bookcase", "booth": "K6", "covered": "booth", "description": "Community book library in  a former phone box", "disused:amenity": "telephone", "public_bookcase:type": "phone_box", "source": "survey"}}, {"name": "N/A", "amenity": "bench", "data_type": "node", "lat": "53.9672150", "lon": "-1.9427072", "other_tags": {"amenity": "bench", "source": "survey"}}, {"name": "N/A", "amenity": "bench", "data_type": "node", "lat": "53.9681776", "lon": "-1.9420420", "other_tags": {"amenity": "bench", "source": "survey"}}, {"name": "N/A", "amenity": "telephone", "data_type": "node", "lat": "53.9815642", "lon": "-1.9386981", "other_tags": {"amenity": "telephone", "booth": "K6", "covered": "booth", "defibrillator:location": "inside old red phone box in Halton East", "emergency": "defibrillator", "man_made": "telephone_box", "source": "photo"}}, {"name": "N/A", "amenity": "post_box", "data_type": "node", "lat": "53.9818675", "lon": "-1.9361656", "other_tags": {"amenity": "post_box", "post_box:type": "lamp", "source": "photo"}}, {"name": "Billy Bobs", "amenity": "restaurant", "data_type": "node", "lat": "53.9833023", "lon": "-1.9425798", "other_tags": {"amenity": "restaurant", "cuisine": "american", "name": "Billy Bobs"}}, {"name": "N/A", "amenity": "cafe", "data_type": "node", "lat": "53.9762791", "lon": "-1.9087204", "other_tags": {"amenity": "cafe"}}, {"name": "N/A", "amenity": "toilets", "data_type": "node", "lat": "53.9763159", "lon": "-1.9086354", "other_tags": {"access": "customers", "amenity": "toilets", "changing_table": "yes", "unisex": "yes"}}, {"name": "N/A", "amenity": "post_box", "data_type": "node", "lat": "53.9698519", "lon": "-1.9418699", "other_tags": {"amenity": "post_box", "drive_through": "no", "operator": "Royal Mail"}}, {"name": "N/A", "amenity": "parking", "data_type": "way", "lat": "53.9760610", "lon": "-1.9073296", "other_tags": {"access": "customers", "amenity": "parking", "fee": "no", "parking": "surface", "source": "Bing", "surface": "unpaved"}}, {"name": "The Dales Care Home", "amenity": "social_facility", "data_type": "way", "lat": "53.9666283", "lon": "-1.9434335", "other_tags": {"addr:city": "Skipton", "addr:housename": "The Spinney", "addr:postcode": "BD23 6DU", "addr:village": "Draughton", "alt_name": "The Dales Care Centre", "amenity": "social_facility", "building": "yes", "fhrs:id": "292440", "name": "The Dales Care Home", "social_facility": "nursing_home", "social_facility:for": "senior", "source": "Bing", "source:addr": "FHRS Open Data"}}, {"name": "N/A", "amenity": "parking", "data_type": "way", "lat": "53.9668660", "lon": "-1.9425419", "other_tags": {"amenity": "parking", "capacity": "3", "source": "survey"}}, {"name": "Draughton Village Hall", "amenity": "community_centre", "data_type": "way", "lat": "53.9682770", "lon": "-1.9419293", "other_tags": {"addr:city": "Skipton", "addr:country": "GB", "addr:hamlet": "Draughton", "addr:housename": "Draughton Hall Farm", "addr:housenumber": "1", "addr:postcode": "BD23 6EB", "addr:street": "Low Lane", "amenity": "community_centre", "building": "public", "community_centre": "village_hall", "fhrs:id": "292442", "name": "Draughton Village Hall", "source": "Bing;survey", "source:addr": "FHRS Open Data"}}, {"name": "St Augustine", "amenity": "place_of_worship", "data_type": "way", "lat": "53.9681083", "lon": "-1.9419282", "other_tags": {"amenity": "place_of_worship", "building": "church", "date_start": "1857", "denomination": "anglican", "name": "St Augustine", "religion": "christian", "source": "Bing", "wikidata": "Q105074267"}}, {"name": "N/A", "amenity": "parking", "data_type": "way", "lat": "53.9678926", "lon": "-1.9422168", "other_tags": {"amenity": "parking", "source": "survey"}}, {"name": "N/A", "amenity": "parking", "data_type": "way", "lat": "53.9621738", "lon": "-1.9186296", "other_tags": {"amenity": "parking", "source": "Bing"}}, {"name": "N/A", "amenity": "parking", "data_type": "way", "lat": "53.9949897", "lon": "-1.9441189", "other_tags": {"access": "yes", "amenity": "parking", "fee": "no", "parking": "street_side", "source": "Bing"}}, {"name": "N/A", "amenity": "parking", "data_type": "way", "lat": "53.9763546", "lon": "-1.9081718", "other_tags": {"access": "customers", "amenity": "parking", "fee": "no", "parking": "surface", "surface": "unpaved"}}, {"name": "N/A", "amenity": "parking", "data_type": "way", "lat": "53.9829856", "lon": "-1.9439954", "other_tags": {"amenity": "parking", "parking": "surface"}}]}, {"county": "North Yorkshire", "code": "E00140269", "lad": "Craven", "rgn_main": "Yorkshire and The Humber", "population": 152, "amenities": [{"name": "The Angel Inn", "amenity": "pub", "data_type": "node", "lat": "54.0257626", "lon": "-2.0599094", "other_tags": {"addr:city": "Skipton", "addr:county": "North Yorkshire", "addr:hamlet": "Hetton", "addr:postcode": "BD23 6LT", "amenity": "pub", "fhrs:id": "292630", "name": "The Angel Inn", "outdoor_seating": "yes", "source:addr": "FHRS Open Data", "wikidata": "Q92802175"}}, {"name": "N/A", "amenity": "post_box", "data_type": "node", "lat": "54.0249674", "lon": "-2.0605989", "other_tags": {"amenity": "post_box", "post_box:type": "wall", "royal_cypher": "EIIR"}}, {"name": "N/A", "amenity": "telephone", "data_type": "node", "lat": "54.0255200", "lon": "-2.0597610", "other_tags": {"amenity": "telephone", "booth": "K6", "covered": "booth", "source": "survey"}}, {"name": "N/A", "amenity": "bench", "data_type": "node", "lat": "54.0424577", "lon": "-2.0765864", "other_tags": {"amenity": "bench"}}, {"name": "N/A", "amenity": "bench", "data_type": "node", "lat": "54.0415448", "lon": "-2.0758252", "other_tags": {"amenity": "bench"}}, {"name": "N/A", "amenity": "bench", "data_type": "node", "lat": "54.0362128", "lon": "-2.0712503", "other_tags": {"amenity": "bench"}}, {"name": "N/A", "amenity": "bench", "data_type": "node", "lat": "54.0331400", "lon": "-2.0671276", "other_tags": {"amenity": "bench"}}, {"name": "N/A", "amenity": "waste_basket", "data_type": "node", "lat": "54.0269824", "lon": "-2.0593010", "other_tags": {"amenity": "waste_basket"}}, {"name": "N/A", "amenity": "waste_basket", "data_type": "node", "lat": "54.0247208", "lon": "-2.0608286", "other_tags": {"amenity": "waste_basket"}}, {"name": "N/A", "amenity": "bench", "data_type": "node", "lat": "54.0247114", "lon": "-2.0608430", "other_tags": {"amenity": "bench", "backrest": "yes"}}, {"name": "Hetton Methodist Church", "amenity": "place_of_worship", "data_type": "way", "lat": "54.0251345", "lon": "-2.0607001", "other_tags": {"amenity": "place_of_worship", "building": "yes", "denomination": "methodist", "name": "Hetton Methodist Church", "religion": "christian"}}]}, {"county": "North Yorkshire", "code": "E00140270", "lad": "Craven", "rgn_main": "Yorkshire and The Humber", "population": 153, "amenities": [{"name": "N/A", "amenity": "telephone", "data_type": "node", "lat": "54.0603342", "lon": "-2.0770439", "other_tags": {"amenity": "telephone", "booth": "K6", "check_date": "2021-09-05", "covered": "booth"}}, {"name": "N/A", "amenity": "parking", "data_type": "node", "lat": "54.0247247", "lon": "-2.0484434", "other_tags": {"amenity": "parking"}}, {"name": "N/A", "amenity": "grave_yard", "data_type": "way", "lat": "54.0250947", "lon": "-2.0455600", "other_tags": {"amenity": "grave_yard"}}, {"name": "St Peter", "amenity": "place_of_worship", "data_type": "way", "lat": "54.0254244", "lon": "-2.0448004", "other_tags": {"amenity": "place_of_worship", "building": "church", "denomination": "anglican", "name": "St Peter", "religion": "christian", "source": "NPE", "wikidata": "Q7595281", "wikipedia": "en:St Peter's Church, Rylstone"}}]}, {"county": "North Yorkshire", "code": "E00140271", "lad": "Craven", "rgn_main": "Yorkshire and The Humber", "population": 377, "amenities": [{"name": "N/A", "amenity": "post_box", "data_type": "node", "lat": "54.1032044", "lon": "-2.5052598", "other_tags": {"amenity": "post_box", "brand": "Royal Mail", "brand:wikidata": "Q638098", "brand:wikipedia": "en:Royal Mail", "operator": "Royal Mail", "operator:wikidata": "Q638098", "post_box:design": "hovis", "post_box:mounting": "wall", "post_box:type": "lamp", "ref": "LA2 58", "royal_cypher": "VR"}}, {"name": "N/A", "amenity": "telephone", "data_type": "node", "lat": "54.1031826", "lon": "-2.5049043", "other_tags": {"amenity": "telephone", "booth": "KX100", "covered": "booth"}}, {"name": "N/A", "amenity": "hunting_stand", "data_type": "node", "lat": "54.0871227", "lon": "-2.4880361", "other_tags": {"access": "private", "amenity": "hunting_stand", "hunting_stand": "grouse_butt"}}, {"name": "N/A", "amenity": "hunting_stand", "data_type": "node", "lat": "54.0874499", "lon": "-2.4887979", "other_tags": {"access": "private", "amenity": "hunting_stand", "hunting_stand": "grouse_butt"}}, {"name": "N/A", "amenity": "hunting_stand", "data_type": "node", "lat": "54.0877771", "lon": "-2.4895851", "other_tags": {"access": "private", "amenity": "hunting_stand", "hunting_stand": "grouse_butt"}}, {"name": "N/A", "amenity": "hunting_stand", "data_type": "node", "lat": "54.0881091", "lon": "-2.4901538", "other_tags": {"access": "private", "amenity": "hunting_stand", "hunting_stand": "grouse_butt"}}, {"name": "N/A", "amenity": "hunting_stand", "data_type": "node", "lat": "54.0868159", "lon": "-2.4872892", "other_tags": {"access": "private", "amenity": "hunting_stand", "hunting_stand": "grouse_butt"}}, {"name": "N/A", "amenity": "hunting_stand", "data_type": "node", "lat": "54.0863565", "lon": "-2.4861761", "other_tags": {"access": "private", "amenity": "hunting_stand", "hunting_stand": "grouse_butt"}}, {"name": "N/A", "amenity": "hunting_stand", "data_type": "node", "lat": "54.0865877", "lon": "-2.4867447", "other_tags": {"access": "private", "amenity": "hunting_stand", "hunting_stand": "grouse_butt"}}, {"name": "N/A", "amenity": "hunting_stand", "data_type": "node", "lat": "54.0861299", "lon": "-2.4856262", "other_tags": {"access": "private", "amenity": "hunting_stand", "hunting_stand": "grouse_butt"}}, {"name": "N/A", "amenity": "hunting_stand", "data_type": "node", "lat": "54.0858483", "lon": "-2.4849396", "other_tags": {"access": "private", "amenity": "hunting_stand", "hunting_stand": "grouse_butt"}}, {"name": "N/A", "amenity": "hunting_stand", "data_type": "node", "lat": "54.0855368", "lon": "-2.4842234", "other_tags": {"access": "private", "amenity": "hunting_stand", "hunting_stand": "grouse_butt"}}, {"name": "N/A", "amenity": "hunting_stand", "data_type": "node", "lat": "54.0854235", "lon": "-2.4832954", "other_tags": {"access": "private", "amenity": "hunting_stand", "hunting_stand": "grouse_butt"}}, {"name": "N/A", "amenity": "hunting_stand", "data_type": "node", "lat": "54.0853291", "lon": "-2.4825604", "other_tags": {"access": "private", "amenity": "hunting_stand", "hunting_stand": "grouse_butt"}}, {"name": "N/A", "amenity": "fuel", "data_type": "node", "lat": "54.1030772", "lon": "-2.5045231", "other_tags": {"amenity": "fuel"}}, {"name": "N/A", "amenity": "hunting_stand", "data_type": "node", "lat": "54.0915214", "lon": "-2.4929246", "other_tags": {"amenity": "hunting_stand", "hunting_stand": "grouse_butt"}}, {"name": "N/A", "amenity": "hunting_stand", "data_type": "node", "lat": "54.0918571", "lon": "-2.4922958", "other_tags": {"amenity": "hunting_stand", "hunting_stand": "grouse_butt"}}, {"name": "N/A", "amenity": "hunting_stand", "data_type": "node", "lat": "54.0922122", "lon": "-2.4916537", "other_tags": {"amenity": "hunting_stand", "hunting_stand": "grouse_butt"}}, {"name": "N/A", "amenity": "hunting_stand", "data_type": "node", "lat": "54.0925459", "lon": "-2.4909982", "other_tags": {"amenity": "hunting_stand", "hunting_stand": "grouse_butt"}}, {"name": "N/A", "amenity": "hunting_stand", "data_type": "node", "lat": "54.0928717", "lon": "-2.4904060", "other_tags": {"amenity": "hunting_stand", "hunting_stand": "grouse_butt"}}, {"name": "N/A", "amenity": "hunting_stand", "data_type": "node", "lat": "54.0932171", "lon": "-2.4898870", "other_tags": {"amenity": "hunting_stand", "hunting_stand": "grouse_butt"}}, {"name": "N/A", "amenity": "hunting_stand", "data_type": "node", "lat": "54.0934766", "lon": "-2.4894645", "other_tags": {"amenity": "hunting_stand", "hunting_stand": "grouse_butt"}}, {"name": "N/A", "amenity": "hunting_stand", "data_type": "node", "lat": "54.0937283", "lon": "-2.4890652", "other_tags": {"amenity": "hunting_stand", "hunting_stand": "grouse_butt"}}, {"name": "N/A", "amenity": "hunting_stand", "data_type": "node", "lat": "54.0939878", "lon": "-2.4886394", "other_tags": {"amenity": "hunting_stand", "hunting_stand": "grouse_butt"}}, {"name": "N/A", "amenity": "hunting_stand", "data_type": "node", "lat": "54.0942493", "lon": "-2.4882268", "other_tags": {"amenity": "hunting_stand", "hunting_stand": "grouse_butt"}}, {"name": "N/A", "amenity": "waste_basket", "data_type": "node", "lat": "54.1142354", "lon": "-2.5099238", "other_tags": {"amenity": "waste_basket", "description": "Dog waste bin attached to signpost.", "waste": "dog_excrement"}}, {"name": "N/A", "amenity": "bench", "data_type": "node", "lat": "54.1164902", "lon": "-2.5260783", "other_tags": {"amenity": "bench"}}, {"name": "N/A", "amenity": "bench", "data_type": "node", "lat": "54.1166978", "lon": "-2.5272578", "other_tags": {"amenity": "bench"}}, {"name": "N/A", "amenity": "bench", "data_type": "node", "lat": "54.1164474", "lon": "-2.5273389", "other_tags": {"amenity": "bench"}}, {"name": "N/A", "amenity": "bench", "data_type": "node", "lat": "54.1134139", "lon": "-2.5099617", "other_tags": {"amenity": "bench"}}, {"name": "N/A", "amenity": "grave_yard", "data_type": "way", "lat": "54.1144384", "lon": "-2.5088892", "other_tags": {"amenity": "grave_yard", "barrier": "wall", "description": "Churchyard closed for new burials\nOpen to the public\nMaintained by Craven District Council"}}, {"name": "N/A", "amenity": "parking", "data_type": "way", "lat": "54.0920306", "lon": "-2.5042899", "other_tags": {"access": "yes", "amenity": "parking", "capacity": "4", "fee": "no", "parking": "lane", "surface": "compacted"}}, {"name": "N/A", "amenity": "parking", "data_type": "way", "lat": "54.1141194", "lon": "-2.5080381", "other_tags": {"access": "permissive", "amenity": "parking", "description": "access only allowed for allotments when unloading", "fee": "no", "surface": "gravel"}}]}, {"county": "North Yorkshire", "code": "E00140272", "lad": "Craven", "rgn_main": "Yorkshire and The Humber", "population": 256, "amenities": [{"name": "Horse and Farrier", "amenity": "pub", "data_type": "node", "lat": "54.1183902", "lon": "-2.5149205", "other_tags": {"addr:housenumber": "83", "addr:postcode": "LA2 7HR", "addr:street": "Main Street", "addr:village": "High Bentham", "amenity": "pub", "fhrs:id": "292612", "name": "Horse and Farrier", "source:addr": "FHRS Open Data"}}, {"name": "N/A", "amenity": "post_box", "data_type": "node", "lat": "54.1204153", "lon": "-2.5231648", "other_tags": {"amenity": "post_box", "brand": "Royal Mail", "brand:wikidata": "Q638098", "brand:wikipedia": "en:Royal Mail", "collection_times": "Mo-Fr 09:00; Sa 07:00", "colour": "red", "drive_through": "no", "operator": "Royal Mail", "operator:wikidata": "Q638098", "post_box:mounting": "wall", "ref": "LA2 131D", "royal_cypher": "GR"}}, {"name": "Dentist", "amenity": "hospital", "data_type": "node", "lat": "54.1184219", "lon": "-2.5136925", "other_tags": {"amenity": "hospital", "name": "Dentist", "source": "Bing"}}, {"name": "N/A", "amenity": "waste_basket", "data_type": "node", "lat": "54.1182206", "lon": "-2.5121818", "other_tags": {"amenity": "waste_basket", "colour": "black", "material": "plastic", "operator": "Craven Council"}}, {"name": "N/A", "amenity": "bench", "data_type": "node", "lat": "54.1192429", "lon": "-2.5159227", "other_tags": {"amenity": "bench"}}, {"name": "Bentham Community Primary School", "amenity": "school", "data_type": "way", "lat": "54.1190255", "lon": "-2.5198067", "other_tags": {"addr:city": "High Bentham", "addr:postcode": "LA2 7BP", "addr:street": "Low Bentham Road", "amenity": "school", "name": "Bentham Community Primary School", "ref:edubase": "121380"}}, {"name": "N/A", "amenity": "parking_space", "data_type": "way", "lat": "54.1198744", "lon": "-2.5210069", "other_tags": {"amenity": "parking_space", "capacity": "1", "parking_space": "disabled"}}, {"name": "N/A", "amenity": "parking_space", "data_type": "way", "lat": "54.1198304", "lon": "-2.5210174", "other_tags": {"amenity": "parking_space", "capacity": "1", "parking_space": "disabled"}}, {"name": "N/A", "amenity": "parking", "data_type": "way", "lat": "54.1198762", "lon": "-2.5210269", "other_tags": {"access": "private", "amenity": "parking", "parking": "surface"}}, {"name": "N/A", "amenity": "shelter", "data_type": "way", "lat": "54.1194424", "lon": "-2.5202963", "other_tags": {"amenity": "shelter", "building": "yes"}}, {"name": "N/A", "amenity": "shelter", "data_type": "way", "lat": "54.1192556", "lon": "-2.5160095", "other_tags": {"amenity": "shelter", "building": "yes", "shelter_type": "public_transport"}}]}, {"county": "North Yorkshire", "code": "E00140273", "lad": "Craven", "rgn_main": "Yorkshire and The Humber", "population": 379, "amenities": [{"name": "St Boniface", "amenity": "place_of_worship", "data_type": "node", "lat": "54.1203386", "lon": "-2.5081338", "other_tags": {"amenity": "place_of_worship", "denomination": "roman_catholic", "name": "St Boniface", "religion": "christian"}}, {"name": "N/A", "amenity": "bench", "data_type": "node", "lat": "54.1154399", "lon": "-2.5099755", "other_tags": {"access": "yes", "amenity": "bench", "backrest": "yes", "material": "wood"}}, {"name": "N/A", "amenity": "waste_basket", "data_type": "node", "lat": "54.1181901", "lon": "-2.5089111", "other_tags": {"amenity": "waste_basket"}}, {"name": "N/A", "amenity": "bicycle_parking", "data_type": "node", "lat": "54.1181891", "lon": "-2.5088982", "other_tags": {"access": "yes", "amenity": "bicycle_parking", "bicycle_parking": "wall_loops", "capacity": "5", "covered": "no", "fee": "no"}}, {"name": "N/A", "amenity": "parking", "data_type": "way", "lat": "54.1194583", "lon": "-2.5052874", "other_tags": {"amenity": "parking", "fee": "no"}}, {"name": "Bowland View", "amenity": "social_facility", "data_type": "way", "lat": "54.1188168", "lon": "-2.5086702", "other_tags": {"addr:city": "High Bentham", "addr:housename": "Bowland View", "addr:postcode": "LA2 7FS", "addr:street": "Scholars Rise", "amenity": "social_facility", "name": "Bowland View", "operator": "Housing21", "social_facility": "group_home", "social_facility:for": "senior"}}, {"name": "N/A", "amenity": "shelter", "data_type": "way", "lat": "54.1181921", "lon": "-2.5089043", "other_tags": {"amenity": "shelter", "bin": "yes", "building": "yes", "shelter_type": "public_transport"}}]}, {"county": "North Yorkshire", "code": "E00140274", "lad": "Craven", "rgn_main": "Yorkshire and The Humber", "population": 228, "amenities": [{"name": "N/A", "amenity": "toilets", "data_type": "node", "lat": "54.1177224", "lon": "-2.5099388", "other_tags": {"amenity": "toilets"}}, {"name": "Well Pharmacy", "amenity": "pharmacy", "data_type": "node", "lat": "54.1181192", "lon": "-2.5107996", "other_tags": {"addr:city": "High Bentham", "addr:housenumber": "24", "addr:postcode": "LA2 7HL", "addr:street": "Main Street", "amenity": "pharmacy", "brand": "Well Pharmacy", "brand:wikidata": "Q7726524", "dispensing": "yes", "healthcare": "pharmacy", "name": "Well Pharmacy", "opening_hours": "Mo-Fr 09:00-18:00; Sa 09:00-13:00", "operator": "Bestway Group"}}, {"name": "Bentham Post Office", "amenity": "post_office", "data_type": "node", "lat": "54.1179141", "lon": "-2.5095027", "other_tags": {"amenity": "post_office", "name": "Bentham Post Office", "source": "Bing"}}, {"name": "Town Hall Parking", "amenity": "parking", "data_type": "node", "lat": "54.1174941", "lon": "-2.5095292", "other_tags": {"amenity": "parking", "name": "Town Hall Parking", "parking": "surface"}}, {"name": "Black Bull", "amenity": "pub", "data_type": "node", "lat": "54.1179072", "lon": "-2.5099668", "other_tags": {"addr:city": "Lancaster", "addr:housenumber": "13", "addr:postcode": "LA2 7HF", "addr:street": "Main Street", "addr:village": "High Bentham", "amenity": "pub", "fhrs:id": "292573", "name": "Black Bull", "source:addr": "FHRS Open Data"}}, {"name": "N/A", "amenity": "post_box", "data_type": "node", "lat": "54.1181610", "lon": "-2.5110960", "other_tags": {"amenity": "post_box", "brand": "Royal Mail", "brand:wikidata": "Q638098", "brand:wikipedia": "en:Royal Mail", "collection_times": "Mo-Fr 16:45; Sa 10:30", "operator": "Royal Mail", "operator:wikidata": "Q638098", "post_box:design": "type_k", "post_box:type": "pillar", "ref": "LA2 123", "royal_cypher": "EIIR"}}, {"name": "Hoggs \u2019n\u2019 Heifers", "amenity": "pub", "data_type": "node", "lat": "54.1177635", "lon": "-2.5089302", "other_tags": {"addr:postcode": "LA2 7HF", "addr:street": "Main Street", "addr:village": "High Bentham", "amenity": "pub", "fhrs:id": "1222220", "name": "Hoggs \u2019n\u2019 Heifers", "source:addr": "FHRS Open Data"}}, {"name": "37 Main Street", "amenity": "cafe", "data_type": "node", "lat": "54.1181203", "lon": "-2.5116642", "other_tags": {"amenity": "cafe", "name": "37 Main Street"}}, {"name": "Barclays", "amenity": "bank", "data_type": "node", "lat": "54.1180666", "lon": "-2.5103418", "other_tags": {"amenity": "bank", "atm": "no", "brand": "Barclays", "brand:wikidata": "Q245343", "name": "Barclays", "opening_hours": "Mo-Tu 09:30-15:30; We 10:00-15:30; Fr 09:30-15:30", "operator": "Barclays Bank PLC", "source": "Bing"}}, {"name": "N/A", "amenity": "parking", "data_type": "node", "lat": "54.1168625", "lon": "-2.5098746", "other_tags": {"access": "permissive", "amenity": "parking", "parking": "surface"}}, {"name": "N/A", "amenity": "parking", "data_type": "node", "lat": "54.1170669", "lon": "-2.5098370", "other_tags": {"access": "permissive", "amenity": "parking"}}, {"name": "Methodist Chapel", "amenity": "place_of_worship", "data_type": "node", "lat": "54.1168947", "lon": "-2.5094935", "other_tags": {"amenity": "place_of_worship", "denomination": "methodist", "name": "Methodist Chapel", "religion": "christian"}}, {"name": "Coach House Inn", "amenity": "pub", "data_type": "node", "lat": "54.1181543", "lon": "-2.5102198", "other_tags": {"addr:postcode": "LA2 7HE", "addr:street": "Main Street", "addr:village": "High Bentham", "amenity": "pub", "fhrs:id": "292659", "name": "Coach House Inn", "source": "Bing", "source:addr": "FHRS Open Data"}}, {"name": "Fish Inn Takeaway/Cafe", "amenity": "fast_food", "data_type": "node", "lat": "54.1180655", "lon": "-2.5106149", "other_tags": {"addr:city": "Bentham", "addr:housenumber": "22", "addr:postcode": "LA2 7HL", "addr:street": "Main Street", "amenity": "fast_food", "cuisine": "fish_and_chips", "name": "Fish Inn Takeaway/Cafe", "opening_hours": "We 12:00-13:30, 17:00-20:00; Fr 12:00-13:30, 17:00-20:00; Sa 12:00-13:30, 17:00-19:30", "phone": "+44 15242 61403"}}, {"name": "Asian Spice", "amenity": "restaurant", "data_type": "node", "lat": "54.1180867", "lon": "-2.5096895", "other_tags": {"amenity": "restaurant", "cuisine": "indian", "name": "Asian Spice", "opening_hours": "Mo-Th 17:30-23:00; Fr-Sa 17:30-23:30; Su 17:30-23:00"}}, {"name": "N/A", "amenity": "parking", "data_type": "node", "lat": "54.1184298", "lon": "-2.5096892", "other_tags": {"amenity": "parking", "parking": "surface"}}, {"name": "N/A", "amenity": "post_box", "data_type": "node", "lat": "54.1140657", "lon": "-2.5100386", "other_tags": {"amenity": "post_box", "brand": "Royal Mail", "brand:wikidata": "Q638098", "brand:wikipedia": "en:Royal Mail", "collection_times": "Mo-Fr 09:00; Sa 07:00", "colour": "red", "drive_through": "no", "operator": "Royal Mail", "operator:wikidata": "Q638098", "ref": "LA2 110", "royal_cypher": "GR"}}, {"name": "N/A", "amenity": "bicycle_parking", "data_type": "node", "lat": "54.1155546", "lon": "-2.5108014", "other_tags": {"access": "customers", "amenity": "bicycle_parking", "bicycle_parking": "stands", "capacity": "6", "covered": "no", "operator": "Northern Rail"}}, {"name": "N/A", "amenity": "telephone", "data_type": "node", "lat": "54.1180788", "lon": "-2.5086185", "other_tags": {"amenity": "telephone", "booth": "KX100", "covered": "booth"}}, {"name": "N/A", "amenity": "bench", "data_type": "node", "lat": "54.1181740", "lon": "-2.5088022", "other_tags": {"amenity": "bench"}}, {"name": "Amazon Locker", "amenity": "parcel_locker", "data_type": "node", "lat": "54.1156239", "lon": "-2.5109637", "other_tags": {"amenity": "parcel_locker", "brand": "Amazon Hub", "brand:wikidata": "Q16974764", "brand:wikipedia": "en:Amazon Locker", "name": "Amazon Locker"}}, {"name": "N/A", "amenity": "waste_basket", "data_type": "node", "lat": "54.1141226", "lon": "-2.5121271", "other_tags": {"amenity": "waste_basket"}}, {"name": "N/A", "amenity": "waste_basket", "data_type": "node", "lat": "54.1145361", "lon": "-2.5103366", "other_tags": {"amenity": "waste_basket"}}, {"name": "N/A", "amenity": "bench", "data_type": "node", "lat": "54.1145847", "lon": "-2.5106007", "other_tags": {"amenity": "bench"}}, {"name": "N/A", "amenity": "waste_basket", "data_type": "node", "lat": "54.1142176", "lon": "-2.5101166", "other_tags": {"amenity": "waste_basket", "description": "Plastic waste bin attached to \"give way\" sign pole."}}, {"name": "N/A", "amenity": "bench", "data_type": "node", "lat": "54.1155741", "lon": "-2.5109369", "other_tags": {"amenity": "bench", "backrest": "yes", "material": "wood"}}, {"name": "N/A", "amenity": "shelter", "data_type": "node", "lat": "54.1156176", "lon": "-2.5110301", "other_tags": {"amenity": "shelter", "bench": "yes", "shelter_type": "public_transport"}}, {"name": "N/A", "amenity": "bench", "data_type": "node", "lat": "54.1181597", "lon": "-2.5087904", "other_tags": {"amenity": "bench"}}, {"name": "N/A", "amenity": "bench", "data_type": "node", "lat": "54.1181490", "lon": "-2.5087671", "other_tags": {"amenity": "bench"}}, {"name": "Market Square", "amenity": "parking", "data_type": "way", "lat": "54.1185369", "lon": "-2.5097794", "other_tags": {"amenity": "parking", "name": "Market Square"}}, {"name": "Bentham Town Hall", "amenity": "townhall", "data_type": "way", "lat": "54.1177534", "lon": "-2.5100678", "other_tags": {"addr:housename": "Town Hall", "addr:postcode": "LA2 7LH", "addr:street": "Station Road", "amenity": "townhall", "building": "public", "name": "Bentham Town Hall"}}, {"name": "N/A", "amenity": "parking", "data_type": "way", "lat": "54.1176683", "lon": "-2.5092830", "other_tags": {"amenity": "parking"}}, {"name": "Methodist Church", "amenity": "place_of_worship", "data_type": "way", "lat": "54.1168240", "lon": "-2.5097389", "other_tags": {"amenity": "place_of_worship", "building": "church", "denomination": "methodist", "name": "Methodist Church", "religion": "christian", "source": "survey"}}, {"name": "N/A", "amenity": "parking", "data_type": "way", "lat": "54.1180698", "lon": "-2.5086059", "other_tags": {"access": "private", "amenity": "parking", "capacity": "8", "parking": "surface", "surface": "asphalt"}}]}, {"county": "North Yorkshire", "code": "E00140275", "lad": "Craven", "rgn_main": "Yorkshire and The Humber", "population": 258, "amenities": [{"name": "N/A", "amenity": "post_box", "data_type": "node", "lat": "54.1215664", "lon": "-2.5077117", "other_tags": {"amenity": "post_box", "brand": "Royal Mail", "brand:wikidata": "Q638098", "brand:wikipedia": "en:Royal Mail", "collection_times": "Mo-Fr 09:00; Sa 07:00", "colour": "red", "drive_through": "no", "operator": "Royal Mail", "operator:wikidata": "Q638098", "post_box:mounting": "wall", "post_box:type": "wall", "ref": "LA2 80D", "royal_cypher": "EIIR"}}, {"name": "N/A", "amenity": "post_box", "data_type": "node", "lat": "54.1184434", "lon": "-2.5005676", "other_tags": {"amenity": "post_box", "ref": "LA2 165", "source": "survey"}}]}, {"county": "North Yorkshire", "code": "E00140276", "lad": "Craven", "rgn_main": "Yorkshire and The Humber", "population": 317, "amenities": [{"name": "Sun Dial Inn", "amenity": "pub", "data_type": "node", "lat": "54.1194168", "lon": "-2.5370420", "other_tags": {"addr:city": "Lancaster", "addr:county": "North Yorkshire", "addr:postcode": "LA2 7DS", "addr:street": "Doctors Hill", "addr:village": "Low Bentham", "amenity": "pub", "fhrs:id": "292703", "name": "Sun Dial Inn", "source:addr": "FHRS Open Data"}}, {"name": "N/A", "amenity": "telephone", "data_type": "node", "lat": "54.1191139", "lon": "-2.5370007", "other_tags": {"amenity": "telephone", "booth": "KX100", "covered": "booth", "source": "survey"}}, {"name": "Low Bentham Post Office", "amenity": "post_office", "data_type": "node", "lat": "54.1190197", "lon": "-2.5369044", "other_tags": {"addr:country": "GB", "addr:postcode": "LA2 7BX", "amenity": "post_office", "brand": "Post Office", "brand:wikidata": "Q1783168", "contact:website": "https://www.postoffice.co.uk/branch-finder/6284701/low-bentham", "name": "Low Bentham Post Office", "ref:pol_id": "116569"}}, {"name": "N/A", "amenity": "bench", "data_type": "node", "lat": "54.1209168", "lon": "-2.5370613", "other_tags": {"amenity": "bench"}}, {"name": "N/A", "amenity": "waste_basket", "data_type": "node", "lat": "54.1209608", "lon": "-2.5371122", "other_tags": {"amenity": "waste_basket"}}, {"name": "N/A", "amenity": "bench", "data_type": "node", "lat": "54.1207399", "lon": "-2.5363156", "other_tags": {"amenity": "bench", "backrest": "yes"}}, {"name": "N/A", "amenity": "waste_basket", "data_type": "node", "lat": "54.1207399", "lon": "-2.5361319", "other_tags": {"amenity": "waste_basket"}}, {"name": "N/A", "amenity": "waste_basket", "data_type": "node", "lat": "54.1191923", "lon": "-2.5374314", "other_tags": {"amenity": "waste_basket"}}, {"name": "Victorian Institute", "amenity": "community_centre", "data_type": "relation", "lat": "54.1188845", "lon": "-2.5369759", "other_tags": {"amenity": "community_centre", "building": "yes", "name": "Victorian Institute", "type": "multipolygon"}}, {"name": "N/A", "amenity": "parking", "data_type": "way", "lat": "54.1187139", "lon": "-2.5354100", "other_tags": {"amenity": "parking", "fee": "no", "parking": "surface", "source": "survey"}}, {"name": "N/A", "amenity": "parking", "data_type": "way", "lat": "54.1196423", "lon": "-2.5367662", "other_tags": {"amenity": "parking", "parking": "street_side"}}]}, {"county": "North Yorkshire", "code": "E00140277", "lad": "Craven", "rgn_main": "Yorkshire and The Humber", "population": 380, "amenities": [{"name": "N/A", "amenity": "post_box", "data_type": "node", "lat": "54.1359212", "lon": "-2.5418041", "other_tags": {"amenity": "post_box", "created_by": "Potlatch 0.10f", "ref": "LA6 8"}}, {"name": "The Punch Bowl Hotel", "amenity": "pub", "data_type": "node", "lat": "54.1187073", "lon": "-2.5426148", "other_tags": {"addr:city": "Lancaster", "addr:country": "GB", "addr:hamlet": "Low Bentham", "addr:postcode": "LA2 7DD", "amenity": "pub", "fhrs:id": "292695", "name": "The Punch Bowl Hotel", "source": "bing", "source:addr": "FHRS Open Data"}}, {"name": "N/A", "amenity": "parking", "data_type": "way", "lat": "54.1421833", "lon": "-2.5284758", "other_tags": {"amenity": "parking", "capacity": "10", "designation": "car_parking", "operator": "Burton in Lonsdale Parish Council", "source": "survey"}}, {"name": "N/A", "amenity": "public_building", "data_type": "way", "lat": "54.1422405", "lon": "-2.5289918", "other_tags": {"amenity": "public_building", "building": "yes", "designation": "changing_rooms", "source": "survey"}}, {"name": "Cedar House School", "amenity": "school", "data_type": "way", "lat": "54.1179117", "lon": "-2.5460436", "other_tags": {"addr:city": "Lancaster", "addr:country": "GB", "addr:hamlet": "Low Bentham", "addr:postcode": "LA2 7DD", "alt_name": "Sedbergh Junior School", "amenity": "school", "capacity": "88", "fhrs:id": "531685", "max_age": "18", "min_age": "7", "name": "Cedar House School", "phone": "+44 15242 61149", "ref:GB:uprn": "10012775913", "ref:edubase": "112456", "religion": "none", "school:boarding": "yes", "school:gender": "mixed", "school:selective": "no", "school:trust": "no", "school:type": "special", "source:addr": "edubase", "source:geometry": "OS_Open_Map_Local_FunctionalSite", "source:name": "edubase", "website": "https://www.witherslackgroup.co.uk/cedar-house-school"}}, {"name": "N/A", "amenity": "parking", "data_type": "way", "lat": "54.1185620", "lon": "-2.5431090", "other_tags": {"access": "customers", "amenity": "parking", "fee": "no"}}, {"name": "St John the Baptist", "amenity": "place_of_worship", "data_type": "way", "lat": "54.1180523", "lon": "-2.5451275", "other_tags": {"amenity": "place_of_worship", "building": "yes", "denomination": "anglican", "name": "St John the Baptist", "religion": "christian", "wikidata": "Q17534944"}}, {"name": "N/A", "amenity": "parking", "data_type": "way", "lat": "54.1192909", "lon": "-2.5491413", "other_tags": {"amenity": "parking", "note": "I assume this is for a business?", "parking": "surface"}}]}, {"county": "North Yorkshire", "code": "E00140278", "lad": "Craven", "rgn_main": "Yorkshire and The Humber", "population": 261, "amenities": []}, {"county": "North Yorkshire", "code": "E00140279", "lad": "Craven", "rgn_main": "Yorkshire and The Humber", "population": 332, "amenities": [{"name": "N/A", "amenity": "recycling", "data_type": "node", "lat": "54.1186939", "lon": "-2.5106931", "other_tags": {"amenity": "recycling", "recycling_type": "container"}}, {"name": "Peacock Takeaway", "amenity": "fast_food", "data_type": "node", "lat": "54.1183453", "lon": "-2.5128398", "other_tags": {"amenity": "fast_food", "cuisine": "chinese", "name": "Peacock Takeaway", "opening_hours": "Tu-Su 05:00-22:00"}}, {"name": "N/A", "amenity": "grit_bin", "data_type": "node", "lat": "54.1198977", "lon": "-2.5118296", "other_tags": {"amenity": "grit_bin"}}, {"name": "N/A", "amenity": "grit_bin", "data_type": "node", "lat": "54.1199933", "lon": "-2.5118025", "other_tags": {"amenity": "grit_bin"}}, {"name": "G & Mo's", "amenity": "cafe", "data_type": "node", "lat": "54.1183402", "lon": "-2.5122455", "other_tags": {"amenity": "cafe", "name": "G & Mo's", "opening_hours": "Mo-We 09:30-16:30; Fr 09:30-16:30; Sa 09:30-13:30"}}, {"name": "N/A", "amenity": "parking", "data_type": "way", "lat": "54.1188219", "lon": "-2.5105887", "other_tags": {"amenity": "parking", "parking": "surface"}}, {"name": "Bentham Medical Practice", "amenity": "doctors", "data_type": "way", "lat": "54.1190211", "lon": "-2.5119331", "other_tags": {"addr:postcode": "LA2 7JP", "addr:street": "Grasmere Drive", "amenity": "doctors", "building": "health_centre", "contact:phone": "+44 15242 61202", "name": "Bentham Medical Practice", "opening_hours": "Mo-Fr 08:00-18:30", "website": "https://www.benthamsurgery.org.uk/"}}, {"name": "Bentham Fire Station", "amenity": "fire_station", "data_type": "way", "lat": "54.1199839", "lon": "-2.5117829", "other_tags": {"addr:city": "High Bentham", "addr:postcode": "LA2 7JW", "addr:street": "Banks Rise", "amenity": "fire_station", "name": "Bentham Fire Station", "operator": "North Yorkshire Fire and Rescue Service", "operator:wikidata": "Q7057460"}}]}, {"county": "North Yorkshire", "code": "E00140280", "lad": "Craven", "rgn_main": "Yorkshire and The Humber", "population": 245, "amenities": [{"name": "N/A", "amenity": "post_box", "data_type": "node", "lat": "54.1185243", "lon": "-2.5152813", "other_tags": {"amenity": "post_box", "brand": "Royal Mail", "brand:wikidata": "Q638098", "brand:wikipedia": "en:Royal Mail", "collection_times": "Mo-Fr 09:00; Sa 07:00", "colour": "red", "drive_through": "no", "operator": "Royal Mail", "operator:wikidata": "Q638098", "post_box:mounting": "wall", "ref": "LA2 157D", "royal_cypher": "GVIR"}}, {"name": "N/A", "amenity": "waste_basket", "data_type": "node", "lat": "54.1181103", "lon": "-2.5156009", "other_tags": {"amenity": "waste_basket", "waste": "dog_excrement"}}, {"name": "N/A", "amenity": "parking", "data_type": "way", "lat": "54.1139785", "lon": "-2.5118849", "other_tags": {"amenity": "parking"}}]}, {"county": "North Yorkshire", "code": "E00140281", "lad": "Craven", "rgn_main": "Yorkshire and The Humber", "population": 321, "amenities": [{"name": "The Punch Bowl", "amenity": "pub", "data_type": "node", "lat": "54.1438091", "lon": "-2.5331413", "other_tags": {"addr:city": "Burton in Lonsdale", "addr:housenumber": "9", "addr:postcode": "LA6 3LF", "addr:street": "Low Street", "amenity": "pub", "name": "The Punch Bowl", "outdoor_seating": "yes", "smoking": "outside"}}, {"name": "The Punch Bowl", "amenity": "pub", "data_type": "way", "lat": "54.1437450", "lon": "-2.5331253", "other_tags": {"addr:city": "Carnforth", "addr:housenumber": "9", "addr:postcode": "LA6 3LF", "addr:street": "Low Street", "addr:village": "Burton In Lonsdale", "alt_name": "Punch Bowl Hotel", "amenity": "pub", "building": "yes", "fhrs:id": "292322", "name": "The Punch Bowl", "source:addr": "FHRS Open Data"}}]}, {"county": "North Yorkshire", "code": "E00140282", "lad": "Craven", "rgn_main": "Yorkshire and The Humber", "population": 254, "amenities": [{"name": "Burton Community Shop", "amenity": "post_office", "data_type": "node", "lat": "54.1448930", "lon": "-2.5339583", "other_tags": {"addr:housenumber": "27", "addr:postcode": "LA6 3JU", "addr:street": "High Street", "addr:village": "Burton in Lonsdale", "amenity": "post_office", "name": "Burton Community Shop", "opening_hours": "Mo-Fr 07:00-19:00; Sa 07:00-13:00,18:00-19:00; Su 08:00-13:00", "opening_hours:post_office": "Mo-Fr 09:00-13:00", "ref:pol_id": "4103", "shop": "convenience", "source:opening_hours": "website", "source:opening_hours:post_office": "pol_branch_list_2018-02", "website": "http://www.burtonshop.co.uk/"}}, {"name": "Burton in Lonsdale Methodist Chapel", "amenity": "place_of_worship", "data_type": "node", "lat": "54.1446457", "lon": "-2.5339618", "other_tags": {"amenity": "place_of_worship", "denomination": "methodist", "name": "Burton in Lonsdale Methodist Chapel", "religion": "christian"}}, {"name": "N/A", "amenity": "post_box", "data_type": "node", "lat": "54.1448651", "lon": "-2.5339296", "other_tags": {"amenity": "post_box", "post_box:type": "pillar", "ref": "LA6 123"}}, {"name": "N/A", "amenity": "telephone", "data_type": "node", "lat": "54.1445403", "lon": "-2.5349882", "other_tags": {"amenity": "telephone", "booth": "KX100", "covered": "booth", "source": "survey"}}, {"name": "N/A", "amenity": "bench", "data_type": "node", "lat": "54.1446797", "lon": "-2.5394224", "other_tags": {"amenity": "bench", "backrest": "yes", "check_date": "2020-12-27"}}, {"name": "All Saints Church", "amenity": "place_of_worship", "data_type": "way", "lat": "54.1439306", "lon": "-2.5353513", "other_tags": {"amenity": "place_of_worship", "building": "church", "denomination": "anglican", "name": "All Saints Church", "religion": "christian", "wikidata": "Q4729451", "wikipedia": "en:All Saints Church, Burton in Lonsdale"}}, {"name": "Burton in Lonsdale Village Hall", "amenity": "community_centre", "data_type": "way", "lat": "54.1444123", "lon": "-2.5346369", "other_tags": {"addr:city": "Burton in Lonsdale", "addr:postcode": "LA6 3JU", "addr:street": "High Street", "amenity": "community_centre", "building": "public", "community_centre": "village_hall", "name": "Burton in Lonsdale Village Hall", "website": "https://www.burton-in-lonsdale-village-hall.co.uk/"}}, {"name": "N/A", "amenity": "parking", "data_type": "way", "lat": "54.1469953", "lon": "-2.5312472", "other_tags": {"access": "private", "amenity": "parking"}}, {"name": "N/A", "amenity": "grave_yard", "data_type": "way", "lat": "54.1439373", "lon": "-2.5359167", "other_tags": {"amenity": "grave_yard"}}]}, {"county": "North Yorkshire", "code": "E00140283", "lad": "Craven", "rgn_main": "Yorkshire and The Humber", "population": 343, "amenities": [{"name": "Drystone Radio", "amenity": "studio", "data_type": "node", "lat": "53.8849214", "lon": "-2.0407596", "other_tags": {"addr:city": "Keighley", "addr:housename": "Drystone Radio", "addr:housenumber": "82", "addr:postcode": "BD22 0BA", "addr:street": "Keighley Road", "addr:village": "Cowling", "amenity": "studio", "email": "email@drystoneradio.com", "name": "Drystone Radio", "phone": "+44 1535 634286", "studio": "radio", "website": "http://www.drystoneradio.com"}}]}, {"county": "North Yorkshire", "code": "E00140284", "lad": "Craven", "rgn_main": "Yorkshire and The Humber", "population": 527, "amenities": [{"name": "N/A", "amenity": "post_box", "data_type": "node", "lat": "53.8844854", "lon": "-2.0421148", "other_tags": {"amenity": "post_box", "collection_times": "Mo-Fr 17:00; Sa 10:30", "operator": "Royal Mail", "post_box:type": "lamp", "ref": "BD22 90", "royal_cypher": "EIIR", "source": "survey", "survey:date": "2015-05-21"}}, {"name": "N/A", "amenity": "grave_yard", "data_type": "way", "lat": "53.8843600", "lon": "-2.0489289", "other_tags": {"amenity": "grave_yard", "source": "View from SW;Bing"}}, {"name": "Cowling Village Hall", "amenity": "townhall", "data_type": "way", "lat": "53.8841452", "lon": "-2.0431841", "other_tags": {"amenity": "townhall", "building": "yes", "name": "Cowling Village Hall"}}, {"name": "Village Hall Car Park", "amenity": "parking", "data_type": "way", "lat": "53.8838696", "lon": "-2.0428532", "other_tags": {"amenity": "parking", "fee": "no", "name": "Village Hall Car Park"}}, {"name": "Holy Trinity", "amenity": "place_of_worship", "data_type": "way", "lat": "53.8841565", "lon": "-2.0497792", "other_tags": {"amenity": "place_of_worship", "building": "yes", "denomination": "anglican", "name": "Holy Trinity", "religion": "christian", "wikidata": "Q26603232"}}]}, {"county": "North Yorkshire", "code": "E00140285", "lad": "Craven", "rgn_main": "Yorkshire and The Humber", "population": 365, "amenities": [{"name": "N/A", "amenity": "parking", "data_type": "node", "lat": "53.8762715", "lon": "-2.0762481", "other_tags": {"amenity": "parking", "description": "Layby", "ele": "252.0000000"}}, {"name": "N/A", "amenity": "shelter", "data_type": "node", "lat": "53.8578928", "lon": "-2.0439906", "other_tags": {"amenity": "shelter", "roof": "no"}}, {"name": "N/A", "amenity": "bench", "data_type": "node", "lat": "53.8928425", "lon": "-2.0508872", "other_tags": {"amenity": "bench"}}, {"name": "N/A", "amenity": "bench", "data_type": "node", "lat": "53.8927889", "lon": "-2.0509999", "other_tags": {"amenity": "bench"}}, {"name": "N/A", "amenity": "parking", "data_type": "way", "lat": "53.8793468", "lon": "-2.0682730", "other_tags": {"amenity": "parking"}}, {"name": "N/A", "amenity": "parking", "data_type": "way", "lat": "53.8787325", "lon": "-2.0700915", "other_tags": {"amenity": "parking"}}]}, {"county": "North Yorkshire", "code": "E00140286", "lad": "Craven", "rgn_main": "Yorkshire and The Humber", "population": 351, "amenities": [{"name": "N/A", "amenity": "bench", "data_type": "node", "lat": "53.8786176", "lon": "-2.0294322", "other_tags": {"amenity": "bench"}}, {"name": "N/A", "amenity": "telephone", "data_type": "node", "lat": "53.8899537", "lon": "-2.0333324", "other_tags": {"amenity": "telephone", "booth": "KX100", "covered": "booth"}}, {"name": "N/A", "amenity": "parking", "data_type": "way", "lat": "53.8794081", "lon": "-2.0242552", "other_tags": {"amenity": "parking", "source": "survey;Bing"}}]}, {"county": "North Yorkshire", "code": "E00140287", "lad": "Craven", "rgn_main": "Yorkshire and The Humber", "population": 303, "amenities": [{"name": "N/A", "amenity": "post_box", "data_type": "node", "lat": "53.8836345", "lon": "-2.0505776", "other_tags": {"amenity": "post_box", "collection_times": "Mo-Fr 09:00; Sa 07:00", "operator": "Royal Mail", "post_box:type": "lamp", "ref": "BD22 72", "royal_cypher": "EIIR", "source": "survey", "survey:date": "2015-05-21"}}, {"name": "Cowling Community Primary School", "amenity": "school", "data_type": "way", "lat": "53.8854768", "lon": "-2.0496175", "other_tags": {"addr:city": "Keighley", "addr:county": "North Yorkshire", "addr:postcode": "BD22 0DF", "addr:street": "Meadow Lane", "addr:village": "Cowling", "amenity": "school", "fhrs:id": "292402", "fixme": "Guessed at the boundary", "name": "Cowling Community Primary School", "phone": "+44 1535 632198", "ref:edubase": "121388", "source": "Bing", "website": "http://cowling.n-yorks.sch.uk"}}]}, {"county": "North Yorkshire", "code": "E00140288", "lad": "Craven", "rgn_main": "Yorkshire and The Humber", "population": 259, "amenities": [{"name": "Cowling Chippy", "amenity": "fast_food", "data_type": "node", "lat": "53.8873831", "lon": "-2.0381860", "other_tags": {"addr:city": "Keighley", "addr:housenumber": "223", "addr:postcode": "BD22 0AH", "addr:street": "Keighley Road", "addr:village": "Cowling", "amenity": "fast_food", "cuisine": "fish_and_chips", "fhrs:id": "292386", "name": "Cowling Chippy", "source": "survey", "source:addr": "FHRS Open Data", "survey:date": "2015-05-21"}}, {"name": "N/A", "amenity": "post_box", "data_type": "node", "lat": "53.8871981", "lon": "-2.0382349", "other_tags": {"amenity": "post_box", "brand": "Royal Mail", "brand:wikidata": "Q638098", "brand:wikipedia": "en:Royal Mail", "collection_times": "Mo-Fr 09:00; Sa 07:00", "operator": "Royal Mail", "operator:wikidata": "Q638098", "post_box:type": "wall", "ref": "BD22 138", "royal_cypher": "EIIR", "source": "survey", "survey:date": "2015-05-21"}}]}, {"county": "North Yorkshire", "code": "E00140289", "lad": "Craven", "rgn_main": "Yorkshire and The Humber", "population": 310, "amenities": [{"name": "St. Andrews", "amenity": "place_of_worship", "data_type": "way", "lat": "53.8845348", "lon": "-2.0398792", "other_tags": {"amenity": "place_of_worship", "building": "chapel", "name": "St. Andrews", "religion": "christian"}}]}, {"county": "North Yorkshire", "code": "E00140290", "lad": "Craven", "rgn_main": "Yorkshire and The Humber", "population": 354, "amenities": [{"name": "Embsay Church of England Voluntary Controlled Primary School", "amenity": "school", "data_type": "way", "lat": "53.9809106", "lon": "-1.9907771", "other_tags": {"addr:city": "Skipton", "addr:postcode": "BD23 6RH", "addr:street": "Pasture Road", "addr:village": "Embsay", "amenity": "school", "capacity": "208", "denomination": "anglican", "diocese": "Diocese of Leeds", "isced:level": "1", "max_age": "11", "min_age": "4", "name": "Embsay Church of England Voluntary Controlled Primary School", "phone": "+44 1756 793426", "ref:GB:uprn": "100051947015", "ref:edubase": "121559", "religion": "christian", "school:boarding": "no", "school:gender": "mixed", "school:selective": "no", "school:trust": "no", "school:type": "voluntary_controlled", "source": "Bing", "website": "https://www.embsay.n-yorks.sch.uk/", "wikidata": "Q66138441"}}, {"name": "N/A", "amenity": "parking", "data_type": "way", "lat": "53.9805483", "lon": "-1.9900697", "other_tags": {"amenity": "parking", "source": "Bing"}}, {"name": "N/A", "amenity": "parking", "data_type": "way", "lat": "53.9803604", "lon": "-1.9875355", "other_tags": {"amenity": "parking"}}]}, {"county": "North Yorkshire", "code": "E00140291", "lad": "Craven", "rgn_main": "Yorkshire and The Humber", "population": 372, "amenities": []}, {"county": "North Yorkshire", "code": "E00140292", "lad": "Craven", "rgn_main": "Yorkshire and The Humber", "population": 346, "amenities": [{"name": "N/A", "amenity": "post_box", "data_type": "node", "lat": "53.9798792", "lon": "-1.9914041", "other_tags": {"amenity": "post_box", "ref": "BD23 39", "source": "survey"}}, {"name": "N/A", "amenity": "telephone", "data_type": "node", "lat": "53.9802864", "lon": "-1.9881222", "other_tags": {"amenity": "telephone", "booth": "K6", "covered": "booth", "listed_status": "Grade II", "source": "survey"}}]}, {"county": "North Yorkshire", "code": "E00140293", "lad": "Craven", "rgn_main": "Yorkshire and The Humber", "population": 194, "amenities": [{"name": "N/A", "amenity": "post_box", "data_type": "node", "lat": "53.9858908", "lon": "-1.9731341", "other_tags": {"amenity": "post_box", "post_box:type": "wall", "ref": "BD23 7", "royal_cypher": "EIIR", "source": "survey"}}, {"name": "N/A", "amenity": "telephone", "data_type": "node", "lat": "53.9857696", "lon": "-1.9711705", "other_tags": {"amenity": "telephone", "booth": "K6", "covered": "booth", "listed_status": "Grade II", "source": "survey"}}, {"name": "N/A", "amenity": "shelter", "data_type": "node", "lat": "54.0096413", "lon": "-2.0072290", "other_tags": {"amenity": "shelter"}}, {"name": "N/A", "amenity": "shelter", "data_type": "node", "lat": "54.0097077", "lon": "-2.0078780", "other_tags": {"amenity": "shelter"}}, {"name": "N/A", "amenity": "hunting_stand", "data_type": "node", "lat": "54.0029042", "lon": "-2.0099619", "other_tags": {"amenity": "hunting_stand", "source": "EsriWorldImageryClarity"}}, {"name": "N/A", "amenity": "hunting_stand", "data_type": "node", "lat": "54.0030616", "lon": "-2.0090821", "other_tags": {"amenity": "hunting_stand", "source": "EsriWorldImageryClarity"}}, {"name": "N/A", "amenity": "hunting_stand", "data_type": "node", "lat": "54.0021095", "lon": "-2.0142269", "other_tags": {"amenity": "hunting_stand", "source": "EsriWorldImageryClarity"}}, {"name": "N/A", "amenity": "hunting_stand", "data_type": "node", "lat": "54.0027467", "lon": "-2.0108151", "other_tags": {"amenity": "hunting_stand", "source": "EsriWorldImageryClarity"}}, {"name": "N/A", "amenity": "hunting_stand", "data_type": "node", "lat": "54.0016334", "lon": "-2.0168123", "other_tags": {"amenity": "hunting_stand", "source": "EsriWorldImageryClarity"}}, {"name": "N/A", "amenity": "hunting_stand", "data_type": "node", "lat": "54.0022482", "lon": "-2.0133793", "other_tags": {"amenity": "hunting_stand", "source": "EsriWorldImageryClarity"}}, {"name": "N/A", "amenity": "hunting_stand", "data_type": "node", "lat": "54.0017721", "lon": "-2.0160559", "other_tags": {"amenity": "hunting_stand", "source": "EsriWorldImageryClarity"}}, {"name": "N/A", "amenity": "hunting_stand", "data_type": "node", "lat": "54.0025764", "lon": "-2.0116627", "other_tags": {"amenity": "hunting_stand", "source": "EsriWorldImageryClarity"}}, {"name": "N/A", "amenity": "hunting_stand", "data_type": "node", "lat": "54.0019269", "lon": "-2.0151603", "other_tags": {"amenity": "hunting_stand", "source": "EsriWorldImageryClarity"}}, {"name": "N/A", "amenity": "hunting_stand", "data_type": "node", "lat": "54.0024184", "lon": "-2.0125317", "other_tags": {"amenity": "hunting_stand", "source": "EsriWorldImageryClarity"}}, {"name": "N/A", "amenity": "parking", "data_type": "way", "lat": "53.9856464", "lon": "-2.0038809", "other_tags": {"access": "yes", "amenity": "parking", "fee": "no", "parking": "surface"}}, {"name": "N/A", "amenity": "parking", "data_type": "way", "lat": "53.9916652", "lon": "-1.9519937", "other_tags": {"access": "yes", "amenity": "parking", "fee": "no", "parking": "street_side", "source": "Maxar-Premium"}}]}, {"county": "North Yorkshire", "code": "E00140294", "lad": "Craven", "rgn_main": "Yorkshire and The Humber", "population": 341, "amenities": [{"name": "N/A", "amenity": "post_box", "data_type": "node", "lat": "53.9761766", "lon": "-1.9927180", "other_tags": {"amenity": "post_box", "post_box:type": "wall", "royal_cypher": "EIIR"}}, {"name": "N/A", "amenity": "post_box", "data_type": "node", "lat": "53.9787710", "lon": "-1.9879706", "other_tags": {"amenity": "post_box", "operator": "Royal Mail", "post_box:design": "type_n", "post_box:type": "lamp", "ref": "BD23 51", "royal_cypher": "EIIR", "source": "survey"}}, {"name": "N/A", "amenity": "shelter", "data_type": "node", "lat": "53.9776046", "lon": "-1.9896132", "other_tags": {"amenity": "shelter", "shelter_type": "public_transport"}}, {"name": "N/A", "amenity": "telephone", "data_type": "node", "lat": "53.9756001", "lon": "-1.9911101", "other_tags": {"amenity": "telephone", "booth": "K6", "covered": "booth"}}, {"name": "N/A", "amenity": "toilets", "data_type": "node", "lat": "53.9754696", "lon": "-1.9914889", "other_tags": {"access": "customers", "amenity": "toilets", "changing_table": "yes", "toilets:disposal": "flush", "unisex": "yes"}}, {"name": "N/A", "amenity": "cafe", "data_type": "node", "lat": "53.9754477", "lon": "-1.9914220", "other_tags": {"amenity": "cafe"}}, {"name": "N/A", "amenity": "parking", "data_type": "way", "lat": "53.9756210", "lon": "-1.9911040", "other_tags": {"amenity": "parking", "parking": "surface"}}, {"name": "The Cavendish Arms", "amenity": "pub", "data_type": "way", "lat": "53.9763197", "lon": "-1.9920341", "other_tags": {"addr:city": "Skipton", "addr:housenumber": "1", "addr:postcode": "BD23 6QT", "addr:street": "Skipton Road", "addr:village": "Embsay", "amenity": "pub", "building": "yes", "fhrs:id": "292455", "name": "The Cavendish Arms", "source:addr": "FHRS Open Data"}}, {"name": "N/A", "amenity": "parking", "data_type": "way", "lat": "53.9762895", "lon": "-1.9921250", "other_tags": {"amenity": "parking", "parking": "surface"}}, {"name": "N/A", "amenity": "parking", "data_type": "way", "lat": "53.9768223", "lon": "-1.9925505", "other_tags": {"amenity": "parking"}}, {"name": "The Paper Shop", "amenity": "post_office", "data_type": "way", "lat": "53.9787548", "lon": "-1.9880375", "other_tags": {"addr:city": "Skipton", "addr:country": "GB", "addr:hamlet": "Embsay", "addr:housename": "The Paper Shop", "addr:housenumber": "1", "addr:postcode": "BD23 6QX", "addr:street": "East Lane", "addr:village": "Embsay", "amenity": "post_office", "building": "commercial", "fhrs:id": "292452", "name": "The Paper Shop", "opening_hours": "Mo,Tu,Fr 09:00-13:00,14:00-18:00; We,Th 09:00-18:00; Sa 09:00-12:30; Su 08:30-12:30", "ref:pol_id": "13048", "source:addr": "FHRS Open Data"}}]}, {"county": "North Yorkshire", "code": "E00140295", "lad": "Craven", "rgn_main": "Yorkshire and The Humber", "population": 310, "amenities": [{"name": "N/A", "amenity": "post_box", "data_type": "node", "lat": "53.9801949", "lon": "-1.9839658", "other_tags": {"amenity": "post_box"}}, {"name": "St. Mary the Virgin", "amenity": "place_of_worship", "data_type": "way", "lat": "53.9829849", "lon": "-1.9835236", "other_tags": {"amenity": "place_of_worship", "building": "church", "denomination": "anglican", "name": "St. Mary the Virgin", "religion": "christian", "source": "Bing", "wikidata": "Q26588765"}}, {"name": "Elm Tree Inn", "amenity": "pub", "data_type": "way", "lat": "53.9802476", "lon": "-1.9879576", "other_tags": {"addr:city": "Skipton", "addr:country": "GB", "addr:hamlet": "Embsay", "addr:postcode": "BD23 6RB", "addr:street": "Elm Tree Square", "amenity": "pub", "building": "commercial", "fhrs:id": "292454", "name": "Elm Tree Inn", "source:addr": "FHRS Open Data", "wikidata": "Q26451370"}}, {"name": "N/A", "amenity": "parking", "data_type": "way", "lat": "53.9805675", "lon": "-1.9873694", "other_tags": {"amenity": "parking"}}, {"name": "Embsay with Eastby Village Institute", "amenity": "community_centre", "data_type": "way", "lat": "53.9803762", "lon": "-1.9865722", "other_tags": {"amenity": "community_centre", "building": "yes", "name": "Embsay with Eastby Village Institute"}}, {"name": "Embsay Methodist Church", "amenity": "place_of_worship", "data_type": "way", "lat": "53.9809609", "lon": "-1.9847122", "other_tags": {"amenity": "place_of_worship", "building": "yes", "name": "Embsay Methodist Church", "religion": "christian"}}, {"name": "N/A", "amenity": "parking", "data_type": "way", "lat": "53.9829764", "lon": "-1.9832116", "other_tags": {"access": "yes", "amenity": "parking", "fee": "no", "operator": "Church Parking Only", "parking": "surface"}}]}, {"county": "North Yorkshire", "code": "E00140296", "lad": "Craven", "rgn_main": "Yorkshire and The Humber", "population": 227, "amenities": [{"name": "N/A", "amenity": "telephone", "data_type": "node", "lat": "54.0281533", "lon": "-2.1503972", "other_tags": {"amenity": "telephone", "booth": "K6", "covered": "booth", "listed_status": "Grade II", "operator": "BT", "source": "survey"}}, {"name": "N/A", "amenity": "post_box", "data_type": "node", "lat": "54.0158392", "lon": "-2.1798407", "other_tags": {"amenity": "post_box", "operator": "Royal Mail", "post_box:type": "wall", "ref": "BD23 83", "royal_cypher": "EIIR", "source": "GPS survey"}}, {"name": "N/A", "amenity": "post_box", "data_type": "node", "lat": "54.0296261", "lon": "-2.1514485", "other_tags": {"amenity": "post_box", "brand": "Royal Mail", "brand:wikidata": "Q638098", "brand:wikipedia": "en:Royal Mail", "note": "March 18, just painted, no card with ref number; checked Dec 18, still no card", "operator": "Royal Mail", "operator:wikidata": "Q638098", "post_box:type": "wall", "royal_cypher": "EIIR"}}, {"name": "N/A", "amenity": "bench", "data_type": "node", "lat": "54.0286207", "lon": "-2.1504597", "other_tags": {"amenity": "bench", "source": "GPS survey"}}, {"name": "N/A", "amenity": "bench", "data_type": "node", "lat": "54.0283095", "lon": "-2.1502854", "other_tags": {"amenity": "bench", "source": "GPS survey"}}, {"name": "N/A", "amenity": "grit_bin", "data_type": "node", "lat": "54.0289949", "lon": "-2.1493372", "other_tags": {"amenity": "grit_bin"}}, {"name": "N/A", "amenity": "bench", "data_type": "node", "lat": "54.0275352", "lon": "-2.1525344", "other_tags": {"amenity": "bench", "backrest": "yes"}}, {"name": "N/A", "amenity": "place_of_worship", "data_type": "way", "lat": "54.0291952", "lon": "-2.1524133", "other_tags": {"amenity": "place_of_worship", "denomination": "methodist", "religion": "christian"}}]}, {"county": "North Yorkshire", "code": "E00140297", "lad": "Craven", "rgn_main": "Yorkshire and The Humber", "population": 173, "amenities": [{"name": "N/A", "amenity": "post_box", "data_type": "node", "lat": "53.9910279", "lon": "-2.1476717", "other_tags": {"amenity": "post_box", "brand": "Royal Mail", "brand:wikidata": "Q638098", "brand:wikipedia": "en:Royal Mail", "operator": "Royal Mail", "operator:wikidata": "Q638098", "post_box:design": "ludlow", "post_box:type": "wall", "ref": "BD23 112", "royal_cypher": "GR"}}, {"name": "N/A", "amenity": "post_box", "data_type": "node", "lat": "54.0061249", "lon": "-2.1531524", "other_tags": {"amenity": "post_box", "operator": "Royal Mail", "post_box:type": "lamp", "ref": "BD23 96", "royal_cypher": "EIIR"}}, {"name": "The Coniston hotel", "amenity": "restaurant", "data_type": "way", "lat": "53.9944852", "lon": "-2.1648522", "other_tags": {"addr:city": "Skipton", "addr:postcode": "BD23 4EA", "addr:village": "Coniston Cold", "amenity": "restaurant", "bar": "yes", "building": "yes", "name": "The Coniston hotel", "phone": "+44 1756 748080", "rooms": "50", "stars": "3", "tourism": "hotel", "website": "https://www.theconistonhotel.com/"}}, {"name": "Staff Parking", "amenity": "parking", "data_type": "way", "lat": "53.9938873", "lon": "-2.1630981", "other_tags": {"access": "private", "amenity": "parking", "name": "Staff Parking", "operator": "The Coniston Hotel", "parking": "surface"}}, {"name": "N/A", "amenity": "parking", "data_type": "way", "lat": "53.9935460", "lon": "-2.1633754", "other_tags": {"access": "customers", "amenity": "parking", "fee": "no", "operator": "The Coniston Hotel", "park_ride": "no", "parking": "surface", "smoothness": "excellent", "supervised": "no", "surface": "asphalt"}}, {"name": "St Peter", "amenity": "place_of_worship", "data_type": "way", "lat": "53.9942730", "lon": "-2.1497479", "other_tags": {"amenity": "place_of_worship", "building": "church", "denomination": "anglican", "name": "St Peter", "religion": "christian", "wikidata": "Q26603102"}}, {"name": "N/A", "amenity": "parking", "data_type": "way", "lat": "53.9937678", "lon": "-2.1611781", "other_tags": {"access": "customers", "amenity": "parking", "fee": "no", "operator": "The Coniston Hotel", "park_ride": "no", "parking": "surface", "smoothness": "intermediate", "supervised": "no", "surface": "gravel"}}]}, {"county": "North Yorkshire", "code": "E00140298", "lad": "Craven", "rgn_main": "Yorkshire and The Humber", "population": 227, "amenities": [{"name": "N/A", "amenity": "post_box", "data_type": "node", "lat": "54.0283640", "lon": "-2.1423846", "other_tags": {"amenity": "post_box", "post_box:type": "wall", "ref": "BD23 84", "royal_cypher": "EIIR", "source": "GPS survey"}}, {"name": "N/A", "amenity": "post_box", "data_type": "node", "lat": "54.0057125", "lon": "-2.0825548", "other_tags": {"amenity": "post_box", "post_box:type": "wall", "ref": "BD23 29", "royal_cypher": "EIIR", "source": "survey"}}, {"name": "N/A", "amenity": "post_box", "data_type": "node", "lat": "54.0231243", "lon": "-2.1008979", "other_tags": {"amenity": "post_box", "operator": "Royal Mail", "post_box:type": "wall", "ref": "BD23 32", "royal_cypher": "VR"}}, {"name": "N/A", "amenity": "post_box", "data_type": "node", "lat": "54.0185230", "lon": "-2.1394237", "other_tags": {"amenity": "post_box", "brand": "Royal Mail", "brand:wikidata": "Q638098", "brand:wikipedia": "en:Royal Mail", "operator": "Royal Mail", "operator:wikidata": "Q638098", "post_box:type": "wall", "ref": "BD23 81", "royal_cypher": "EIIR"}}, {"name": "N/A", "amenity": "bench", "data_type": "node", "lat": "54.0320189", "lon": "-2.1371050", "other_tags": {"amenity": "bench", "source": "GPS survey"}}, {"name": "N/A", "amenity": "grit_bin", "data_type": "node", "lat": "54.0284600", "lon": "-2.1418351", "other_tags": {"amenity": "grit_bin"}}, {"name": "N/A", "amenity": "bench", "data_type": "node", "lat": "53.9959356", "lon": "-2.0732805", "other_tags": {"amenity": "bench", "backrest": "yes", "material": "metal"}}, {"name": "N/A", "amenity": "bench", "data_type": "node", "lat": "54.0433614", "lon": "-2.0838699", "other_tags": {"amenity": "bench", "backrest": "no", "material": "wood", "source": "GPS survey"}}, {"name": "Newfield Hall", "amenity": "parking", "data_type": "way", "lat": "54.0190439", "lon": "-2.1372404", "other_tags": {"access": "customers", "amenity": "parking", "name": "Newfield Hall"}}, {"name": "Newfield Hall", "amenity": "parking", "data_type": "way", "lat": "54.0188469", "lon": "-2.1370473", "other_tags": {"access": "customers", "amenity": "parking", "name": "Newfield Hall"}}]}, {"county": "North Yorkshire", "code": "E00140299", "lad": "Craven", "rgn_main": "Yorkshire and The Humber", "population": 292, "amenities": [{"name": "N/A", "amenity": "telephone", "data_type": "node", "lat": "53.9829642", "lon": "-2.1057617", "other_tags": {"amenity": "telephone", "booth": "K6", "covered": "booth", "listed_status": "Grade II", "operator": "BT", "operator:wikidata": "Q593786", "source": "survey"}}, {"name": "N/A", "amenity": "parking", "data_type": "node", "lat": "53.9861596", "lon": "-2.0926688", "other_tags": {"amenity": "parking"}}, {"name": "N/A", "amenity": "parking", "data_type": "node", "lat": "53.9911167", "lon": "-2.1376967", "other_tags": {"amenity": "parking", "parking": "surface"}}, {"name": "N/A", "amenity": "parking", "data_type": "node", "lat": "53.9857755", "lon": "-2.0933505", "other_tags": {"amenity": "parking", "capacity": "4", "fee": "no"}}, {"name": "Bollywood Cottage", "amenity": "restaurant", "data_type": "node", "lat": "53.9832831", "lon": "-2.1064566", "other_tags": {"addr:city": "Skipton", "addr:country": "GB", "addr:hamlet": "Gargrave", "addr:housenumber": "60", "addr:postcode": "BD23 3LX", "addr:street": "High Street", "amenity": "restaurant", "cuisine": "indian", "fhrs:id": "292482", "name": "Bollywood Cottage", "phone": "+44 1756 749252", "takeaway": "yes", "website": "http://www.bollywoodcottage.co.uk/"}}, {"name": "The Dalesman Cafe, Tea Room and Sweet Emporium", "amenity": "cafe", "data_type": "node", "lat": "53.9832538", "lon": "-2.1059097", "other_tags": {"addr:city": "Skipton", "addr:housenumber": "54", "addr:postcode": "BD23 3LX", "addr:street": "High Street", "addr:village": "Gargrave", "amenity": "cafe", "fhrs:id": "292484", "name": "The Dalesman Cafe, Tea Room and Sweet Emporium", "phone": "+44 1756 749250"}}, {"name": "N/A", "amenity": "bench", "data_type": "node", "lat": "53.9857327", "lon": "-2.1065888", "other_tags": {"amenity": "bench", "backrest": "yes"}}, {"name": "N/A", "amenity": "bench", "data_type": "node", "lat": "53.9857436", "lon": "-2.1066022", "other_tags": {"amenity": "bench", "backrest": "yes"}}, {"name": "The Masons Arms", "amenity": "pub", "data_type": "node", "lat": "53.9817295", "lon": "-2.1062065", "other_tags": {"accommodation": "yes", "addr:city": "Skipton", "addr:country": "GB", "addr:hamlet": "Gargrave", "addr:postcode": "BD23 3NL", "addr:street": "Marton Road", "amenity": "pub", "fhrs:id": "292483", "food": "yes", "name": "The Masons Arms", "phone": "+44 1756 749304", "real_ale": "4, may vary", "real_fire": "yes", "website": "www.masonsarmsgargrave.co.uk"}}, {"name": "N/A", "amenity": "bench", "data_type": "node", "lat": "53.9728492", "lon": "-2.1034502", "other_tags": {"amenity": "bench"}}, {"name": "N/A", "amenity": "bench", "data_type": "node", "lat": "53.9891534", "lon": "-2.1138679", "other_tags": {"amenity": "bench"}}, {"name": "N/A", "amenity": "post_box", "data_type": "node", "lat": "53.9818382", "lon": "-2.1061757", "other_tags": {"amenity": "post_box", "post_box:type": "wall", "ref": "BD23 28", "royal_cypher": "VR", "source": "survey"}}, {"name": "N/A", "amenity": "shelter", "data_type": "node", "lat": "53.9782118", "lon": "-2.1050857", "other_tags": {"amenity": "shelter"}}, {"name": "N/A", "amenity": "parking", "data_type": "way", "lat": "53.9830742", "lon": "-2.1065292", "other_tags": {"amenity": "parking", "capacity": "10"}}, {"name": "N/A", "amenity": "grave_yard", "data_type": "way", "lat": "53.9809258", "lon": "-2.1032943", "other_tags": {"amenity": "grave_yard"}}, {"name": "St Andrew", "amenity": "place_of_worship", "data_type": "way", "lat": "53.9811117", "lon": "-2.1054626", "other_tags": {"amenity": "place_of_worship", "building": "church", "denomination": "anglican", "name": "St Andrew", "religion": "christian", "wikidata": "Q26425037"}}, {"name": "N/A", "amenity": "toilets", "data_type": "way", "lat": "53.9829784", "lon": "-2.1055124", "other_tags": {"amenity": "toilets", "building": "yes", "source": "survey"}}, {"name": "Neville House Care Home", "amenity": "nursing_home", "data_type": "way", "lat": "53.9843193", "lon": "-2.1090503", "other_tags": {"addr:city": "Skipton", "addr:county": "North Yorkshire", "addr:postcode": "BD23 3RH", "addr:street": "Neville Crescent", "addr:village": "Gargrave", "amenity": "nursing_home", "building": "yes", "fhrs:id": "292470", "name": "Neville House Care Home"}}]}, {"county": "North Yorkshire", "code": "E00140300", "lad": "Craven", "rgn_main": "Yorkshire and The Humber", "population": 332, "amenities": [{"name": "N/A", "amenity": "bench", "data_type": "node", "lat": "53.9846864", "lon": "-2.1008545", "other_tags": {"amenity": "bench", "backrest": "yes"}}, {"name": "N/A", "amenity": "parking", "data_type": "way", "lat": "53.9865578", "lon": "-2.0998691", "other_tags": {"amenity": "parking", "source": "survey & bing"}}]}, {"county": "North Yorkshire", "code": "E00140301", "lad": "Craven", "rgn_main": "Yorkshire and The Humber", "population": 241, "amenities": [{"name": "N/A", "amenity": "bench", "data_type": "node", "lat": "53.9828015", "lon": "-2.1009366", "other_tags": {"amenity": "bench", "backrest": "yes"}}, {"name": "N/A", "amenity": "post_box", "data_type": "node", "lat": "53.9841760", "lon": "-2.1037526", "other_tags": {"amenity": "post_box", "brand": "Royal Mail", "brand:wikidata": "Q638098", "brand:wikipedia": "en:Royal Mail", "operator": "Royal Mail", "operator:wikidata": "Q638098", "post_box:type": "wall", "ref": "BD23 90"}}, {"name": "Gargrave & Malhamdale Community Library", "amenity": "library", "data_type": "node", "lat": "53.9844700", "lon": "-2.1054006", "other_tags": {"amenity": "library", "name": "Gargrave & Malhamdale Community Library", "website": "https://www.gargravelibrary.co.uk/"}}, {"name": "N/A", "amenity": "bench", "data_type": "node", "lat": "53.9837591", "lon": "-2.1041902", "other_tags": {"amenity": "bench", "backrest": "yes"}}, {"name": "N/A", "amenity": "bench", "data_type": "node", "lat": "53.9837228", "lon": "-2.1042364", "other_tags": {"amenity": "bench", "backrest": "yes"}}, {"name": "N/A", "amenity": "waste_basket", "data_type": "node", "lat": "53.9836304", "lon": "-2.1043535", "other_tags": {"amenity": "waste_basket"}},