[{"county": "Gloucestershire", "code": "E00112295", "lad": "Cheltenham", "rgn_main": "South West", "population": 259, "amenities": [{"name": "All Saints", "amenity": "place_of_worship", "data_type": "way", "lat": "51.9021609", "lon": "-2.0642632", "other_tags": {"amenity": "place_of_worship", "building": "church", "denomination": "anglican", "name": "All Saints", "religion": "christian", "wikidata": "Q15179395", "wikipedia": "en:All Saints' Church, Cheltenham"}}, {"name": "Abbotts Nursery", "amenity": "kindergarten", "data_type": "way", "lat": "51.9014228", "lon": "-2.0645477", "other_tags": {"addr:city": "Cheltenham", "addr:housenumber": "49", "addr:postcode": "GL52 2HF", "addr:street": "All Saints' Road", "amenity": "kindergarten", "building": "residential", "building:levels": "2", "name": "Abbotts Nursery", "phone": "+441242 515702", "roof:levels": "1", "website": "https://www.abbottsnursery.co.uk/"}}]}, {"county": "Gloucestershire", "code": "E00112296", "lad": "Cheltenham", "rgn_main": "South West", "population": 219, "amenities": [{"name": "N/A", "amenity": "parking", "data_type": "way", "lat": "51.9009067", "lon": "-2.0576846", "other_tags": {"access": "private", "amenity": "parking", "parking": "surface"}}, {"name": "N/A", "amenity": "parking", "data_type": "way", "lat": "51.9006093", "lon": "-2.0575062", "other_tags": {"access": "private", "amenity": "parking", "parking": "surface"}}, {"name": "N/A", "amenity": "parking", "data_type": "way", "lat": "51.9010295", "lon": "-2.0570820", "other_tags": {"access": "private", "amenity": "parking", "parking": "surface"}}]}, {"county": "Gloucestershire", "code": "E00112297", "lad": "Cheltenham", "rgn_main": "South West", "population": 343, "amenities": [{"name": "N/A", "amenity": "parking", "data_type": "way", "lat": "51.9008736", "lon": "-2.0673857", "other_tags": {"access": "private", "amenity": "parking", "capacity": "18", "parking": "surface"}}]}, {"county": "Gloucestershire", "code": "E00112298", "lad": "Cheltenham", "rgn_main": "South West", "population": 427, "amenities": [{"name": "N/A", "amenity": "post_box", "data_type": "node", "lat": "51.9002526", "lon": "-2.0599802", "other_tags": {"amenity": "post_box", "brand": "Royal Mail", "brand:wikidata": "Q638098", "brand:wikipedia": "en:Royal Mail", "operator": "Royal Mail", "operator:wikidata": "Q638098", "ref": "GL52 251"}}, {"name": "N/A", "amenity": "post_box", "data_type": "node", "lat": "51.9007650", "lon": "-2.0549000", "other_tags": {"amenity": "post_box", "brand": "Royal Mail", "brand:wikidata": "Q638098", "brand:wikipedia": "en:Royal Mail", "operator": "Royal Mail", "operator:wikidata": "Q638098", "ref": "GL52 70"}}, {"name": "Oakhaven Residential Care Home", "amenity": "social_facility", "data_type": "way", "lat": "51.9005059", "lon": "-2.0557156", "other_tags": {"addr:street": "Hales Road", "amenity": "social_facility", "building": "residential", "name": "Oakhaven Residential Care Home", "social_facility": "nursing_home"}}]}, {"county": "Gloucestershire", "code": "E00112299", "lad": "Cheltenham", "rgn_main": "South West", "population": 264, "amenities": [{"name": "Naspr\u00edas", "amenity": "restaurant", "data_type": "way", "lat": "51.8993615", "lon": "-2.0657111", "other_tags": {"addr:housenumber": "95", "addr:street": "Hewlett Road", "amenity": "restaurant", "building": "yes", "cuisine": "italian", "name": "Naspr\u00edas", "opening_hours": "Mo-Sa 11:00-21:00; Su off; PH off", "phone": "+441242 352 303", "website": "https://www.nasprias.com/"}}, {"name": "Number 85 Coffee and Kitchen", "amenity": "cafe", "data_type": "way", "lat": "51.8990437", "lon": "-2.0658419", "other_tags": {"addr:housenumber": "85", "addr:street": "Hewlett Road", "amenity": "cafe", "building": "retail", "name": "Number 85 Coffee and Kitchen", "opening_hours": "Mo-Sa 09:00-15:00", "website": "https://www.85coffeekitchen.co.uk/"}}, {"name": "N/A", "amenity": "parking", "data_type": "way", "lat": "51.8990568", "lon": "-2.0654363", "other_tags": {"access": "private", "amenity": "parking", "parking": "surface"}}]}, {"county": "Gloucestershire", "code": "E00112300", "lad": "Cheltenham", "rgn_main": "South West", "population": 223, "amenities": [{"name": "Highbury Church", "amenity": "place_of_worship", "data_type": "way", "lat": "51.8973690", "lon": "-2.0653231", "other_tags": {"amenity": "place_of_worship", "denomination": "united_reformed", "name": "Highbury Church", "religion": "christian"}}, {"name": "N/A", "amenity": "parking", "data_type": "way", "lat": "51.8972971", "lon": "-2.0656030", "other_tags": {"access": "customers", "amenity": "parking", "parking": "surface"}}]}, {"county": "Gloucestershire", "code": "E00112301", "lad": "Cheltenham", "rgn_main": "South West", "population": 281, "amenities": []}, {"county": "Gloucestershire", "code": "E00112302", "lad": "Cheltenham", "rgn_main": "South West", "population": 213, "amenities": [{"name": "N/A", "amenity": "post_box", "data_type": "node", "lat": "51.8993107", "lon": "-2.0661518", "other_tags": {"amenity": "post_box", "brand": "Royal Mail", "brand:wikidata": "Q638098", "brand:wikipedia": "en:Royal Mail", "collection_times": "Mo-Fr 09:00, Sa 07:00", "operator": "Royal Mail", "operator:wikidata": "Q638098", "ref": "GL52 65", "source": "local_knowledge"}}, {"name": "N/A", "amenity": "parking", "data_type": "way", "lat": "51.8989830", "lon": "-2.0686832", "other_tags": {"access": "private", "amenity": "parking"}}, {"name": "N/A", "amenity": "parking", "data_type": "way", "lat": "51.9002114", "lon": "-2.0670383", "other_tags": {"access": "private", "amenity": "parking", "parking": "surface"}}, {"name": "N/A", "amenity": "parking", "data_type": "way", "lat": "51.8996841", "lon": "-2.0665632", "other_tags": {"access": "private", "amenity": "parking", "capacity": "6", "parking": "surface"}}, {"name": "Hewlett Road Dental Practice", "amenity": "dentist", "data_type": "way", "lat": "51.8994517", "lon": "-2.0662447", "other_tags": {"addr:city": "Cheltenham", "addr:housenumber": "62a", "addr:postcode": "GL52 6AH", "addr:street": "Hewlett Road", "amenity": "dentist", "building": "yes", "healthcare": "dentist", "name": "Hewlett Road Dental Practice", "opening_hours": "Mo-Fr 08:30-17:30; Sa,Su,PH off", "phone": "+441242 234048", "source": "Bing"}}, {"name": "Badham Pharmacy", "amenity": "pharmacy", "data_type": "way", "lat": "51.8994517", "lon": "-2.0662447", "other_tags": {"addr:city": "Cheltenham", "addr:housenumber": "62", "addr:postcode": "GL52 6AH", "addr:street": "Hewlett Road", "amenity": "pharmacy", "building": "yes", "dispensing": "yes", "healthcare": "pharmacy", "name": "Badham Pharmacy", "opening_hours": "Mo-Fr 09:00-13:00,13:30-18:00; Sa,Su,PH off", "phone": "+441242 260165", "source": "Bing"}}, {"name": "N/A", "amenity": "parking", "data_type": "way", "lat": "51.9002523", "lon": "-2.0676113", "other_tags": {"access": "private", "amenity": "parking", "parking": "surface"}}]}, {"county": "Gloucestershire", "code": "E00112303", "lad": "Cheltenham", "rgn_main": "South West", "population": 249, "amenities": [{"name": "N/A", "amenity": "recycling", "data_type": "node", "lat": "51.8989946", "lon": "-2.0691875", "other_tags": {"amenity": "recycling", "location": "overground", "recycling_type": "container"}}, {"name": "St James Street Car Park", "amenity": "parking", "data_type": "way", "lat": "51.8990299", "lon": "-2.0691858", "other_tags": {"access": "yes", "addr:city": "Cheltenham", "addr:postcode": "GL52 2SH", "amenity": "parking", "capacity": "200", "capacity:disabled": "4", "fee": "Mo-Sa 08:00-20:00; PH 08:00-20:00; Su 10:00-20:00", "name": "St James Street Car Park", "operator": "Cheltenham Borough Council", "operator:type": "public", "parking": "surface", "website": "https://www.cheltenham.gov.uk/directory_record/55336/st_james_street"}}, {"name": "The Vineyard Practice", "amenity": "clinic", "data_type": "way", "lat": "51.8980414", "lon": "-2.0688066", "other_tags": {"addr:housename": "The Vineyard", "addr:street": "Berkeley Street", "amenity": "clinic", "building": "yes", "healthcare": "clinic", "name": "The Vineyard Practice", "opening_hours": "Mo-Fr 08:15-18:30; Sa,Su off", "website": "https://www.vineyardpractice.com/"}}, {"name": "St John's Church of England Primary School", "amenity": "school", "data_type": "way", "lat": "51.8988739", "lon": "-2.0689436", "other_tags": {"addr:city": "Cheltenham", "addr:postcode": "GL52 2SN", "amenity": "school", "capacity": "203", "denomination": "anglican", "diocese": "Diocese of Gloucester", "isced:level": "1", "max_age": "11", "min_age": "4", "name": "St John's Church of England Primary School", "phone": "+44 1242 523786", "ref:GB:uprn": "100121233219", "ref:edubase": "115669", "religion": "christian", "school:boarding": "no", "school:gender": "mixed", "school:selective": "no", "school:trust": "no", "school:type": "voluntary_controlled", "source:addr:postcode": "get-information-schools.service.gov.uk", "website": "https://www.st-johns-pri.gloucs.sch.uk/"}}, {"name": "N/A", "amenity": "parking", "data_type": "way", "lat": "51.8985027", "lon": "-2.0686327", "other_tags": {"access": "private", "amenity": "parking", "parking": "surface"}}, {"name": "N/A", "amenity": "parking", "data_type": "way", "lat": "51.8973792", "lon": "-2.0686289", "other_tags": {"access": "private", "amenity": "parking"}}, {"name": "Eurasia", "amenity": "restaurant", "data_type": "way", "lat": "51.8978044", "lon": "-2.0680093", "other_tags": {"addr:city": "Cheltenham", "addr:housenumber": "18", "addr:postcode": "GL52 6AA", "addr:street": "Hewlett Road", "amenity": "restaurant", "building": "yes", "cuisine": "indian", "fhrs:id": "1860", "name": "Eurasia", "opening_hours": "Mo-Th,Sa,Su 12:00-14:00,17:30-23:30; Fr 17:30-23:30", "phone": "+441242 529886", "takeaway": "yes", "website": "https://eurasiacheltenham.co.uk/"}}]}, {"county": "Gloucestershire", "code": "E00112304", "lad": "Cheltenham", "rgn_main": "South West", "population": 234, "amenities": [{"name": "The Swan", "amenity": "pub", "data_type": "node", "lat": "51.8975603", "lon": "-2.0705746", "other_tags": {"addr:city": "Cheltenham", "addr:housenumber": "35-37", "addr:postcode": "GL50 1DY", "addr:street": "High Street", "amenity": "pub", "fhrs:id": "36080", "name": "The Swan", "opening_hours": "Mo-Su 12:00-24:00", "opening_hours:kitchen": "Mo-Th 12:00-14:00,17:00-21:00; Fr-Su 12:00-21:00"}}, {"name": "N/A", "amenity": "telephone", "data_type": "node", "lat": "51.8969571", "lon": "-2.0696936", "other_tags": {"amenity": "telephone", "booth": "K6", "covered": "booth", "listed_status": "Grade II", "operator": "BT", "operator:wikidata": "Q593786", "phone": "+44 1242 584563"}}, {"name": "N/A", "amenity": "telephone", "data_type": "node", "lat": "51.8969685", "lon": "-2.0697140", "other_tags": {"amenity": "telephone", "booth": "K6", "covered": "booth", "listed_status": "Grade II", "operator": "BT", "operator:wikidata": "Q593786", "phone": "+44 1242 517175"}}, {"name": "N/A", "amenity": "bicycle_parking", "data_type": "node", "lat": "51.8990220", "lon": "-2.0723019", "other_tags": {"amenity": "bicycle_parking", "bicycle_parking": "stands", "capacity": "6", "covered": "no"}}, {"name": "N/A", "amenity": "waste_basket", "data_type": "node", "lat": "51.8993354", "lon": "-2.0725327", "other_tags": {"amenity": "waste_basket"}}, {"name": "N/A", "amenity": "waste_basket", "data_type": "node", "lat": "51.8991797", "lon": "-2.0723384", "other_tags": {"amenity": "waste_basket"}}, {"name": "N/A", "amenity": "bicycle_parking", "data_type": "node", "lat": "51.8990772", "lon": "-2.0723286", "other_tags": {"amenity": "bicycle_parking", "bicycle_parking": "stands", "capacity": "6", "covered": "no"}}, {"name": "N/A", "amenity": "bench", "data_type": "node", "lat": "51.8992997", "lon": "-2.0724622", "other_tags": {"amenity": "bench", "backrest": "no"}}, {"name": "N/A", "amenity": "bench", "data_type": "node", "lat": "51.8992861", "lon": "-2.0724525", "other_tags": {"amenity": "bench", "backrest": "no"}}, {"name": "N/A", "amenity": "telephone", "data_type": "node", "lat": "51.8990576", "lon": "-2.0723286", "other_tags": {"amenity": "telephone", "booth": "ST6"}}, {"name": "N/A", "amenity": "bicycle_parking", "data_type": "node", "lat": "51.8984692", "lon": "-2.0718548", "other_tags": {"amenity": "bicycle_parking", "bicycle_parking": "stands", "capacity": "6", "covered": "no"}}, {"name": "N/A", "amenity": "telephone", "data_type": "node", "lat": "51.8990413", "lon": "-2.0723027", "other_tags": {"amenity": "telephone", "booth": "ST6"}}, {"name": "Subway", "amenity": "fast_food", "data_type": "way", "lat": "51.8987273", "lon": "-2.0719743", "other_tags": {"addr:city": "Cheltenham", "addr:housenumber": "87", "addr:postcode": "GL50 1DU", "addr:street": "High Street", "amenity": "fast_food", "brand": "Subway", "brand:wikidata": "Q244457", "brand:wikipedia": "en:Subway (restaurant)", "building": "yes", "contact:website": "https://restaurants.subway.com/united-kingdom/en/cheltenham/87-high-street", "cuisine": "sandwich", "fhrs:id": "1206645", "layer": "1", "name": "Subway", "opening_hours": "Mo-Sa 08:30-21:30; Su 09:00-20:30", "takeaway": "yes", "wheelchair": "no"}}, {"name": "Town Centre East Car Park", "amenity": "parking", "data_type": "way", "lat": "51.8990420", "lon": "-2.0710946", "other_tags": {"access": "no", "addr:city": "Cheltenham", "addr:postcode": "GL52 2SA", "amenity": "parking", "building": "yes", "capacity": "354", "capacity:disabled": "22", "fee": "Mo-Sa 08:00-20:00; PH 08:00-20:00; Su 10:00-20:00; Dec 25 off; easter off", "maxstay": "1 day", "name": "Town Centre East Car Park", "note": "Closed during Lockdown. Normal times Locks at 9pm", "operator": "Cheltenham Borough Council", "operator:type": "public", "parking": "multi-storey", "source": "local_knowledge", "website": "https://www.cheltenham.gov.uk/directory_record/55337/town_centre_east"}}, {"name": "The Vine", "amenity": "pub", "data_type": "way", "lat": "51.8977839", "lon": "-2.0708880", "other_tags": {"addr:city": "Cheltenham", "addr:housenumber": "47", "addr:postcode": "GL50 1DX", "addr:street": "High Street", "amenity": "pub", "building": "yes", "cuisine": "thai", "name": "The Vine", "opening_hours": "Mo-Th 16:30-00:00; Fr,Sa 12:00-01:00; Su 12:00-24:00", "opening_hours:kitchen": "Mo-Th 17:00-22:00; Fr-Su 12:00-15:00,17:00-22:00", "phone": "+441242 220170"}}, {"name": "Pepe's Piri Piri", "amenity": "fast_food", "data_type": "way", "lat": "51.8981241", "lon": "-2.0713963", "other_tags": {"addr:city": "Cheltenham", "addr:housenumber": "63", "addr:postcode": "GL50 1DU", "addr:street": "High Street", "amenity": "fast_food", "building": "yes", "cuisine": "chicken", "name": "Pepe's Piri Piri", "opening_hours": "Mo-Th 12:00-23:00, Fr 12:00-02:00, Sa 12:00-04:00, Su 12:00-23:00", "phone": "+441242 361 864", "wheelchair": "yes"}}, {"name": "The Old Restoration", "amenity": "pub", "data_type": "way", "lat": "51.8981067", "lon": "-2.0708437", "other_tags": {"HE_ref": "1104354", "addr:city": "Cheltenham", "addr:housenumber": "57", "addr:postcode": "GL50 1DX", "addr:street": "High Street", "amenity": "pub", "building": "retail", "fhrs:id": "929256", "historic": "building", "listed_status": "Grade II", "name": "The Old Restoration", "opening_hours": "Mo-Su 11:00-01:00", "opening_hours:kitchen": "08:30-11:30,12:00-22:00", "phone": "+44124 252 2792", "website": "http://www.the-old-restoration-cheltenham.co.uk/", "wikidata": "Q26398333"}}, {"name": "Cotswold Kebab", "amenity": "fast_food", "data_type": "way", "lat": "51.8981297", "lon": "-2.0712182", "other_tags": {"amenity": "fast_food", "building": "yes", "cuisine": "kebab", "fhrs:id": "1279729", "name": "Cotswold Kebab", "opening_hours": "Mo-Th 19:00-04:00, Fr,Sa 19:00-05:00"}}, {"name": "Cafe Moochoo", "amenity": "cafe", "data_type": "way", "lat": "51.8979247", "lon": "-2.0709849", "other_tags": {"HE_ref": "1104352", "addr:city": "Cheltenham", "addr:housenumber": "51", "addr:postcode": "GL50 1DX", "addr:street": "High Street", "amenity": "cafe", "building": "yes", "historic": "building", "listed_status": "Grade II", "name": "Cafe Moochoo"}}, {"name": "Delhi Heights", "amenity": "restaurant", "data_type": "way", "lat": "51.8982197", "lon": "-2.0709220", "other_tags": {"addr:city": "Cheltenham", "addr:housenumber": "13", "addr:postcode": "GL52 2SQ", "addr:street": "Grosvenor Street", "amenity": "restaurant", "building": "yes", "cuisine": "indian", "name": "Delhi Heights", "website": "https://delhiheights.co.uk/"}}, {"name": "The Spectre", "amenity": "pub", "data_type": "way", "lat": "51.8985817", "lon": "-2.0713064", "other_tags": {"addr:city": "Cheltenham", "addr:postcode": "GL50 1DU", "amenity": "pub", "building": "yes", "name": "The Spectre", "opening_hours": "Mo-Th 09:00-00:00; Fr,Sa 09:00-01:00; Su 09:00-23:00", "wheelchair": "yes"}}, {"name": "Doner Kebab (German Doner Kebab)", "amenity": "fast_food", "data_type": "way", "lat": "51.8982912", "lon": "-2.0713976", "other_tags": {"addr:city": "Cheltenham", "addr:housenumber": "65-67", "addr:postcode": "GL50 1DU", "addr:street": "High Street", "amenity": "fast_food", "building": "yes", "cuisine": "kebab", "fhrs:id": "1127614", "name": "Doner Kebab (German Doner Kebab)", "opening_hours": "Mo-Th,Su 11:30-22:30; Fr,Sa 11:30-03:00", "phone": "+441242 243 023", "wheelchair": "yes"}}, {"name": "OMG! Pizza", "amenity": "fast_food", "data_type": "way", "lat": "51.8984224", "lon": "-2.0701657", "other_tags": {"addr:city": "Cheltenham", "addr:housenumber": "32-34", "addr:postcode": "GL52 2SH", "addr:street": "St James Street", "amenity": "fast_food", "building": "retail", "cuisine": "pizza", "name": "OMG! Pizza", "phone": "+441242235440", "takeaway": "only", "website": "http://www.omg-pizza.co.uk/"}}, {"name": "Bangkok Kitchen", "amenity": "restaurant", "data_type": "way", "lat": "51.8987883", "lon": "-2.0697489", "other_tags": {"addr:city": "Cheltenham", "addr:housenumber": "44-48", "addr:postcode": "GL52 2SH", "addr:street": "St James Street", "alt_name": "Cabbages & Condoms Cheltenham", "amenity": "restaurant", "building": "retail", "cuisine": "thai", "name": "Bangkok Kitchen", "opening_hours": "Mo off; Tu-Th 12:00-14:30,18:00-22:00; Fr,Sa 12:00-14:30,18:00-22:30; Su 12:00-14:30,18:00-21:00", "phone": "+441242 257720", "takeaway": "yes", "website": "https://www.bk-kitchen.co.uk/"}}, {"name": "N/A", "amenity": "parking", "data_type": "way", "lat": "51.8988076", "lon": "-2.0715934", "other_tags": {"access": "private", "amenity": "parking", "parking": "surface"}}, {"name": "Shakes 2 Go", "amenity": "ice_cream", "data_type": "way", "lat": "51.8981626", "lon": "-2.0708682", "other_tags": {"addr:city": "Cheltenham", "addr:housenumber": "9", "addr:postcode": "GL52 2SQ", "addr:street": "Grosvenor Street", "amenity": "ice_cream", "building": "yes", "name": "Shakes 2 Go", "opening_hours": "10:00-18:00"}}]}, {"county": "Gloucestershire", "code": "E00112305", "lad": "Cheltenham", "rgn_main": "South West", "population": 196, "amenities": [{"name": "N/A", "amenity": "post_box", "data_type": "node", "lat": "51.8960434", "lon": "-2.0678081", "other_tags": {"amenity": "post_box", "brand": "Royal Mail", "brand:wikidata": "Q638098", "brand:wikipedia": "en:Royal Mail", "collection_times": "Mo-Fr 09:00; Sa 07:00", "operator": "Royal Mail", "operator:wikidata": "Q638098", "ref": "GL52 2", "royal_cypher": "GVIR"}}]}, {"county": "Gloucestershire", "code": "E00112306", "lad": "Cheltenham", "rgn_main": "South West", "population": 224, "amenities": [{"name": "N/A", "amenity": "post_box", "data_type": "node", "lat": "51.8971620", "lon": "-2.0637413", "other_tags": {"amenity": "post_box", "brand": "Royal Mail", "brand:wikidata": "Q638098", "brand:wikipedia": "en:Royal Mail", "operator": "Royal Mail", "operator:wikidata": "Q638098", "ref": "GL52 134"}}]}, {"county": "Gloucestershire", "code": "E00112307", "lad": "Cheltenham", "rgn_main": "South West", "population": 235, "amenities": [{"name": "N/A", "amenity": "parking", "data_type": "node", "lat": "51.8967854", "lon": "-2.0683670", "other_tags": {"access": "customers", "amenity": "parking", "capacity": "2", "description": "MOT parking", "operator": "Berkeley Garage", "parking": "surface"}}, {"name": "Sidney Street Car Park", "amenity": "parking", "data_type": "way", "lat": "51.8972101", "lon": "-2.0675785", "other_tags": {"access": "residents", "amenity": "parking", "name": "Sidney Street Car Park", "parking": "surface"}}, {"name": "N/A", "amenity": "parking", "data_type": "way", "lat": "51.8975794", "lon": "-2.0667798", "other_tags": {"access": "private", "amenity": "parking", "parking": "surface"}}, {"name": "N/A", "amenity": "parking", "data_type": "way", "lat": "51.8976098", "lon": "-2.0668519", "other_tags": {"access": "private", "amenity": "parking", "parking": "surface"}}]}, {"county": "Gloucestershire", "code": "E00112308", "lad": "Cheltenham", "rgn_main": "South West", "population": 224, "amenities": [{"name": "Tasha's Sugar Art", "amenity": "cafe", "data_type": "node", "lat": "51.8940989", "lon": "-2.0646355", "other_tags": {"amenity": "cafe", "name": "Tasha's Sugar Art"}}, {"name": "Kebaburgers", "amenity": "fast_food", "data_type": "node", "lat": "51.8944144", "lon": "-2.0649628", "other_tags": {"addr:city": "Cheltenham", "addr:housenumber": "74", "addr:postcode": "GL52 6EQ", "addr:street": "London Road", "amenity": "fast_food", "cuisine": "burger;kebab", "name": "Kebaburgers"}}, {"name": "N/A", "amenity": "bench", "data_type": "node", "lat": "51.8939677", "lon": "-2.0644185", "other_tags": {"amenity": "bench", "backrest": "yes", "colour": "#000000", "inscription": "BRB", "material": "metal", "seats": "2"}}, {"name": "Dragonfly Chinese", "amenity": "fast_food", "data_type": "way", "lat": "51.8941803", "lon": "-2.0646556", "other_tags": {"addr:housenumber": "86", "addr:street": "London Road", "amenity": "fast_food", "building": "terrace", "cuisine": "chinese", "name": "Dragonfly Chinese", "opening_hours": "Mo,We-Su 17:00-23:00; Tu off"}}]}, {"county": "Gloucestershire", "code": "E00112309", "lad": "Cheltenham", "rgn_main": "South West", "population": 140, "amenities": [{"name": "N/A", "amenity": "post_box", "data_type": "node", "lat": "51.9034950", "lon": "-2.0641883", "other_tags": {"amenity": "post_box", "brand": "Royal Mail", "brand:wikidata": "Q638098", "brand:wikipedia": "en:Royal Mail", "he:inscription_date": "1977-07-06", "heritage": "2", "heritage:operator": "Historic England", "heritage:website": "https://historicengland.org.uk/listing/the-list/list-entry/1387452", "historic": "yes", "listed_status": "Grade II", "operator": "Royal Mail", "operator:wikidata": "Q638098", "post_box:design": "penfold", "post_box:type": "pillar", "ref": "GL52 73", "ref:GB:nhle": "1387452", "royal_cypher": "VR", "wikidata": "Q26667105"}}, {"name": "Berkhampstead Day Nursery", "amenity": "kindergarten", "data_type": "way", "lat": "51.9025891", "lon": "-2.0602872", "other_tags": {"addr:city": "Cheltenham", "addr:postcode": "GL52 2QA", "addr:street": "Pittville Circus Road", "amenity": "kindergarten", "building": "residential", "name": "Berkhampstead Day Nursery"}}, {"name": "Circus Day Nursery", "amenity": "kindergarten", "data_type": "way", "lat": "51.9027667", "lon": "-2.0612156", "other_tags": {"addr:housename": "Haddo", "addr:street": "Pittville Circus Road", "amenity": "kindergarten", "building": "residential", "name": "Circus Day Nursery", "phone": "+441242253222", "website": "https://circusdaynursery.co.uk/"}}]}, {"county": "Gloucestershire", "code": "E00112311", "lad": "Cheltenham", "rgn_main": "South West", "population": 212, "amenities": [{"name": "N/A", "amenity": "post_box", "data_type": "node", "lat": "51.9000203", "lon": "-2.0701333", "other_tags": {"amenity": "post_box", "brand": "Royal Mail", "brand:wikidata": "Q638098", "brand:wikipedia": "en:Royal Mail", "operator": "Royal Mail", "operator:wikidata": "Q638098", "post_box:type": "pillar", "ref": "GL52 14", "royal_cypher": "GR"}}, {"name": "Masjid Al Madina", "amenity": "place_of_worship", "data_type": "way", "lat": "51.9002528", "lon": "-2.0700234", "other_tags": {"addr:city": "Cheltenham", "addr:housenumber": "25", "addr:postcode": "GL52 2RS", "addr:street": "Sherborne Place", "amenity": "place_of_worship", "building": "yes", "name": "Masjid Al Madina", "religion": "muslim"}}, {"name": "Sherborne Place Car Park", "amenity": "parking", "data_type": "way", "lat": "51.8996715", "lon": "-2.0695362", "other_tags": {"access": "yes", "addr:city": "Cheltenham", "addr:postcode": "GL52 2RS", "amenity": "parking", "capacity": "103", "capacity:disabled": "1", "fee": "Mo-Sa 08:00-20:00; PH 08:00-20:00; Su 10:00-20:00", "name": "Sherborne Place Car Park", "operator": "Cheltenham Borough Council", "operator:type": "public", "parking": "surface", "surface": "asphalt", "website": "https://www.cheltenham.gov.uk/directory_record/55334/sherborne_place"}}, {"name": "N/A", "amenity": "parking", "data_type": "way", "lat": "51.9000240", "lon": "-2.0701051", "other_tags": {"access": "customers", "amenity": "parking", "parking": "surface"}}]}, {"county": "Gloucestershire", "code": "E00112312", "lad": "Cheltenham", "rgn_main": "South West", "population": 221, "amenities": [{"name": "N/A", "amenity": "post_box", "data_type": "node", "lat": "51.9016587", "lon": "-2.0593903", "other_tags": {"amenity": "post_box", "brand": "Royal Mail", "brand:wikidata": "Q638098", "brand:wikipedia": "en:Royal Mail", "collection_times": "Mo-Fr 09:00; Sa 07:00", "operator": "Royal Mail", "operator:wikidata": "Q638098", "post_box:design": "penfold", "post_box:type": "pillar", "ref": "GL52 38", "royal_cypher": "VR"}}]}, {"county": "Gloucestershire", "code": "E00112313", "lad": "Cheltenham", "rgn_main": "South West", "population": 117, "amenities": [{"name": "N/A", "amenity": "parking", "data_type": "way", "lat": "51.8998415", "lon": "-2.0676943", "other_tags": {"access": "private", "amenity": "parking", "parking": "surface"}}]}, {"county": "Gloucestershire", "code": "E00112314", "lad": "Cheltenham", "rgn_main": "South West", "population": 298, "amenities": [{"name": "Rainbowls", "amenity": "cafe", "data_type": "way", "lat": "51.8997039", "lon": "-2.0656073", "other_tags": {"addr:city": "Cheltenham", "addr:housenumber": "64", "addr:postcode": "GL52 6AR", "addr:street": "Hewlett Road", "amenity": "cafe", "building": "commercial", "name": "Rainbowls", "outdoor_seating": "yes", "website": "https://www.rainbowls.co.uk/"}}, {"name": "The Curry Corner", "amenity": "restaurant", "data_type": "way", "lat": "51.9002718", "lon": "-2.0665422", "other_tags": {"addr:city": "Cheltenham", "addr:housenumber": "131", "addr:postcode": "GL52 2EX", "addr:street": "Fairview Road", "alt_name": "Curry Corner", "amenity": "restaurant", "building": "commercial", "cuisine": "indian", "fhrs:id": "8798", "name": "The Curry Corner", "opening_hours": "Mo off; Tu-Su 17:30-22:45", "opening_hours:kitchen": "Mo off; Tu-Su 17:30-22:30", "phone": "+441242 528449", "takeaway": "yes"}}]}, {"county": "Gloucestershire", "code": "E00112315", "lad": "Cheltenham", "rgn_main": "South West", "population": 278, "amenities": []}, {"county": "Gloucestershire", "code": "E00112316", "lad": "Cheltenham", "rgn_main": "South West", "population": 249, "amenities": []}, {"county": "Gloucestershire", "code": "E00112317", "lad": "Cheltenham", "rgn_main": "South West", "population": 267, "amenities": [{"name": "N/A", "amenity": "post_box", "data_type": "node", "lat": "51.8906314", "lon": "-2.0599200", "other_tags": {"amenity": "post_box", "post_box:type": "pillar", "ref": "GL52 33D", "royal_cypher": "EVIIR"}}, {"name": "The Beaufort Arms", "amenity": "pub", "data_type": "node", "lat": "51.8915073", "lon": "-2.0612749", "other_tags": {"amenity": "pub", "name": "The Beaufort Arms", "website": "https://www.thebeaufortarms.co.uk/"}}, {"name": "Cheltenham Motor Club", "amenity": "social_club", "data_type": "way", "lat": "51.8928019", "lon": "-2.0623015", "other_tags": {"amenity": "social_club", "building": "yes", "club": "automobile", "name": "Cheltenham Motor Club"}}]}, {"county": "Gloucestershire", "code": "E00112319", "lad": "Cheltenham", "rgn_main": "South West", "population": 300, "amenities": [{"name": "Cheltenham & Cotswold Dental", "amenity": "dentist", "data_type": "way", "lat": "51.9001214", "lon": "-2.0549649", "other_tags": {"addr:housenumber": "145", "addr:street": "Hales Road", "amenity": "dentist", "building": "residential", "healthcare": "dentist", "name": "Cheltenham & Cotswold Dental", "opening_hours": "Mo-Th 08:30-19:30; Fr 08:30-18:30; Sa 09:00-13:00", "phone": "+441242269498", "website": "https://www.cheltenhamandcotswolddental.com/"}}, {"name": "Battledown Centre for Children and Families", "amenity": "school", "data_type": "way", "lat": "51.9001980", "lon": "-2.0523242", "other_tags": {"addr:city": "Cheltenham", "addr:postcode": "GL52 6PZ", "addr:street": "Harp Hill", "amenity": "school", "building": "school", "isced:level": "0;1", "max_age": "11", "min_age": "2", "name": "Battledown Centre for Children and Families", "phone": "+44 1242 525472", "ref:GB:uprn": "100121234216", "ref:edubase": "147562", "ref:edubase:group": "17239", "religion": "none", "school:boarding": "no", "school:gender": "mixed", "school:selective": "no", "school:trust": "yes", "school:trust:name": "Sand Academies Trust", "school:trust:type": "multi_academy", "school:type": "academy", "website": "https://www.battledown.org.uk/"}}, {"name": "N/A", "amenity": "parking", "data_type": "way", "lat": "51.9003247", "lon": "-2.0524979", "other_tags": {"access": "customers", "amenity": "parking", "parking": "surface"}}, {"name": "Hewlett Arms", "amenity": "pub", "data_type": "way", "lat": "51.9008681", "lon": "-2.0530875", "other_tags": {"addr:city": "Cheltenham", "addr:postcode": "GL52 6QG", "addr:street": "Harp Hill", "amenity": "pub", "building": "residential", "name": "Hewlett Arms", "website": "http://www.thehewlett.co.uk/"}}, {"name": "The Regency Clinic", "amenity": "clinic", "data_type": "way", "lat": "51.9001873", "lon": "-2.0551775", "other_tags": {"addr:housenumber": "147", "addr:street": "Hales Road", "amenity": "clinic", "building": "residential", "healthcare": "clinic", "name": "The Regency Clinic", "opening_hours": "Mo-Fr 08:00-19:30; Sa 09:00-12:00", "phone": "+441242 222 111", "website": "https://www.regency-clinic.co.uk/"}}]}, {"county": "Gloucestershire", "code": "E00112320", "lad": "Cheltenham", "rgn_main": "South West", "population": 293, "amenities": [{"name": "N/A", "amenity": "post_box", "data_type": "node", "lat": "51.8967426", "lon": "-2.0595063", "other_tags": {"amenity": "post_box", "brand": "Royal Mail", "brand:wikidata": "Q638098", "brand:wikipedia": "en:Royal Mail", "operator": "Royal Mail", "operator:wikidata": "Q638098", "ref": "GL52 47"}}, {"name": "Holy Apostles' Church of England Primary School", "amenity": "school", "data_type": "way", "lat": "51.8980101", "lon": "-2.0556065", "other_tags": {"addr:city": "Cheltenham", "addr:postcode": "GL52 6QZ", "amenity": "school", "capacity": "210", "denomination": "anglican", "diocese": "Diocese of Gloucester", "email": "admin@holyapostles.gloucs.sch.uk", "isced:level": "1", "max_age": "11", "min_age": "4", "name": "Holy Apostles' Church of England Primary School", "phone": "+44 1242 526858", "ref:GB:uprn": "10000481725", "ref:edubase": "115679", "religion": "christian", "school:boarding": "no", "school:gender": "mixed", "school:selective": "no", "school:trust": "no", "school:type": "voluntary_aided", "source:addr:postcode": "get-information-schools.service.gov.uk", "website": "https://holyapostlesschool.co.uk/"}}, {"name": "N/A", "amenity": "parking", "data_type": "way", "lat": "51.8990126", "lon": "-2.0564510", "other_tags": {"access": "private", "amenity": "parking", "parking": "surface"}}]}, {"county": "Gloucestershire", "code": "E00112321", "lad": "Cheltenham", "rgn_main": "South West", "population": 263, "amenities": [{"name": "N/A", "amenity": "parking", "data_type": "way", "lat": "51.8963431", "lon": "-2.0569294", "other_tags": {"access": "private", "amenity": "parking", "parking": "surface"}}, {"name": "Blossom Lodge Day Nursery", "amenity": "childcare", "data_type": "way", "lat": "51.8962958", "lon": "-2.0600004", "other_tags": {"addr:housenumber": "77", "addr:street": "Hales Road", "amenity": "childcare", "building": "residential", "name": "Blossom Lodge Day Nursery", "phone": "+441242 525374", "website": "https://blossomlodgedaynursery.co.uk/"}}, {"name": "N/A", "amenity": "parking", "data_type": "way", "lat": "51.8961451", "lon": "-2.0589353", "other_tags": {"access": "private", "amenity": "parking", "parking": "surface"}}]}, {"county": "Gloucestershire", "code": "E00112322", "lad": "Cheltenham", "rgn_main": "South West", "population": 269, "amenities": [{"name": "N/A", "amenity": "post_box", "data_type": "node", "lat": "51.8945194", "lon": "-2.0630345", "other_tags": {"amenity": "post_box", "brand": "Royal Mail", "brand:wikidata": "Q638098", "brand:wikipedia": "en:Royal Mail", "operator": "Royal Mail", "operator:wikidata": "Q638098", "ref": "GL52 63"}}, {"name": "Ella's Snack Bar", "amenity": "fast_food", "data_type": "way", "lat": "51.8942032", "lon": "-2.0599082", "other_tags": {"amenity": "fast_food", "building": "commercial", "name": "Ella's Snack Bar", "nohousenumber": "yes"}}]}, {"county": "Gloucestershire", "code": "E00112323", "lad": "Cheltenham", "rgn_main": "South West", "population": 334, "amenities": [{"name": "N/A", "amenity": "post_box", "data_type": "node", "lat": "51.8865745", "lon": "-2.0493139", "other_tags": {"amenity": "post_box", "brand": "Royal Mail", "brand:wikidata": "Q638098", "collection_times": "Mo-Fr 17:15; Sa 12:15", "drive_through": "yes", "operator": "Royal Mail", "operator:wikidata": "Q638098", "ref": "GL52 101"}}]}, {"county": "Gloucestershire", "code": "E00112324", "lad": "Cheltenham", "rgn_main": "South West", "population": 302, "amenities": [{"name": "The Ark Day Care", "amenity": "kindergarten", "data_type": "node", "lat": "51.8871917", "lon": "-2.0495644", "other_tags": {"amenity": "kindergarten", "name": "The Ark Day Care"}}, {"name": "Glenfall Community Primary School", "amenity": "school", "data_type": "way", "lat": "51.8868351", "lon": "-2.0420621", "other_tags": {"addr:city": "Cheltenham", "addr:postcode": "GL52 6XZ", "addr:street": "Glenfall Way", "amenity": "school", "capacity": "210", "isced:level": "1", "max_age": "11", "min_age": "4", "name": "Glenfall Community Primary School", "phone": "+44 1242 234055", "ref:GB:uprn": "10000481725", "ref:edubase": "115577", "religion": "none", "school:boarding": "no", "school:gender": "mixed", "school:selective": "no", "school:trust": "no", "school:type": "community", "website": "https://www.glenfall.gloucs.sch.uk/", "wikidata": "Q66162437"}}]}, {"county": "Gloucestershire", "code": "E00112325", "lad": "Cheltenham", "rgn_main": "South West", "population": 318, "amenities": [{"name": "N/A", "amenity": "post_box", "data_type": "node", "lat": "51.8865874", "lon": "-2.0442165", "other_tags": {"amenity": "post_box", "brand": "Royal Mail", "brand:wikidata": "Q638098", "operator": "Royal Mail", "operator:wikidata": "Q638098", "ref": "GL52 371", "source": "local knowledge"}}, {"name": "N/A", "amenity": "bench", "data_type": "node", "lat": "51.8863328", "lon": "-2.0447286", "other_tags": {"amenity": "bench", "backrest": "yes", "bench": "yes"}}]}, {"county": "Gloucestershire", "code": "E00112326", "lad": "Cheltenham", "rgn_main": "South West", "population": 326, "amenities": [{"name": "N/A", "amenity": "post_box", "data_type": "node", "lat": "51.8997689", "lon": "-2.0501012", "other_tags": {"amenity": "post_box", "brand": "Royal Mail", "brand:wikidata": "Q638098", "brand:wikipedia": "en:Royal Mail", "operator": "Royal Mail", "operator:wikidata": "Q638098", "ref": "GL52 49"}}]}, {"county": "Gloucestershire", "code": "E00112327", "lad": "Cheltenham", "rgn_main": "South West", "population": 280, "amenities": [{"name": "N/A", "amenity": "post_box", "data_type": "node", "lat": "51.8886419", "lon": "-2.0439774", "other_tags": {"amenity": "post_box", "brand": "Royal Mail", "brand:wikidata": "Q638098", "operator": "Royal Mail", "operator:wikidata": "Q638098", "ref": "GL52 18"}}, {"name": "N/A", "amenity": "post_box", "data_type": "node", "lat": "51.8967147", "lon": "-2.0397167", "other_tags": {"amenity": "post_box", "brand": "Royal Mail", "brand:wikidata": "Q638098", "operator": "Royal Mail", "operator:wikidata": "Q638098", "ref": "GL52 123"}}, {"name": "N/A", "amenity": "bench", "data_type": "node", "lat": "51.8978567", "lon": "-2.0373362", "other_tags": {"amenity": "bench"}}, {"name": "N/A", "amenity": "post_box", "data_type": "node", "lat": "51.8907121", "lon": "-2.0351297", "other_tags": {"amenity": "post_box", "operator": "Royal Mail", "operator:wikidata": "Q638098", "post_box:mounting": "pier", "post_box:type": "lamp", "ref": "GL54 247", "royal_cypher": "EIIR"}}, {"name": "N/A", "amenity": "parking", "data_type": "node", "lat": "51.8912438", "lon": "-2.0325772", "other_tags": {"access": "customers", "amenity": "parking"}}, {"name": "N/A", "amenity": "bench", "data_type": "node", "lat": "51.8907045", "lon": "-2.0351476", "other_tags": {"amenity": "bench", "backrest": "yes", "material": "metal"}}]}, {"county": "Gloucestershire", "code": "E00112328", "lad": "Cheltenham", "rgn_main": "South West", "population": 241, "amenities": [{"name": "N/A", "amenity": "post_box", "data_type": "node", "lat": "51.8940415", "lon": "-2.0498640", "other_tags": {"amenity": "post_box", "brand": "Royal Mail", "brand:wikidata": "Q638098", "operator": "Royal Mail", "operator:wikidata": "Q638098", "ref": "GL52 107"}}, {"name": "Badhams Pharmacy", "amenity": "pharmacy", "data_type": "node", "lat": "51.8890527", "lon": "-2.0540503", "other_tags": {"addr:city": "Cheltenham", "addr:housenumber": "256", "addr:postcode": "GL52 6HS", "addr:street": "London Road", "amenity": "pharmacy", "dispensing": "yes", "healthcare": "pharmacy", "name": "Badhams Pharmacy", "phone": "+44 1242 515143"}}, {"name": "Milano", "amenity": "fast_food", "data_type": "node", "lat": "51.8889342", "lon": "-2.0537745", "other_tags": {"addr:city": "Cheltenham", "addr:housenumber": "264", "addr:postcode": "GL52 6HS", "addr:street": "London Road", "amenity": "fast_food", "cuisine": "italian;regional", "name": "Milano", "opening_hours": "Mo-Su 14:00-24:00", "outdoor_seating": "sidewalk", "phone": "+44 1242 243600"}}, {"name": "N/A", "amenity": "recycling", "data_type": "node", "lat": "51.8896504", "lon": "-2.0541007", "other_tags": {"amenity": "recycling", "recycling:clothes": "yes", "recycling:shoes": "yes", "recycling_type": "container"}}, {"name": "N/A", "amenity": "recycling", "data_type": "node", "lat": "51.8896546", "lon": "-2.0541389", "other_tags": {"amenity": "recycling", "recycling:cans": "yes", "recycling:glass_bottles": "yes", "recycling_type": "container"}}, {"name": "N/A", "amenity": "recycling", "data_type": "node", "lat": "51.8896566", "lon": "-2.0541852", "other_tags": {"amenity": "recycling", "recycling:plastic": "yes", "recycling:plastic_bottles": "no", "recycling:plastic_packaging": "no", "recycling_type": "container"}}, {"name": "N/A", "amenity": "recycling", "data_type": "node", "lat": "51.8896612", "lon": "-2.0542201", "other_tags": {"amenity": "recycling", "recycling:cardboard": "yes", "recycling_type": "container"}}, {"name": "N/A", "amenity": "recycling", "data_type": "node", "lat": "51.8896633", "lon": "-2.0542596", "other_tags": {"amenity": "recycling", "recycling:paper": "yes", "recycling_type": "container"}}, {"name": "St Edward's Preparatory School", "amenity": "school", "data_type": "way", "lat": "51.8892651", "lon": "-2.0550153", "other_tags": {"addr:city": "Cheltenham", "addr:postcode": "GL52 6NR", "amenity": "school", "capacity": "392", "denomination": "roman_catholic", "isced:level": "0;1", "max_age": "11", "min_age": "1", "name": "St Edward's Preparatory School", "phone": "+44 1242 388550", "ref:GB:uprn": "10000481725", "ref:edubase": "133948", "religion": "christian", "school:boarding": "no", "school:gender": "mixed", "school:selective": "no", "school:trust": "no", "school:type": "independent", "website": "https://www.stedwards.co.uk/preparatory", "wikipedia": "en:St Edward's School, Cheltenham"}}, {"name": "N/A", "amenity": "parking", "data_type": "way", "lat": "51.8912940", "lon": "-2.0500976", "other_tags": {"access": "private", "amenity": "parking", "parking": "surface"}}, {"name": "N/A", "amenity": "parking", "data_type": "way", "lat": "51.8918841", "lon": "-2.0507589", "other_tags": {"access": "private", "amenity": "parking", "parking": "surface"}}, {"name": "Sixways Clinic", "amenity": "doctors", "data_type": "way", "lat": "51.8894663", "lon": "-2.0536319", "other_tags": {"addr:city": "Cheltenham", "addr:postcode": "GL52 6HS", "addr:street": "London Road", "amenity": "doctors", "building": "yes", "healthcare": "doctor", "healthcare:speciality": "general", "name": "Sixways Clinic", "phone": "+44 1242 223 810", "website": "https://sixwaysclinic.co.uk/"}}, {"name": "Whitefriars Car Park", "amenity": "parking", "data_type": "way", "lat": "51.8896809", "lon": "-2.0542756", "other_tags": {"access": "yes", "amenity": "parking", "fee": "no", "name": "Whitefriars Car Park", "parking": "surface"}}, {"name": "N/A", "amenity": "parking", "data_type": "way", "lat": "51.8891779", "lon": "-2.0536999", "other_tags": {"access": "private", "amenity": "parking"}}, {"name": "N/A", "amenity": "parking", "data_type": "way", "lat": "51.8895153", "lon": "-2.0528480", "other_tags": {"amenity": "parking", "surface": "asphalt"}}, {"name": "Secret Garden", "amenity": "bar", "data_type": "way", "lat": "51.8893595", "lon": "-2.0548873", "other_tags": {"amenity": "bar", "description": "outdoor seating with semi-permanent awning area", "landuse": "retail", "name": "Secret Garden", "operator": "Sixways Wine Bar"}}]}, {"county": "Gloucestershire", "code": "E00112329", "lad": "Cheltenham", "rgn_main": "South West", "population": 294, "amenities": [{"name": "N/A", "amenity": "parking", "data_type": "way", "lat": "51.8945152", "lon": "-2.0584145", "other_tags": {"access": "yes", "amenity": "parking", "parking": "surface"}}]}, {"county": "Gloucestershire", "code": "E00112330", "lad": "Cheltenham", "rgn_main": "South West", "population": 311, "amenities": []}, {"county": "Gloucestershire", "code": "E00112331", "lad": "Cheltenham", "rgn_main": "South West", "population": 324, "amenities": [{"name": "Pegasus House Vets", "amenity": "veterinary", "data_type": "way", "lat": "51.8901350", "lon": "-2.0577244", "other_tags": {"addr:city": "Cheltenham", "addr:housenumber": "230", "addr:postcode": "GL52 6HW", "addr:street": "London Road", "amenity": "veterinary", "building": "residential", "name": "Pegasus House Vets", "phone": "+441242 524935", "website": "https://www.pegasushousevets.co.uk/"}}, {"name": "Arden House Dental Surgery", "amenity": "dentist", "data_type": "way", "lat": "51.8901019", "lon": "-2.0574374", "other_tags": {"addr:city": "Cheltenham", "addr:housenumber": "232", "addr:postcode": "GL52 6HW", "addr:street": "London Road", "amenity": "dentist", "building": "yes", "healthcare": "dentist", "name": "Arden House Dental Surgery", "phone": "+441242 809673", "website": "https://www.ardenhouse.co.uk/"}}]}, {"county": "Gloucestershire", "code": "E00112332", "lad": "Cheltenham", "rgn_main": "South West", "population": 285, "amenities": [{"name": "N/A", "amenity": "waste_basket", "data_type": "node", "lat": "51.8928126", "lon": "-2.1173774", "other_tags": {"amenity": "waste_basket", "waste": "trash"}}, {"name": "N/A", "amenity": "waste_basket", "data_type": "node", "lat": "51.8936712", "lon": "-2.1156262", "other_tags": {"amenity": "waste_basket"}}, {"name": "St Mark's Church of England Junior School", "amenity": "school", "data_type": "way", "lat": "51.8909114", "lon": "-2.1190118", "other_tags": {"addr:city": "Cheltenham", "addr:postcode": "GL51 6NU", "addr:street": "Robert Burns Avenue", "amenity": "school", "capacity": "240", "denomination": "anglican", "diocese": "Diocese of Gloucester", "fixme": "arbitrary division of ground between the schools", "isced:level": "1", "max_age": "11", "min_age": "7", "name": "St Mark's Church of England Junior School", "phone": "+44 1242 702280", "ref:GB:uprn": "100121231593", "ref:edubase": "115712", "religion": "christian", "school:boarding": "no", "school:gender": "mixed", "school:selective": "no", "school:trust": "no", "school:type": "voluntary_aided", "website": "https://www.stmarksjunior.com/"}}, {"name": "N/A", "amenity": "parking", "data_type": "way", "lat": "51.8914652", "lon": "-2.1187973", "other_tags": {"access": "private", "amenity": "parking", "parking": "surface"}}]}, {"county": "Gloucestershire", "code": "E00112333", "lad": "Cheltenham", "rgn_main": "South West", "population": 287, "amenities": [{"name": "The Reddings and District Community Centre", "amenity": "community_centre", "data_type": "way", "lat": "51.8900889", "lon": "-2.1376629", "other_tags": {"amenity": "community_centre", "building": "yes", "building:levels": "1", "name": "The Reddings and District Community Centre", "roof:shape": "hipped"}}, {"name": "N/A", "amenity": "parking", "data_type": "way", "lat": "51.8900869", "lon": "-2.1372477", "other_tags": {"access": "customers", "amenity": "parking", "parking": "surface"}}]}, {"county": "Gloucestershire", "code": "E00112334", "lad": "Cheltenham", "rgn_main": "South West", "population": 293, "amenities": [{"name": "N/A", "amenity": "waste_basket", "data_type": "node", "lat": "51.8893620", "lon": "-2.1196096", "other_tags": {"amenity": "waste_basket", "waste": "trash"}}]}, {"county": "Gloucestershire", "code": "E00112335", "lad": "Cheltenham", "rgn_main": "South West", "population": 210, "amenities": [{"name": "N/A", "amenity": "waste_basket", "data_type": "node", "lat": "51.8877972", "lon": "-2.1254441", "other_tags": {"amenity": "waste_basket", "waste": "trash"}}, {"name": "N/A", "amenity": "waste_basket", "data_type": "node", "lat": "51.8880923", "lon": "-2.1245918", "other_tags": {"amenity": "waste_basket", "waste": "trash"}}]}, {"county": "Gloucestershire", "code": "E00112336", "lad": "Cheltenham", "rgn_main": "South West", "population": 251, "amenities": [{"name": "Asda", "amenity": "fuel", "data_type": "node", "lat": "51.8916100", "lon": "-2.1279723", "other_tags": {"amenity": "fuel", "brand": "Asda", "brand:wikidata": "Q297410", "brand:wikipedia": "en:Asda", "contact:website": "https://storelocator.asda.com/south-west/cheltenham/hatherley-lane", "name": "Asda", "operator": "Asda Stores Ltd"}}, {"name": "N/A", "amenity": "recycling", "data_type": "node", "lat": "51.8912974", "lon": "-2.1276879", "other_tags": {"amenity": "recycling", "location": "overground", "recycling_type": "container"}}, {"name": "N/A", "amenity": "atm", "data_type": "node", "lat": "51.8906271", "lon": "-2.1287062", "other_tags": {"amenity": "atm", "operator": "Barclays Bank PLC", "speech_output": "yes"}}, {"name": "N/A", "amenity": "waste_basket", "data_type": "node", "lat": "51.8891331", "lon": "-2.1249198", "other_tags": {"amenity": "waste_basket", "waste": "trash"}}, {"name": "Asda Caf\u00e9", "amenity": "cafe", "data_type": "node", "lat": "51.8901996", "lon": "-2.1288693", "other_tags": {"addr:city": "Cheltenham", "addr:country": "GB", "addr:housename": "Asda", "addr:postcode": "GL51 6PN", "addr:street": "Hatherley Lane", "amenity": "cafe", "brand": "Asda", "brand:wikidata": "Q297410", "brand:wikipedia": "en:Asda", "contact:phone": "+44 1242 840300", "contact:website": "https://storelocator.asda.com/south-west/cheltenham/hatherley-lane/cafe", "cuisine": "coffee_shop", "drinking_water:refill": "yes", "drinking_water:refill:network": "Refill", "fhrs:id": "542928", "fixme": "Location not accurate", "internet_access": "wlan", "internet_access:fee": "no", "name": "Asda Caf\u00e9", "opening_hours:covid19": "open", "operator": "Asda Stores Ltd", "takeaway": "yes"}}, {"name": "N/A", "amenity": "trolley_bay", "data_type": "node", "lat": "51.8912516", "lon": "-2.1289751", "other_tags": {"amenity": "trolley_bay", "covered": "yes"}}, {"name": "N/A", "amenity": "trolley_bay", "data_type": "node", "lat": "51.8911475", "lon": "-2.1285765", "other_tags": {"amenity": "trolley_bay", "covered": "yes"}}, {"name": "N/A", "amenity": "trolley_bay", "data_type": "node", "lat": "51.8911351", "lon": "-2.1285171", "other_tags": {"amenity": "trolley_bay", "covered": "yes"}}, {"name": "N/A", "amenity": "trolley_bay", "data_type": "node", "lat": "51.8910919", "lon": "-2.1283638", "other_tags": {"amenity": "trolley_bay", "covered": "yes"}}, {"name": "N/A", "amenity": "trolley_bay", "data_type": "node", "lat": "51.8910772", "lon": "-2.1283024", "other_tags": {"amenity": "trolley_bay", "covered": "yes"}}, {"name": "N/A", "amenity": "trolley_bay", "data_type": "node", "lat": "51.8910375", "lon": "-2.1281472", "other_tags": {"amenity": "trolley_bay", "covered": "yes"}}, {"name": "N/A", "amenity": "trolley_bay", "data_type": "node", "lat": "51.8910707", "lon": "-2.1289167", "other_tags": {"amenity": "trolley_bay", "covered": "yes"}}, {"name": "N/A", "amenity": "trolley_bay", "data_type": "node", "lat": "51.8910458", "lon": "-2.1288189", "other_tags": {"amenity": "trolley_bay", "covered": "yes"}}, {"name": "N/A", "amenity": "trolley_bay", "data_type": "node", "lat": "51.8907185", "lon": "-2.1289684", "other_tags": {"amenity": "trolley_bay"}}, {"name": "N/A", "amenity": "car_wash", "data_type": "node", "lat": "51.8911176", "lon": "-2.1278360", "other_tags": {"amenity": "car_wash", "automated": "no"}}, {"name": "N/A", "amenity": "parking", "data_type": "way", "lat": "51.8915061", "lon": "-2.1273450", "other_tags": {"access": "private", "amenity": "parking", "parking": "surface"}}, {"name": "N/A", "amenity": "toilets", "data_type": "way", "lat": "51.8908565", "lon": "-2.1275673", "other_tags": {"access": "private", "amenity": "toilets", "building": "yes"}}]}, {"county": "Gloucestershire", "code": "E00112337", "lad": "Cheltenham", "rgn_main": "South West", "population": 473, "amenities": [{"name": "N/A", "amenity": "parking", "data_type": "node", "lat": "51.8922308", "lon": "-2.1260744", "other_tags": {"access": "private", "amenity": "parking"}}, {"name": "The Redgrove", "amenity": "restaurant", "data_type": "node", "lat": "51.8940245", "lon": "-2.1287766", "other_tags": {"addr:city": "Cheltenham", "addr:country": "GB", "addr:postcode": "GL51 6TA", "addr:street": "Hatherley Lane", "amenity": "restaurant", "brand": "Harvester", "brand:wikidata": "Q5676915", "brand:wikipedia": "en:Harvester (restaurant)", "cuisine": "american", "diet:vegan": "yes", "diet:vegetarian": "yes", "fhrs:id": "9642", "indoor_seating": "yes", "name": "The Redgrove", "opening_hours": "Mo-Sa 09:00-23:00; Su 09:00-22:00", "outdoor_seating": "yes", "payment:cash": "yes", "website": "https://www.harvester.co.uk/restaurants/southwest/theredgrovecheltenham", "wheelchair": "yes"}}, {"name": "N/A", "amenity": "post_box", "data_type": "node", "lat": "51.8902386", "lon": "-2.1210194", "other_tags": {"amenity": "post_box", "brand": "Royal Mail", "brand:wikidata": "Q638098", "brand:wikipedia": "en:Royal Mail", "collection_times": "Mo-Fr 09:00, Sa 07:00", "collection_times_checked": "2015-10-06", "operator": "Royal Mail", "operator:wikidata": "Q638098", "post_box:type": "pillar", "ref": "GL51 265D", "royal_cypher": "EIIR"}}, {"name": "N/A", "amenity": "post_box", "data_type": "node", "lat": "51.8904454", "lon": "-2.1244145", "other_tags": {"amenity": "post_box", "brand": "Royal Mail", "brand:wikidata": "Q638098", "brand:wikipedia": "en:Royal Mail", "collection_times": "Mo-Fr 09:00, Sa 07:00", "collection_times_checked": "2015-10-06", "operator": "Royal Mail", "operator:wikidata": "Q638098", "post_box:type": "lamp", "ref": "GL51 37D", "royal_cypher": "EIIR"}}, {"name": "N/A", "amenity": "waste_basket", "data_type": "node", "lat": "51.8918405", "lon": "-2.1249766", "other_tags": {"amenity": "waste_basket", "waste": "trash"}}, {"name": "N/A", "amenity": "bench", "data_type": "node", "lat": "51.8918472", "lon": "-2.1249504", "other_tags": {"amenity": "bench", "backrest": "yes", "material": "metal"}}, {"name": "N/A", "amenity": "bench", "data_type": "node", "lat": "51.8918389", "lon": "-2.1249122", "other_tags": {"amenity": "bench", "backrest": "yes", "material": "metal"}}, {"name": "N/A", "amenity": "bench", "data_type": "node", "lat": "51.8918096", "lon": "-2.1248956", "other_tags": {"amenity": "bench", "backrest": "yes", "material": "metal"}}, {"name": "N/A", "amenity": "waste_basket", "data_type": "node", "lat": "51.8902737", "lon": "-2.1245964", "other_tags": {"amenity": "waste_basket"}}, {"name": "Whittington House Nursing Home", "amenity": "nursing_home", "data_type": "way", "lat": "51.8951099", "lon": "-2.1254165", "other_tags": {"amenity": "nursing_home", "landuse": "residential", "name": "Whittington House Nursing Home", "phone": "+44 808 223 5396"}}, {"name": "N/A", "amenity": "parking", "data_type": "way", "lat": "51.8943514", "lon": "-2.1276649", "other_tags": {"access": "customers", "amenity": "parking", "fee": "yes", "operator": "Travelodge", "parking": "surface"}}, {"name": "The Pavilion", "amenity": "place_of_worship", "data_type": "way", "lat": "51.8910812", "lon": "-2.1255558", "other_tags": {"addr:city": "Cheltenham", "addr:postcode": "GL51 6PN", "addr:street": "Hatherley Lane", "amenity": "place_of_worship", "building": "church", "denomination": "C3 Church", "name": "The Pavilion", "religion": "christian", "website": "https://www.ccccheltenham.org.uk/"}}, {"name": "N/A", "amenity": "parking", "data_type": "way", "lat": "51.8913438", "lon": "-2.1256247", "other_tags": {"access": "permissive", "amenity": "parking"}}, {"name": "N/A", "amenity": "parking", "data_type": "way", "lat": "51.8946615", "lon": "-2.1240814", "other_tags": {"amenity": "parking"}}, {"name": "N/A", "amenity": "parking", "data_type": "way", "lat": "51.8914804", "lon": "-2.1255051", "other_tags": {"access": "private", "amenity": "parking", "parking": "surface"}}, {"name": "Richmond Cheltenham", "amenity": "social_facility", "data_type": "way", "lat": "51.8937966", "lon": "-2.1266069", "other_tags": {"amenity": "social_facility", "building": "apartments", "name": "Richmond Cheltenham", "operator": "Bupa", "social_facility": "assisted_living", "social_facility:for": "senior"}}]}, {"county": "Gloucestershire", "code": "E00112338", "lad": "Cheltenham", "rgn_main": "South West", "population": 311, "amenities": [{"name": "N/A", "amenity": "waste_basket", "data_type": "node", "lat": "51.8894892", "lon": "-2.1313135", "other_tags": {"amenity": "waste_basket", "waste": "trash"}}, {"name": "N/A", "amenity": "waste_basket", "data_type": "node", "lat": "51.8877148", "lon": "-2.1262032", "other_tags": {"amenity": "waste_basket", "waste": "trash"}}, {"name": "N/A", "amenity": "bench", "data_type": "node", "lat": "51.8878125", "lon": "-2.1259437", "other_tags": {"amenity": "bench", "backrest": "no", "material": "wood"}}, {"name": "N/A", "amenity": "bicycle_parking", "data_type": "node", "lat": "51.8906660", "lon": "-2.1296271", "other_tags": {"amenity": "bicycle_parking"}}]}, {"county": "Gloucestershire", "code": "E00112339", "lad": "Cheltenham", "rgn_main": "South West", "population": 271, "amenities": [{"name": "N/A", "amenity": "bicycle_parking", "data_type": "node", "lat": "51.8908779", "lon": "-2.1356781", "other_tags": {"access": "customers", "amenity": "bicycle_parking", "bicycle_parking": "stands", "capacity": "10", "supervised": "no"}}, {"name": "Co-op Little Pioneers", "amenity": "childcare", "data_type": "node", "lat": "51.8914682", "lon": "-2.1365936", "other_tags": {"amenity": "childcare", "name": "Co-op Little Pioneers"}}, {"name": "Arle Court Park and Ride", "amenity": "parking", "data_type": "way", "lat": "51.8933989", "lon": "-2.1329152", "other_tags": {"amenity": "parking", "name": "Arle Court Park and Ride", "park_ride": "yes", "parking": "surface"}}, {"name": "N/A", "amenity": "parking", "data_type": "way", "lat": "51.8861931", "lon": "-2.1404816", "other_tags": {"amenity": "parking", "parking": "surface"}}, {"name": "N/A", "amenity": "parking", "data_type": "way", "lat": "51.8923764", "lon": "-2.1350706", "other_tags": {"access": "customers", "amenity": "parking", "operator": "Cotswold Motor Group", "park_ride": "no"}}, {"name": "Costa", "amenity": "cafe", "data_type": "way", "lat": "51.8916710", "lon": "-2.1355507", "other_tags": {"amenity": "cafe", "brand": "Costa", "brand:wikidata": "Q608845", "brand:wikipedia": "en:Costa Coffee", "building": "retail", "cuisine": "coffee_shop", "drive_through": "yes", "name": "Costa", "opening_hours": "Mo-Fr,Su 06:30-18:00; Sa 06:30-19:00", "takeaway": "yes"}}, {"name": "N/A", "amenity": "parking", "data_type": "way", "lat": "51.8913534", "lon": "-2.1366091", "other_tags": {"access": "customers", "amenity": "parking", "parking": "surface"}}]}, {"county": "Gloucestershire", "code": "E00112340", "lad": "Cheltenham", "rgn_main": "South West", "population": 258, "amenities": [{"name": "N/A", "amenity": "post_box", "data_type": "node", "lat": "51.8879202", "lon": "-2.1318354", "other_tags": {"amenity": "post_box", "brand": "Royal Mail", "brand:wikidata": "Q638098", "brand:wikipedia": "en:Royal Mail", "collection_times": "Mo-Fr 16:15, Sa 09:00", "collection_times_checked": "2015-09-09", "operator": "Royal Mail", "operator:wikidata": "Q638098", "post_box:type": "pillar", "ref": "GL51 82", "royal_cypher": "EIIR"}}, {"name": "N/A", "amenity": "telephone", "data_type": "node", "lat": "51.8879284", "lon": "-2.1318089", "other_tags": {"amenity": "telephone", "booth": "KX100", "covered": "booth"}}, {"name": "N/A", "amenity": "waste_basket", "data_type": "node", "lat": "51.8870907", "lon": "-2.1339142", "other_tags": {"amenity": "waste_basket", "waste": "trash"}}, {"name": "N/A", "amenity": "waste_basket", "data_type": "node", "lat": "51.8888583", "lon": "-2.1318224", "other_tags": {"amenity": "waste_basket", "waste": "trash"}}, {"name": "Arvonia Vets", "amenity": "veterinary", "data_type": "way", "lat": "51.8879333", "lon": "-2.1315967", "other_tags": {"addr:street": "The Reddings", "amenity": "veterinary", "building": "yes", "name": "Arvonia Vets", "phone": "+441242 700100", "source": "Bing"}}, {"name": "N/A", "amenity": "parking", "data_type": "way", "lat": "51.8878516", "lon": "-2.1313919", "other_tags": {"access": "customers", "amenity": "parking", "fee": "no", "parking": "surface"}}]}, {"county": "Gloucestershire", "code": "E00112341", "lad": "Cheltenham", "rgn_main": "South West", "population": 286, "amenities": []}, {"county": "Gloucestershire", "code": "E00112342", "lad": "Cheltenham", "rgn_main": "South West", "population": 271, "amenities": [{"name": "N/A", "amenity": "waste_basket", "data_type": "node", "lat": "51.8965771", "lon": "-2.1166219", "other_tags": {"amenity": "waste_basket"}}]}, {"county": "Gloucestershire", "code": "E00112343", "lad": "Cheltenham", "rgn_main": "South West", "population": 288, "amenities": [{"name": "N/A", "amenity": "post_box", "data_type": "node", "lat": "51.8946519", "lon": "-2.1181350", "other_tags": {"amenity": "post_box", "brand": "Royal Mail", "brand:wikidata": "Q638098", "brand:wikipedia": "en:Royal Mail", "collection_times": "Mo-Fr 17:45; Sa 13:00", "collection_times_checked": "2015-10-06", "operator": "Royal Mail", "operator:wikidata": "Q638098", "post_box:type": "pillar", "ref": "GL51 282", "royal_cypher": "EIIR"}}, {"name": "Benhall Fish Bar", "amenity": "fast_food", "data_type": "node", "lat": "51.8944853", "lon": "-2.1183360", "other_tags": {"amenity": "fast_food", "cuisine": "fish_and_chips", "name": "Benhall Fish Bar"}}, {"name": "Superwoks", "amenity": "fast_food", "data_type": "node", "lat": "51.8944495", "lon": "-2.1183443", "other_tags": {"amenity": "fast_food", "cuisine": "chinese", "name": "Superwoks", "opening_hours": "Mo-We 17:00-23:00; Th-Sa 12:00-14:00,17:00-23:00", "phone": "+441242 255533", "takeaway": "only", "website": "http://superwoks.com/"}}, {"name": "The National Hunt", "amenity": "parking", "data_type": "way", "lat": "51.8943327", "lon": "-2.1188160", "other_tags": {"access": "permissive", "amenity": "parking", "name": "The National Hunt", "parking": "street_side"}}, {"name": "The National Hunt", "amenity": "pub", "data_type": "way", "lat": "51.8942564", "lon": "-2.1185839", "other_tags": {"amenity": "pub", "building": "yes", "name": "The National Hunt"}}]}, {"county": "Gloucestershire", "code": "E00112344", "lad": "Cheltenham", "rgn_main": "South West", "population": 269, "amenities": []}, {"county": "Gloucestershire", "code": "E00112345", "lad": "Cheltenham", "rgn_main": "South West", "population": 284, "amenities": [{"name": "Shell", "amenity": "fuel", "data_type": "node", "lat": "51.8947190", "lon": "-2.1052308", "other_tags": {"addr:city": "Cheltenham", "addr:housenumber": "352-356", "addr:postcode": "GL51 7AY", "addr:street": "Gloucester Road", "amenity": "fuel", "brand": "Shell", "brand:wikidata": "Q154950", "brand:wikipedia": "en:Royal Dutch Shell", "compressed_air": "yes", "name": "Shell", "opening_hours": "24/7", "phone": "+44 1242 511158", "ref:navads": "NVDS353_10019070"}}, {"name": "N/A", "amenity": "post_box", "data_type": "node", "lat": "51.8938417", "lon": "-2.1087770", "other_tags": {"amenity": "post_box", "brand": "Royal Mail", "brand:wikidata": "Q638098", "brand:wikipedia": "en:Royal Mail", "collection_times": "Mo-Fr 16:30; Sa 12:45", "collection_times_checked": "2015-10-11", "operator": "Royal Mail", "operator:wikidata": "Q638098", "post_box:type": "lamp", "ref": "GL51 9", "royal_cypher": "EIIR", "survey:date": "2020-10-11"}}, {"name": "N/A", "amenity": "compressed_air", "data_type": "node", "lat": "51.8945363", "lon": "-2.1051606", "other_tags": {"amenity": "compressed_air"}}, {"name": "N/A", "amenity": "atm", "data_type": "node", "lat": "51.8947543", "lon": "-2.1053377", "other_tags": {"amenity": "atm", "check_date": "2022-02-15", "operator": "Bank Machine"}}, {"name": "N/A", "amenity": "parcel_locker", "data_type": "node", "lat": "51.8947794", "lon": "-2.1054576", "other_tags": {"amenity": "parcel_locker", "brand": "Amazon Locker", "brand:wikidata": "Q16974764", "brand:wikipedia": "en:Amazon Locker", "operator": "Amazon", "parcel_mail_in": "yes", "parcel_pickup": "yes", "ref": "kezian"}}, {"name": "N/A", "amenity": "atm", "data_type": "node", "lat": "51.8948329", "lon": "-2.1079119", "other_tags": {"amenity": "atm", "currency:GBP": "yes", "operator": "Cash Zone"}}, {"name": "N/A", "amenity": "bicycle_parking", "data_type": "node", "lat": "51.8945326", "lon": "-2.1052234", "other_tags": {"amenity": "bicycle_parking"}}, {"name": "N/A", "amenity": "charging_station", "data_type": "node", "lat": "51.8946839", "lon": "-2.1046206", "other_tags": {"amenity": "charging_station", "capacity": "4", "motorcar": "yes", "operator": "Shell"}}, {"name": "T.G.I. Fridays", "amenity": "restaurant", "data_type": "way", "lat": "51.8944528", "lon": "-2.1058998", "other_tags": {"addr:city": "Cheltenham", "addr:housenumber": "374", "addr:postcode": "GL51 7AY", "addr:street": "Gloucester Road", "alt_name": "TGI Fridays", "amenity": "restaurant", "building": "yes", "building:levels": "2", "cuisine": "american", "name": "T.G.I. Fridays", "opening_hours": "Mo-Th,Su 10:00-22:30; Fr,Sa 10:00-23:00", "operator:wikidata": "Q1524184", "roof:shape": "hipped", "source": "OS_OpenData_StreetView;survey"}}, {"name": "Esso", "amenity": "fuel", "data_type": "way", "lat": "51.8947375", "lon": "-2.1081815", "other_tags": {"amenity": "fuel", "brand": "Esso", "brand:wikidata": "Q867662", "building": "roof", "compressed_air": "yes", "contact:website": "https://www.esso.co.uk/en-gb/find-station/esso-cheltenham-essoredappleservicestation-100359397", "name": "Esso", "opening_hours": "24/7", "source": "Bing"}}, {"name": "N/A", "amenity": "parking", "data_type": "way", "lat": "51.8946423", "lon": "-2.1064967", "other_tags": {"access": "customers", "amenity": "parking", "fee": "no", "parking": "surface"}}, {"name": "Shell", "amenity": "car_wash", "data_type": "way", "lat": "51.8947321", "lon": "-2.1044904", "other_tags": {"amenity": "car_wash", "automated": "no", "brand": "Shell", "brand:wikidata": "Q154950", "brand:wikipedia": "en:Royal Dutch Shell", "name": "Shell", "note": "Outdoor", "opening_hours": "24/7", "self_service": "only"}}, {"name": "Shell", "amenity": "car_wash", "data_type": "way", "lat": "51.8946657", "lon": "-2.1048662", "other_tags": {"amenity": "car_wash", "automated": "yes", "building": "yes", "drive_through": "yes", "name": "Shell", "opening_hours": "24/7", "self_service": "no"}}]}, {"county": "Gloucestershire", "code": "E00112346", "lad": "Cheltenham", "rgn_main": "South West", "population": 312, "amenities": [{"name": "N/A", "amenity": "bench", "data_type": "node", "lat": "51.8935198", "lon": "-2.1137443", "other_tags": {"amenity": "bench", "backrest": "no", "material": "wood"}}, {"name": "N/A", "amenity": "waste_basket", "data_type": "node", "lat": "51.8935512", "lon": "-2.1141098", "other_tags": {"amenity": "waste_basket", "waste": "trash"}}, {"name": "N/A", "amenity": "waste_basket", "data_type": "node", "lat": "51.8923631", "lon": "-2.1109213", "other_tags": {"amenity": "waste_basket", "waste": "trash"}}]}, {"county": "Gloucestershire", "code": "E00112347", "lad": "Cheltenham", "rgn_main": "South West", "population": 318, "amenities": [{"name": "N/A", "amenity": "parking", "data_type": "way", "lat": "51.8911870", "lon": "-2.1205204", "other_tags": {"access": "private", "amenity": "parking", "parking": "surface"}}, {"name": "Benhall Infant School", "amenity": "school", "data_type": "way", "lat": "51.8920946", "lon": "-2.1192388", "other_tags": {"addr:city": "Cheltenham", "addr:postcode": "GL51 6PS", "addr:street": "Robert Burns Avenue", "amenity": "school", "capacity": "180", "fixme": "arbitrary division of ground between the schools", "isced:level": "0;1", "max_age": "7", "min_age": "4", "name": "Benhall Infant School", "phone": "+44 1242 234717", "ref:GB:uprn": "200002682741", "ref:edubase": "115598", "religion": "none", "school:boarding": "no", "school:gender": "mixed", "school:selective": "no", "school:trust": "no", "school:type": "community", "website": "http://www.benhallinfantschool.co.uk/"}}]}, {"county": "Gloucestershire", "code": "E00112348", "lad": "Cheltenham", "rgn_main": "South West", "population": 294, "amenities": [{"name": "N/A", "amenity": "bench", "data_type": "node", "lat": "51.8918537", "lon": "-2.1289239", "other_tags": {"amenity": "bench", "backrest": "no", "material": "wood"}}, {"name": "N/A", "amenity": "bench", "data_type": "node", "lat": "51.8918630", "lon": "-2.1291613", "other_tags": {"amenity": "bench", "backrest": "no", "material": "wood"}}, {"name": "N/A", "amenity": "bench", "data_type": "node", "lat": "51.8919617", "lon": "-2.1290195", "other_tags": {"amenity": "bench", "backrest": "no", "material": "wood"}}, {"name": "N/A", "amenity": "post_box", "data_type": "node", "lat": "51.8905646", "lon": "-2.1351383", "other_tags": {"amenity": "post_box", "brand": "Royal Mail", "brand:wikidata": "Q638098", "brand:wikipedia": "en:Royal Mail", "collection_times": "Mo-Fr 09:00; Sa 07:00", "operator": "Royal Mail", "operator:wikidata": "Q638098", "post_box:type": "lamp", "ref": "GL51 370D", "royal_cypher": "EIIR"}}, {"name": "N/A", "amenity": "waste_basket", "data_type": "node", "lat": "51.8904281", "lon": "-2.1351209", "other_tags": {"amenity": "waste_basket", "waste": "trash"}}, {"name": "KFC", "amenity": "fast_food", "data_type": "way", "lat": "51.8938400", "lon": "-2.1289693", "other_tags": {"addr:city": "Cheltenham", "addr:postcode": "GL51 6TA", "alt_name": "Kentucky Fried Chicken", "amenity": "fast_food", "brand": "KFC", "brand:wikidata": "Q524757", "brand:wikipedia": "en:KFC", "building": "yes", "contact:website": "https://www.kfc.co.uk/kfc-near-me/cheltenham-golden-valley", "cuisine": "chicken", "drive_through": "yes", "name": "KFC", "opening_hours": "PH,Mo-Su 10:00-23:00", "takeaway": "yes"}}, {"name": "N/A", "amenity": "parking", "data_type": "way", "lat": "51.8926860", "lon": "-2.1279015", "other_tags": {"access": "private", "amenity": "parking", "parking": "surface"}}, {"name": "Nuffield Hospital", "amenity": "hospital", "data_type": "way", "lat": "51.8921878", "lon": "-2.1302800", "other_tags": {"addr:city": "Cheltenham", "addr:postcode": "GL51 6SY", "amenity": "hospital", "building": "yes", "emergency": "no", "healthcare": "hospital", "name": "Nuffield Hospital", "operator": "Nuffield Health Group"}}, {"name": "N/A", "amenity": "parking", "data_type": "way", "lat": "51.8925825", "lon": "-2.1332690", "other_tags": {"access": "customers", "amenity": "parking", "operator": "B&Q", "parking": "surface"}}, {"name": "N/A", "amenity": "parking", "data_type": "way", "lat": "51.8923211", "lon": "-2.1305876", "other_tags": {"access": "permissive", "amenity": "parking"}}, {"name": "N/A", "amenity": "parking", "data_type": "way", "lat": "51.8910027", "lon": "-2.1296423", "other_tags": {"access": "customers", "amenity": "parking", "parking": "surface"}}, {"name": "N/A", "amenity": "parking", "data_type": "way", "lat": "51.8925669", "lon": "-2.1311648", "other_tags": {"access": "private", "amenity": "parking"}}, {"name": "N/A", "amenity": "parking", "data_type": "way", "lat": "51.8909249", "lon": "-2.1301366", "other_tags": {"access": "customers", "amenity": "parking", "fee": "no", "parking": "surface"}}, {"name": "N/A", "amenity": "bicycle_parking", "data_type": "way", "lat": "51.8912032", "lon": "-2.1300488", "other_tags": {"access": "private", "amenity": "bicycle_parking", "building": "shed"}}]}, {"county": "Gloucestershire", "code": "E00112349", "lad": "Cheltenham", "rgn_main": "South West", "population": 322, "amenities": [{"name": "Grevill House and Ashley Intermediate Care Centre", "amenity": "social_facility", "data_type": "way", "lat": "51.8834479", "lon": "-2.0451916", "other_tags": {"addr:city": "Cheltenham", "addr:housenumber": "279", "addr:postcode": "GL52 6YL", "addr:street": "London Road", "amenity": "social_facility", "building": "yes", "name": "Grevill House and Ashley Intermediate Care Centre", "operator": "The Orders of St John Care Trust", "social_facility": "nursing_home", "website": "https://www.osjct.co.uk/care-home/grevill-house"}}]}, {"county": "Gloucestershire", "code": "E00112350", "lad": "Cheltenham", "rgn_main": "South West", "population": 291, "amenities": [{"name": "N/A", "amenity": "post_box", "data_type": "node", "lat": "51.8800293", "lon": "-2.0545487", "other_tags": {"amenity": "post_box", "operator": "Royal Mail", "operator:wikidata": "Q638098", "ref": "GL53 68"}}]}, {"county": "Gloucestershire", "code": "E00112351", "lad": "Cheltenham", "rgn_main": "South West", "population": 314, "amenities": [{"name": "N/A", "amenity": "parking", "data_type": "way", "lat": "51.8884106", "lon": "-2.0537997", "other_tags": {"access": "customers", "amenity": "parking", "fee": "no"}}]}, {"county": "Gloucestershire", "code": "E00112352", "lad": "Cheltenham", "rgn_main": "South West", "population": 360, "amenities": [{"name": "N/A", "amenity": "bench", "data_type": "node", "lat": "51.8861272", "lon": "-2.0529413", "other_tags": {"amenity": "bench", "backrest": "yes"}}]}, {"county": "Gloucestershire", "code": "E00112353", "lad": "Cheltenham", "rgn_main": "South West", "population": 258, "amenities": [{"name": "The Merryfellow", "amenity": "pub", "data_type": "node", "lat": "51.8825209", "lon": "-2.0500547", "other_tags": {"addr:city": "Cheltenham", "addr:housenumber": "2", "addr:postcode": "GL53 8AU", "addr:street": "School Road", "amenity": "pub", "beer_garden": "yes", "name": "The Merryfellow", "opening_hours": "Mo-Su 10:00-22:00", "outdoor_seating": "garden", "website": "https://themerryfellow.com/"}}, {"name": "St Mary's Playgroup", "amenity": "childcare", "data_type": "node", "lat": "51.8835458", "lon": "-2.0507468", "other_tags": {"amenity": "childcare", "name": "St Mary's Playgroup", "website": "http://stmarysplaygroup.org/"}}, {"name": "N/A", "amenity": "parking", "data_type": "node", "lat": "51.8828044", "lon": "-2.0499694", "other_tags": {"access": "customers", "amenity": "parking"}}, {"name": "N/A", "amenity": "parking", "data_type": "way", "lat": "51.8824435", "lon": "-2.0507479", "other_tags": {"access": "private", "amenity": "parking"}}]}, {"county": "Gloucestershire", "code": "E00112354", "lad": "Cheltenham", "rgn_main": "South West", "population": 352, "amenities": [{"name": "Nazareth House chapel", "amenity": "place_of_worship", "data_type": "node", "lat": "51.8851619", "lon": "-2.0450547", "other_tags": {"access": "private", "amenity": "place_of_worship", "denomination": "roman_catholic", "name": "Nazareth House chapel", "religion": "christian"}}, {"name": "Nazareth House", "amenity": "parking", "data_type": "node", "lat": "51.8845990", "lon": "-2.0440999", "other_tags": {"access": "private", "amenity": "parking", "fee": "no", "name": "Nazareth House"}}, {"name": "Nazareth House", "amenity": "social_facility", "data_type": "way", "lat": "51.8850965", "lon": "-2.0450428", "other_tags": {"addr:city": "Cheltenham", "addr:postcode": "GL52 6YJ", "addr:street": "London Road", "amenity": "social_facility", "building": "yes", "name": "Nazareth House", "operator": "Sisters of Nazareth", "social_facility": "nursing_home", "social_facility:for": "senior", "website": "https://www.sistersofnazareth.com/service/nazareth-house-cheltenham/", "wheelchair": "yes"}}]}, {"county": "Gloucestershire", "code": "E00112355", "lad": "Cheltenham", "rgn_main": "South West", "population": 321, "amenities": [{"name": "N/A", "amenity": "post_box", "data_type": "node", "lat": "51.8833330", "lon": "-2.0400999", "other_tags": {"amenity": "post_box", "operator": "Royal Mail", "operator:wikidata": "Q638098", "post_box:type": "pillar", "ref": "GL53 69", "royal_cypher": "GR"}}, {"name": "N/A", "amenity": "grit_bin", "data_type": "node", "lat": "51.8818511", "lon": "-2.0377674", "other_tags": {"amenity": "grit_bin"}}]}, {"county": "Gloucestershire", "code": "E00112356", "lad": "Cheltenham", "rgn_main": "South West", "population": 337, "amenities": [{"name": "N/A", "amenity": "post_box", "data_type": "node", "lat": "51.8841795", "lon": "-2.0548511", "other_tags": {"amenity": "post_box", "brand": "Royal Mail", "brand:wikidata": "Q638098", "collection_times": "Mo-Fr 17:00; Sa 12:30", "note": "marked as priority", "operator": "Royal Mail", "operator:wikidata": "Q638098", "ref": "GL53 112", "royal_cypher": "VR"}}, {"name": "Charlton Kings Post Office", "amenity": "post_office", "data_type": "node", "lat": "51.8842682", "lon": "-2.0535317", "other_tags": {"addr:city": "Cheltenham", "addr:country": "GB", "addr:housenumber": "41", "addr:postcode": "GL53 8EZ", "addr:street": "Lyefield Road West", "addr:village": "Charlton Kings", "amenity": "post_office", "brand": "Post Office", "brand:wikidata": "Q1783168", "name": "Charlton Kings Post Office", "opening_hours": "Mo-Sa 06:30-20:00; Su 07:30-19:00", "ref:pol_id": "126055"}}, {"name": "Charlton Pharmacy", "amenity": "pharmacy", "data_type": "node", "lat": "51.8842101", "lon": "-2.0537621", "other_tags": {"addr:city": "Cheltenham", "addr:housenumber": "39", "addr:postcode": "GL53 8EZ", "addr:street": "Lyefield Road West", "amenity": "pharmacy", "dispensing": "yes", "healthcare": "pharmacy", "name": "Charlton Pharmacy", "opening_hours": "Mo-Fr 09:00-13:00,14:15-18:00; Sa 09:00-13:00; Su off", "website": "http://charltonpharmacy.cambrianalliance.co.uk/"}}, {"name": "Coffee Bean", "amenity": "cafe", "data_type": "node", "lat": "51.8842051", "lon": "-2.0536280", "other_tags": {"addr:city": "Cheltenham", "addr:housenumber": "41", "addr:postcode": "GL53 8EZ", "addr:street": "Lyefield Road West", "amenity": "cafe", "cuisine": "coffee_shop", "name": "Coffee Bean", "outdoor_seating": "yes"}}, {"name": "The Charlton Kings Club", "amenity": "pub", "data_type": "node", "lat": "51.8825881", "lon": "-2.0517505", "other_tags": {"addr:city": "Cheltenham", "addr:housenumber": "21", "addr:postcode": "GL53 8AP", "addr:street": "Church Street", "amenity": "pub", "club": "social", "name": "The Charlton Kings Club"}}, {"name": "Staff car park", "amenity": "parking", "data_type": "node", "lat": "51.8827067", "lon": "-2.0522440", "other_tags": {"access": "private", "amenity": "parking", "name": "Staff car park", "operator": "Charlton Kings Infants School"}}, {"name": "N/A", "amenity": "bicycle_parking", "data_type": "node", "lat": "51.8842804", "lon": "-2.0533893", "other_tags": {"amenity": "bicycle_parking"}}, {"name": "N/A", "amenity": "waste_basket", "data_type": "node", "lat": "51.8842205", "lon": "-2.0533562", "other_tags": {"amenity": "waste_basket"}}, {"name": "N/A", "amenity": "grave_yard", "data_type": "relation", "lat": "51.8829228", "lon": "-2.0536863", "other_tags": {"amenity": "grave_yard", "religion": "christian", "type": "multipolygon"}}, {"name": "Charlton Kings Infants' School", "amenity": "school", "data_type": "way", "lat": "51.8828590", "lon": "-2.0524108", "other_tags": {"addr:city": "Cheltenham", "addr:postcode": "GL53 8AY", "addr:street": "Lyefield Road East", "amenity": "school", "capacity": "270", "isced:level": "0;1", "max_age": "7", "min_age": "3", "name": "Charlton Kings Infants' School", "phone": "+44 1242 514483", "ref:GB:uprn": "200002682290", "ref:edubase": "136999", "ref:edubase:group": "2615", "religion": "none", "school:boarding": "no", "school:gender": "mixed", "school:selective": "no", "school:trust": "yes", "school:trust:name": "Charlton Kings Infants' School", "school:trust:type": "single_academy", "school:type": "academy", "website": "https://www.ckis.org.uk/"}}, {"name": "Saint Mary's Church", "amenity": "place_of_worship", "data_type": "way", "lat": "51.8826135", "lon": "-2.0531931", "other_tags": {"HE_ref": "1386562", "addr:city": "Cheltenham", "addr:postcode": "GL53 8AP", "amenity": "place_of_worship", "building": "church", "denomination": "anglican", "description": "Parish of Charlton Kings", "listed_status": "Grade II*", "name": "Saint Mary's Church", "religion": "christian", "wikidata": "Q17535515"}}, {"name": "Dragon Vets", "amenity": "veterinary", "data_type": "way", "lat": "51.8842367", "lon": "-2.0550049", "other_tags": {"addr:city": "Cheltenham", "addr:housenumber": "17", "addr:postcode": "GL53 8EZ", "addr:street": "Lyefield Road West", "amenity": "veterinary", "building": "yes", "name": "Dragon Vets"}}, {"name": "N/A", "amenity": "parking", "data_type": "way", "lat": "51.8829832", "lon": "-2.0518014", "other_tags": {"access": "private", "amenity": "parking"}}, {"name": "N/A", "amenity": "parking", "data_type": "way", "lat": "51.8830216", "lon": "-2.0518803", "other_tags": {"access": "private", "amenity": "parking", "leisure": "playground", "note": "Playground also used as car park"}}, {"name": "The Nursery School", "amenity": "kindergarten", "data_type": "way", "lat": "51.8827568", "lon": "-2.0515595", "other_tags": {"addr:city": "Cheltenham", "addr:housenumber": "23", "addr:postcode": "GL53 8AP", "addr:street": "Church Street", "amenity": "kindergarten", "building": "yes", "name": "The Nursery School"}}]}, {"county": "Gloucestershire", "code": "E00112357", "lad": "Cheltenham", "rgn_main": "South West", "population": 361, "amenities": [{"name": "Charlton Kings Junior School", "amenity": "school", "data_type": "way", "lat": "51.8825578", "lon": "-2.0451008", "other_tags": {"addr:city": "Cheltenham", "addr:postcode": "GL53 8QE", "addr:street": "East End Road", "amenity": "school", "capacity": "372", "email": "reception@ckjs.org.uk", "isced:level": "1", "max_age": "11", "min_age": "7", "name": "Charlton Kings Junior School", "phone": "+44 1242 526171", "ref:GB:uprn": "100121235066", "ref:edubase": "137266", "ref:edubase:group": "2616", "religion": "none", "school:boarding": "no", "school:gender": "mixed", "school:selective": "no", "school:trust": "yes", "school:trust:name": "Charlton Kings Junior School", "school:trust:type": "single_academy", "school:type": "academy", "website": "https://www.ckjs.org.uk"}}, {"name": "Balcarras School", "amenity": "school", "data_type": "way", "lat": "51.8820420", "lon": "-2.0434594", "other_tags": {"addr:city": "Cheltenham", "addr:postcode": "GL53 8QF", "amenity": "school", "capacity": "1359", "email": "admin@balcarras.gloucs.sch.uk", "fax": "+44 1242 250620", "isced:level": "2;3", "max_age": "18", "min_age": "11", "name": "Balcarras School", "phone": "+44 1242 515881", "ref:GB:uprn": "100121235084", "ref:edubase": "136474", "ref:edubase:group": "17488", "religion": "none", "school:boarding": "no", "school:gender": "mixed", "school:selective": "no", "school:trust": "yes", "school:trust:name": "The Balcarras Trust", "school:trust:type": "multi_academy", "school:type": "academy", "website": "https://www.balcarras.gloucs.sch.uk/", "wikidata": "Q4850221", "wikipedia": "en:Balcarras School"}}, {"name": "N/A", "amenity": "parking", "data_type": "way", "lat": "51.8818055", "lon": "-2.0437882", "other_tags": {"access": "private", "amenity": "parking", "parking": "surface"}}, {"name": "N/A", "amenity": "parking", "data_type": "way", "lat": "51.8810576", "lon": "-2.0427809", "other_tags": {"access": "private", "amenity": "parking", "parking": "surface"}}, {"name": "N/A", "amenity": "parking", "data_type": "way", "lat": "51.8821818", "lon": "-2.0448721", "other_tags": {"access": "private", "amenity": "parking", "parking": "surface"}}, {"name": "N/A", "amenity": "parking", "data_type": "way", "lat": "51.8796113", "lon": "-2.0457967", "other_tags": {"amenity": "parking", "surface": "paved"}}, {"name": "Yangtze", "amenity": "fast_food", "data_type": "way", "lat": "51.8824100", "lon": "-2.0500303", "other_tags": {"addr:city": "Cheltenham", "addr:housenumber": "44A", "addr:postcode": "GL53 8AS", "addr:street": "Church Street", "amenity": "fast_food", "building": "retail", "cuisine": "chinese;fish_and_chips", "name": "Yangtze", "opening_hours": "Su,Mo 16:30-22:00; We,Th 16:30-22:00; Fr,Sa 12:00-13:30, 16:30-22:00", "phone": "+44 1242 237697", "takeaway": "only"}}]}, {"county": "Gloucestershire", "code": "E00112358", "lad": "Cheltenham", "rgn_main": "South West", "population": 336, "amenities": [{"name": "East End Service Station", "amenity": "charging_station", "data_type": "node", "lat": "51.8821902", "lon": "-2.0389480", "other_tags": {"access": "yes", "amenity": "charging_station", "capacity": "1", "fee": "yes", "motorcar": "yes", "name": "East End Service Station", "operator": "InstaVolt", "operator:wikidata": "Q111173904", "ref": "INS108041", "socket:chademo": "1", "socket:chademo:output": "50 kW", "socket:type2_combo": "1", "socket:type2_combo:output": "50 kW", "source": "local knowledge"}}, {"name": "N/A", "amenity": "parking", "data_type": "way", "lat": "51.8827126", "lon": "-2.0407643", "other_tags": {"access": "private", "amenity": "parking", "parking": "surface"}}, {"name": "East End Service Station", "amenity": "fuel", "data_type": "way", "lat": "51.8821902", "lon": "-2.0390314", "other_tags": {"addr:city": "Cheltenham", "addr:postcode": "GL52 6YY", "addr:street": "London Road", "amenity": "fuel", "brand": "BP", "brand:wikidata": "Q152057", "name": "East End Service Station", "operator": "John Stayte Services", "phone": "+44 1242 530112", "self_service": "yes"}}]}, {"county": "Gloucestershire", "code": "E00112359", "lad": "Cheltenham", "rgn_main": "South West", "population": 290, "amenities": [{"name": "Charlton Kings Baptist", "amenity": "place_of_worship", "data_type": "node", "lat": "51.8821461", "lon": "-2.0503200", "other_tags": {"amenity": "place_of_worship", "denomination": "baptist", "name": "Charlton Kings Baptist", "religion": "christian"}}, {"name": "N/A", "amenity": "post_box", "data_type": "node", "lat": "51.8823774", "lon": "-2.0515812", "other_tags": {"amenity": "post_box", "operator": "Royal Mail", "operator:wikidata": "Q638098", "ref": "GL53 72"}}, {"name": "Kings Coffee House", "amenity": "cafe", "data_type": "node", "lat": "51.8823574", "lon": "-2.0502055", "other_tags": {"addr:housenumber": "40", "addr:street": "Church Street", "amenity": "cafe", "name": "Kings Coffee House"}}, {"name": "Stanton Suite", "amenity": "community_centre", "data_type": "node", "lat": "51.8820080", "lon": "-2.0509806", "other_tags": {"addr:housenumber": "26", "addr:street": "Church Street", "amenity": "community_centre", "name": "Stanton Suite"}}, {"name": "Smart Fish Bar", "amenity": "fast_food", "data_type": "node", "lat": "51.8819253", "lon": "-2.0511603", "other_tags": {"addr:housenumber": "2", "addr:street": "Church Piece", "amenity": "fast_food", "cuisine": "fish_and_chips", "name": "Smart Fish Bar", "opening_hours": "Tu-Sa 15:00-21:00", "takeaway": "yes"}}, {"name": "Charlton Kings Tandoori", "amenity": "fast_food", "data_type": "node", "lat": "51.8818094", "lon": "-2.0512039", "other_tags": {"addr:city": "Cheltenham", "addr:housenumber": "3", "addr:postcode": "GL53 8JN", "addr:street": "Church Piece", "amenity": "fast_food", "cuisine": "indian", "delivery": "no", "name": "Charlton Kings Tandoori", "opening_hours": "Mo-Su 17:00-22:30", "phone": "+44 1242 237674", "takeaway": "only"}}, {"name": "N/A", "amenity": "toilets", "data_type": "node", "lat": "51.8821022", "lon": "-2.0509841", "other_tags": {"access": "yes", "amenity": "toilets", "female": "yes", "male": "yes"}}, {"name": "N/A", "amenity": "bench", "data_type": "node", "lat": "51.8818110", "lon": "-2.0524317", "other_tags": {"amenity": "bench"}}, {"name": "N/A", "amenity": "bicycle_parking", "data_type": "node", "lat": "51.8819021", "lon": "-2.0509860", "other_tags": {"access": "yes", "amenity": "bicycle_parking", "bicycle_parking": "stands", "capacity": "20", "covered": "no"}}, {"name": "N/A", "amenity": "recycling", "data_type": "node", "lat": "51.8816256", "lon": "-2.0522520", "other_tags": {"amenity": "recycling", "recycling:clothes": "yes", "recycling:shoes": "yes", "recycling_type": "container"}}, {"name": "N/A", "amenity": "parking", "data_type": "node", "lat": "51.8821877", "lon": "-2.0499466", "other_tags": {"access": "customers", "amenity": "parking", "operator": "Charlton Kings Baptist Church"}}, {"name": "Moosh", "amenity": "cafe", "data_type": "node", "lat": "51.8818483", "lon": "-2.0511147", "other_tags": {"addr:housenumber": "3A", "addr:street": "Church Piece", "amenity": "cafe", "name": "Moosh"}}, {"name": "N/A", "amenity": "recycling", "data_type": "node", "lat": "51.8817688", "lon": "-2.0512616", "other_tags": {"amenity": "recycling", "recycling:cans": "yes", "recycling:cartons": "yes", "recycling_type": "container"}}, {"name": "N/A", "amenity": "waste_basket", "data_type": "node", "lat": "51.8823327", "lon": "-2.0510789", "other_tags": {"amenity": "waste_basket"}}, {"name": "N/A", "amenity": "recycling", "data_type": "node", "lat": "51.8817748", "lon": "-2.0512389", "other_tags": {"amenity": "recycling", "recycling:glass_bottles": "yes", "recycling:plastic_bottles": "yes", "recycling_type": "container"}}, {"name": "N/A", "amenity": "small_electric_vechile_parking", "data_type": "node", "lat": "51.8822099", "lon": "-2.0509209", "other_tags": {"amenity": "small_electric_vechile_parking"}}, {"name": "Church Piece car park", "amenity": "parking", "data_type": "way", "lat": "51.8816369", "lon": "-2.0523274", "other_tags": {"access": "yes", "amenity": "parking", "fee": "no", "name": "Church Piece car park", "parking": "surface", "surface": "asphalt"}}, {"name": "Longleat House", "amenity": "social_facility", "data_type": "way", "lat": "51.8818148", "lon": "-2.0536280", "other_tags": {"amenity": "social_facility", "name": "Longleat House", "social_facility": "assisted_living"}}, {"name": "N/A", "amenity": "parking", "data_type": "way", "lat": "51.8819092", "lon": "-2.0532154", "other_tags": {"access": "private", "amenity": "parking", "parking": "surface"}}, {"name": "The Royal", "amenity": "pub", "data_type": "way", "lat": "51.8820676", "lon": "-2.0534351", "other_tags": {"addr:city": "Cheltenham", "addr:housenumber": "54", "addr:postcode": "GL53 8JH", "addr:street": "Horsefair Street", "amenity": "pub", "building": "commercial", "name": "The Royal", "opening_hours": "Mo-Th 11:00-23:00; Fr 11:00-24:00; Sa 10:00-24:00; Su 12:00-22:30", "outdoor_seating": "yes"}}, {"name": "Kings Hall", "amenity": "community_centre", "data_type": "way", "lat": "51.8816707", "lon": "-2.0512069", "other_tags": {"addr:city": "Cheltenham", "addr:postcode": "GL53 8JN", "addr:street": "Church Piece", "amenity": "community_centre", "building": "yes", "name": "Kings Hall"}}, {"name": "St Mary's Hall", "amenity": "community_centre", "data_type": "way", "lat": "51.8820753", "lon": "-2.0519176", "other_tags": {"HE_ref": "1386647", "addr:street": "New Street", "alt_name": "St Mary's Parish Centre", "amenity": "community_centre", "building": "yes", "description": "Parish Centre", "listed_status": "Grade II", "name": "St Mary's Hall"}}, {"name": "Charlton Kings Library and Children's Centre", "amenity": "library", "data_type": "way", "lat": "51.8818139", "lon": "-2.0507124", "other_tags": {"addr:city": "Cheltenham", "addr:postcode": "GL53 8AR", "addr:street": "Church Street", "amenity": "library", "building": "yes", "internet_access": "yes", "name": "Charlton Kings Library and Children's Centre", "website": "https://www.gloucestershire.gov.uk/libraries/find-a-library/charlton-kings-library/"}}, {"name": "N/A", "amenity": "parking", "data_type": "way", "lat": "51.8821380", "lon": "-2.0535307", "other_tags": {"access": "customers", "amenity": "parking"}}, {"name": "N/A", "amenity": "small_electric_vehicle", "data_type": "way", "lat": "51.8822494", "lon": "-2.0509094", "other_tags": {"amenity": "small_electric_vehicle"}}]}, {"county": "Gloucestershire", "code": "E00112360", "lad": "Cheltenham", "rgn_main": "South West", "population": 312, "amenities": [{"name": "Church Piece", "amenity": "recycling", "data_type": "node", "lat": "51.8816334", "lon": "-2.0522028", "other_tags": {"amenity": "recycling", "name": "Church Piece", "recycling:cartons": "yes", "recycling_type": "container"}}, {"name": "N/A", "amenity": "shelter", "data_type": "node", "lat": "51.8813483", "lon": "-2.0512191", "other_tags": {"amenity": "shelter", "shelter_type": "weather_shelter"}}, {"name": "N/A", "amenity": "parking", "data_type": "way", "lat": "51.8795411", "lon": "-2.0487683", "other_tags": {"amenity": "parking"}}, {"name": "125 (Cheltenham) Squadron", "amenity": "community_centre", "data_type": "way", "lat": "51.8808954", "lon": "-2.0509525", "other_tags": {"addr:city": "Cheltenham", "addr:postcode": "GL53 8JU", "addr:street": "Horsefair Street", "amenity": "community_centre", "building": "yes", "community_centre": "youth_centre", "description": "Air Training Corps hall", "name": "125 (Cheltenham) Squadron"}}]}, {"county": "Gloucestershire", "code": "E00112361", "lad": "Cheltenham", "rgn_main": "South West", "population": 195, "amenities": [{"name": "Gilbert Ward Court", "amenity": "retirement_home", "data_type": "way", "lat": "51.8805274", "lon": "-2.0533565", "other_tags": {"amenity": "retirement_home", "name": "Gilbert Ward Court"}}, {"name": "N/A", "amenity": "parking", "data_type": "way", "lat": "51.8805295", "lon": "-2.0533434", "other_tags": {"access": "private", "amenity": "parking", "parking": "surface"}}, {"name": "Little Pheasants", "amenity": "social_facility", "data_type": "way", "lat": "51.8810338", "lon": "-2.0529538", "other_tags": {"amenity": "social_facility", "name": "Little Pheasants", "social_facility": "retirement_home"}}, {"name": "N/A", "amenity": "parking", "data_type": "way", "lat": "51.8805536", "lon": "-2.0531918", "other_tags": {"access": "private", "amenity": "parking", "parking": "surface"}}, {"name": "Honeybourne Veterinary Centre", "amenity": "veterinary", "data_type": "way", "lat": "51.8815416", "lon": "-2.0527544", "other_tags": {"addr:city": "Cheltenham", "addr:housenumber": "90", "addr:postcode": "GL53 8JR", "addr:street": "Horsefair Street", "amenity": "veterinary", "building": "yes", "name": "Honeybourne Veterinary Centre"}}]}, {"county": "Gloucestershire", "code": "E00112362", "lad": "Cheltenham", "rgn_main": "South West", "population": 280, "amenities": [{"name": "N/A", "amenity": "parking", "data_type": "way", "lat": "51.8798059", "lon": "-2.0504254", "other_tags": {"amenity": "parking"}}]}, {"county": "Gloucestershire", "code": "E00112363", "lad": "Cheltenham", "rgn_main": "South West", "population": 246, "amenities": [{"name": "N/A", "amenity": "post_box", "data_type": "node", "lat": "51.8781201", "lon": "-2.0444450", "other_tags": {"amenity": "post_box", "operator": "Royal Mail", "operator:wikidata": "Q638098", "ref": "GL53 347"}}, {"name": "N/A", "amenity": "parking", "data_type": "way", "lat": "51.8804984", "lon": "-2.0434734", "other_tags": {"access": "private", "amenity": "parking", "parking": "surface"}}]}, {"county": "Gloucestershire", "code": "E00112364", "lad": "Cheltenham", "rgn_main": "South West", "population": 364, "amenities": []}, {"county": "Gloucestershire", "code": "E00112365", "lad": "Cheltenham", "rgn_main": "South West", "population": 290, "amenities": [{"name": "N/A", "amenity": "post_box", "data_type": "node", "lat": "51.8784259", "lon": "-2.0491770", "other_tags": {"amenity": "post_box", "brand": "Royal Mail", "brand:wikidata": "Q638098", "operator": "Royal Mail", "operator:wikidata": "Q638098", "ref": "GL53 320"}}]}, {"county": "Gloucestershire", "code": "E00112366", "lad": "Cheltenham", "rgn_main": "South West", "population": 390, "amenities": [{"name": "Koloshi", "amenity": "restaurant", "data_type": "node", "lat": "51.8758449", "lon": "-2.0230989", "other_tags": {"amenity": "restaurant", "name": "Koloshi", "note": "Indian restaurant and bar"}}, {"name": "N/A", "amenity": "bicycle_parking", "data_type": "node", "lat": "51.8775598", "lon": "-2.0273428", "other_tags": {"amenity": "bicycle_parking"}}, {"name": "N/A", "amenity": "waste_basket", "data_type": "node", "lat": "51.8774473", "lon": "-2.0275344", "other_tags": {"amenity": "waste_basket"}}, {"name": "N/A", "amenity": "waste_basket", "data_type": "node", "lat": "51.8774946", "lon": "-2.0273904", "other_tags": {"amenity": "waste_basket"}}]}, {"county": "Gloucestershire", "code": "E00112367", "lad": "Cheltenham", "rgn_main": "South West", "population": 279, "amenities": [{"name": "Waffle", "amenity": "fast_food", "data_type": "node", "lat": "51.8882736", "lon": "-2.0530674", "other_tags": {"addr:city": "Cheltenham", "addr:housenumber": "233", "addr:postcode": "GL52 6HZ", "addr:street": "London Road", "amenity": "fast_food", "cuisine": "waffle", "name": "Waffle", "outdoor_seating": "yes", "takeaway": "yes"}}, {"name": "N/A", "amenity": "post_box", "data_type": "node", "lat": "51.8886484", "lon": "-2.0536644", "other_tags": {"amenity": "post_box", "brand": "Royal Mail", "brand:wikidata": "Q638098", "operator": "Royal Mail", "operator:wikidata": "Q638098", "ref": "GL53 76"}}, {"name": "N/A", "amenity": "atm", "data_type": "node", "lat": "51.8885899", "lon": "-2.0535907", "other_tags": {"amenity": "atm"}}, {"name": "SIxways Wine Bar", "amenity": "bar", "data_type": "node", "lat": "51.8889592", "lon": "-2.0545464", "other_tags": {"addr:city": "Cheltenham", "addr:housenumber": "201", "addr:postcode": "GL52 6HU", "addr:street": "London Road", "amenity": "bar", "name": "SIxways Wine Bar", "operator": "Cheltenham Wine Company", "outdoor_seating": "yes", "takeaway": "yes", "website": "https://www.cheltenhamwineco.co.uk/"}}, {"name": "Roasted Cafe", "amenity": "cafe", "data_type": "node", "lat": "51.8887290", "lon": "-2.0540131", "other_tags": {"addr:city": "Cheltenham", "addr:housenumber": "215", "addr:postcode": "GL52 6HY", "addr:street": "London Road", "amenity": "cafe", "name": "Roasted Cafe", "website": "https://www.roastedcafe.co.uk/"}}, {"name": "FRONT", "amenity": "arts_centre", "data_type": "node", "lat": "51.8890154", "lon": "-2.0546810", "other_tags": {"addr:city": "Cheltenham", "addr:housenumber": "197", "addr:postcode": "GL52 6HU", "addr:street": "London Road", "amenity": "arts_centre", "description": "deepspaceworks Community Hub and Cafe", "disused:amenity": "restaurant", "name": "FRONT"}}, {"name": "N/A", "amenity": "bench", "data_type": "node", "lat": "51.8879270", "lon": "-2.0524934", "other_tags": {"amenity": "bench", "backrest": "yes"}}, {"name": "Holy Apostles", "amenity": "place_of_worship", "data_type": "way", "lat": "51.8900252", "lon": "-2.0590233", "other_tags": {"HE_ref": "1386630", "addr:city": "Cheltenham", "addr:postcode": "GL52 6HW", "amenity": "place_of_worship", "building": "church", "denomination": "anglican", "listed_status": "Grade II", "name": "Holy Apostles", "religion": "christian", "wikidata": "Q26666321"}}, {"name": "Sixways service station", "amenity": "fuel", "data_type": "way", "lat": "51.8884536", "lon": "-2.0533306", "other_tags": {"addr:city": "Cheltenham", "addr:housenumber": "231", "addr:postcode": "GL52 6HZ", "addr:street": "London Road", "amenity": "fuel", "brand": "Esso", "brand:wikidata": "Q867662", "brand:wikipedia": "en:Esso", "contact:website": "https://www.esso.co.uk/en-gb/find-station/esso-cheltenham-essoegsixways-100200745", "name": "Sixways service station", "opening_hours": "Mo-Su 06:00-23:00"}}, {"name": "London Inn", "amenity": "pub", "data_type": "way", "lat": "51.8890826", "lon": "-2.0549910", "other_tags": {"HE_ref": "1386624", "addr:city": "Cheltenham", "addr:housenumber": "195", "addr:postcode": "GL52 6HU", "addr:street": "London Road", "amenity": "pub", "beer_garden": "yes", "building": "yes", "listed_status": "Grade II", "name": "London Inn", "opening_hours": "Mo-Su 11:30-24:00", "outdoor_seating": "garden", "phone": "+44 1242525606", "website": "https://londoninncharltonkings.com/", "wikidata": "Q26666315"}}, {"name": "The Langton", "amenity": "pub", "data_type": "way", "lat": "51.8893818", "lon": "-2.0562579", "other_tags": {"HE_ref": "1386623", "addr:city": "Cheltenham", "addr:housenumber": "189-191", "addr:postcode": "GL52 6HT", "addr:street": "London Road", "amenity": "pub", "building": "yes", "listed_status": "Grade II", "name": "The Langton", "phone": "+44 1242 233022", "restaurant": "yes", "website": "https://www.thelangton.co.uk/"}}, {"name": "N/A", "amenity": "parking", "data_type": "way", "lat": "51.8895781", "lon": "-2.0570026", "other_tags": {"access": "customers", "amenity": "parking"}}, {"name": "N/A", "amenity": "parking", "data_type": "way", "lat": "51.8891546", "lon": "-2.0564847", "other_tags": {"access": "customers", "amenity": "parking"}}, {"name": "Holy Apostles Community Hall", "amenity": "community_centre", "data_type": "way", "lat": "51.8895076", "lon": "-2.0585069", "other_tags": {"amenity": "community_centre", "building": "yes", "name": "Holy Apostles Community Hall", "source": "local knowledge"}}, {"name": "Kings Tandoori and Balti Cuisine", "amenity": "restaurant", "data_type": "way", "lat": "51.8882119", "lon": "-2.0528883", "other_tags": {"addr:city": "Cheltenham", "addr:housenumber": "237", "addr:postcode": "GL52 6HZ", "addr:street": "London Road", "amenity": "restaurant", "bar": "no", "building": "yes", "building:levels": "2", "cuisine": "indian;bangladeshi", "name": "Kings Tandoori and Balti Cuisine", "opening_hours": "Mo-Su 17:30-22:30; Tu off", "phone": "+44 1242 577667", "takeaway": "yes", "website": "https://kingsbalticheltenham.co.uk/"}},