[{"county": "Worcestershire", "code": "E00163841", "lad": "Bromsgrove", "rgn_main": "West Midlands", "population": 497, "amenities": [{"name": "N/A", "amenity": "telephone", "data_type": "node", "lat": "52.3705150", "lon": "-1.9552512", "other_tags": {"amenity": "telephone", "booth": "K6", "colour": "blue", "man_made": "telephone_box", "phone": "+44 121 447 7684"}}, {"name": "Water point", "amenity": "water_point", "data_type": "node", "lat": "52.3725580", "lon": "-1.9556595", "other_tags": {"amenity": "water_point", "description": "canal water point", "name": "Water point"}}, {"name": "N/A", "amenity": "bench", "data_type": "node", "lat": "52.3708159", "lon": "-1.9556216", "other_tags": {"amenity": "bench"}}, {"name": "N/A", "amenity": "post_box", "data_type": "node", "lat": "52.3776247", "lon": "-1.9217278", "other_tags": {"amenity": "post_box", "ref": "B38 201"}}, {"name": "N/A", "amenity": "post_box", "data_type": "node", "lat": "52.3767179", "lon": "-1.9443577", "other_tags": {"amenity": "post_box", "fixme": "disused?", "ref": "B48 6"}}, {"name": "The Peacock Inn", "amenity": "pub", "data_type": "way", "lat": "52.3775727", "lon": "-1.9218833", "other_tags": {"addr:city": "Forhill", "addr:postcode": "B38 0EH", "addr:street": "Icknield Street", "amenity": "pub", "building": "yes", "fhrs:id": "1124900", "name": "The Peacock Inn", "source": "visual survey;bing"}}, {"name": "Havencroft Nursing Home", "amenity": "social_facility", "data_type": "way", "lat": "52.3769246", "lon": "-1.9581782", "other_tags": {"addr:city": "Hopwood", "addr:postcode": "B48 7AS", "addr:street": "Lea End Lane", "amenity": "social_facility", "building": "yes", "fhrs:id": "684357", "name": "Havencroft Nursing Home", "social_facility": "nursing_home", "social_facility:for": "senior", "source": "visual survey;bing"}}, {"name": "Esso", "amenity": "fuel", "data_type": "way", "lat": "52.3715346", "lon": "-1.9556648", "other_tags": {"amenity": "fuel", "brand": "Esso", "brand:wikidata": "Q867662", "brand:wikipedia": "en:Esso", "building": "roof", "fuel:diesel": "yes", "fuel:octane_95": "yes", "name": "Esso", "operator": "Esso"}}, {"name": "Hopwood Community Centre", "amenity": "community_centre", "data_type": "way", "lat": "52.3697430", "lon": "-1.9576083", "other_tags": {"addr:city": "Hopwood", "addr:postcode": "B48 7TL", "addr:street": "Redditch Road", "amenity": "community_centre", "building": "public", "fhrs:id": "684398", "name": "Hopwood Community Centre", "operator": "Alvechurch Parish Council"}}, {"name": "N/A", "amenity": "parking", "data_type": "way", "lat": "52.3766161", "lon": "-1.9575325", "other_tags": {"access": "private", "amenity": "parking"}}, {"name": "N/A", "amenity": "parking", "data_type": "way", "lat": "52.3697460", "lon": "-1.9571289", "other_tags": {"amenity": "parking"}}, {"name": "N/A", "amenity": "biergarten", "data_type": "way", "lat": "52.3776637", "lon": "-1.9215852", "other_tags": {"amenity": "biergarten", "source": "bing"}}, {"name": "N/A", "amenity": "parking", "data_type": "way", "lat": "52.3775727", "lon": "-1.9218833", "other_tags": {"access": "customers", "amenity": "parking", "parking": "surface"}}, {"name": "N/A", "amenity": "parking", "data_type": "way", "lat": "52.3778441", "lon": "-1.9213173", "other_tags": {"access": "customers", "amenity": "parking", "parking": "surface"}}, {"name": "N/A", "amenity": "parking", "data_type": "way", "lat": "52.3780712", "lon": "-1.9199341", "other_tags": {"amenity": "parking", "fee": "no", "parking": "surface", "surface": "unpaved"}}]}, {"county": "Worcestershire", "code": "E00163842", "lad": "Bromsgrove", "rgn_main": "West Midlands", "population": 510, "amenities": [{"name": "N/A", "amenity": "post_box", "data_type": "node", "lat": "52.3569351", "lon": "-1.9641976", "other_tags": {"amenity": "post_box", "collection_times": "Mo-Fr 16:15; Sa 07:45", "operator": "Royal Mail", "operator:wikidata": "Q638098", "post_box:type": "pillar", "ref": "B48 851", "royal_cypher": "GVIR", "source": "survey"}}, {"name": "N/A", "amenity": "bench", "data_type": "node", "lat": "52.3543167", "lon": "-1.9582000", "other_tags": {"amenity": "bench"}}, {"name": "N/A", "amenity": "bench", "data_type": "node", "lat": "52.3544073", "lon": "-1.9579575", "other_tags": {"amenity": "bench"}}, {"name": "Alvechurch Library", "amenity": "library", "data_type": "node", "lat": "52.3562224", "lon": "-1.9630047", "other_tags": {"amenity": "library", "name": "Alvechurch Library"}}, {"name": "Alvechurch Library", "amenity": "library", "data_type": "way", "lat": "52.3562806", "lon": "-1.9632063", "other_tags": {"amenity": "library", "building": "library", "name": "Alvechurch Library"}}, {"name": "Alvechurch CofE Middle School", "amenity": "school", "data_type": "way", "lat": "52.3561383", "lon": "-1.9627229", "other_tags": {"addr:postcode": "B48 7TA", "amenity": "school", "capacity": "440", "denomination": "anglican", "diocese": "Diocese of Worcester", "max_age": "13", "min_age": "9", "name": "Alvechurch CofE Middle School", "official_name": "Alvechurch CofE Middle School", "phone": "+44 121 4451033", "ref:GB:uprn": "10023883785", "ref:edubase": "143507", "ref:edubase:group": "16607", "religion": "christian", "school:boarding": "no", "school:gender": "mixed", "school:selective": "no", "school:trust": "yes", "school:trust:name": "Alvechurch C of E Multi-Academy Trust", "school:trust:type": "multi_academy", "school:type": "academy", "source": "estimate", "source:addr:postcode": "get-information-schools.service.gov.uk", "website": "http://www.alvechurchmiddle.co.uk/", "wikidata": "Q4737927"}}, {"name": "N/A", "amenity": "parking", "data_type": "way", "lat": "52.3539410", "lon": "-1.9588059", "other_tags": {"amenity": "parking", "parking": "surface"}}, {"name": "Crown Meadow First School & Nursery", "amenity": "school", "data_type": "way", "lat": "52.3554771", "lon": "-1.9620168", "other_tags": {"addr:postcode": "B48 7TA", "amenity": "school", "name": "Crown Meadow First School & Nursery", "ref:edubase": "116646", "source": "estimate", "source:addr:postcode": "get-information-schools.service.gov.uk", "url": "http://www.crownmeadow.worcs.sch.uk/"}}]}, {"county": "Worcestershire", "code": "E00163843", "lad": "Bromsgrove", "rgn_main": "West Midlands", "population": 107, "amenities": [{"name": "N/A", "amenity": "post_box", "data_type": "node", "lat": "52.3727451", "lon": "-1.9593377", "other_tags": {"amenity": "post_box", "ref": "B48 192"}}, {"name": "N/A", "amenity": "parking", "data_type": "way", "lat": "52.3720292", "lon": "-1.9588386", "other_tags": {"access": "private", "amenity": "parking"}}]}, {"county": "Worcestershire", "code": "E00163844", "lad": "Bromsgrove", "rgn_main": "West Midlands", "population": 350, "amenities": [{"name": "N/A", "amenity": "post_box", "data_type": "node", "lat": "52.3654180", "lon": "-1.9585852", "other_tags": {"amenity": "post_box", "source": "survey"}}, {"name": "N/A", "amenity": "post_box", "data_type": "node", "lat": "52.3636124", "lon": "-1.9460532", "other_tags": {"amenity": "post_box", "brand": "Royal Mail", "brand:wikidata": "Q638098", "collection_plate": "not visible", "collection_times": "Mo-Fr 16:00, Sa 08:00", "indoor": "yes", "operator": "Royal Mail", "operator:wikidata": "Q638098", "post_box:type": "pillar", "ref": "B48 10", "royal_cypher": "EIIR", "source": "survey"}}, {"name": "N/A", "amenity": "post_box", "data_type": "node", "lat": "52.3771480", "lon": "-1.9583661", "other_tags": {"amenity": "post_box", "collection_times": "Mo-Fr 16:00; Sa 08:00", "ref": "B48 117"}}, {"name": "N/A", "amenity": "grit_bin", "data_type": "node", "lat": "52.3790726", "lon": "-1.9491042", "other_tags": {"amenity": "grit_bin", "source": "survey"}}, {"name": "N/A", "amenity": "grit_bin", "data_type": "node", "lat": "52.3861799", "lon": "-1.9468819", "other_tags": {"amenity": "grit_bin", "source": "survey"}}, {"name": "WB Services Hopwood M42", "amenity": "charging_station", "data_type": "node", "lat": "52.3636316", "lon": "-1.9463695", "other_tags": {"access": "yes", "amenity": "charging_station", "capacity": "4", "fuel:electricity": "yes", "name": "WB Services Hopwood M42", "operator": "Ecotricity", "ref": "DBTNSQC442G000887P", "source": "National Chrage Point Register"}}, {"name": "Starbucks", "amenity": "cafe", "data_type": "node", "lat": "52.3637217", "lon": "-1.9459650", "other_tags": {"addr:city": "Alvechurch", "addr:parentstreet": "Redditch Road", "addr:postcode": "B48 7AU", "addr:street": "Hopwood Park Services", "amenity": "cafe", "brand": "Starbucks", "brand:wikidata": "Q37158", "brand:wikipedia": "en:Starbucks", "cuisine": "coffee_shop", "diet:vegetarian": "yes", "fhrs:id": "1007148", "name": "Starbucks", "official_name": "Starbucks Coffee", "opening_hours": "24/7", "takeaway": "yes"}}, {"name": "Subway", "amenity": "fast_food", "data_type": "node", "lat": "52.3637731", "lon": "-1.9457199", "other_tags": {"addr:city": "Alvechurch", "addr:parentstreet": "Redditch Road", "addr:postcode": "B48 7AU", "addr:street": "Hopwood Park Services", "amenity": "fast_food", "brand": "Subway", "brand:wikidata": "Q244457", "brand:wikipedia": "en:Subway (restaurant)", "contact:website": "https://restaurants.subway.com/united-kingdom/en/alvechurch/m42-j2-redditch-road", "cuisine": "sandwich", "fhrs:id": "1007144", "name": "Subway", "takeaway": "yes"}}, {"name": "Harry Ramsden's", "amenity": "fast_food", "data_type": "node", "lat": "52.3636842", "lon": "-1.9456890", "other_tags": {"addr:city": "Alvechurch", "addr:parentstreet": "Redditch Road", "addr:postcode": "B48 7AU", "addr:street": "Hopwood Park Services", "amenity": "fast_food", "brand": "Harry Ramsden's", "brand:wikidata": "Q5671849", "brand:wikipedia": "en:Harry Ramsden's", "cuisine": "fish_and_chips", "fhrs:id": "1007146", "name": "Harry Ramsden's", "takeaway": "yes"}}, {"name": "KFC", "amenity": "fast_food", "data_type": "node", "lat": "52.3636259", "lon": "-1.9454180", "other_tags": {"addr:city": "Alvechurch", "addr:parentstreet": "Redditch Road", "addr:postcode": "B48 7AU", "addr:street": "Hopwood Park Services", "alt_name": "Kentucky Fried Chicken", "amenity": "fast_food", "brand": "KFC", "brand:wikidata": "Q524757", "brand:wikipedia": "en:KFC", "contact:website": "https://www.kfc.co.uk/kfc-near-me/hopwood-services", "cuisine": "chicken", "drive_through": "no", "fhrs:id": "1007143", "name": "KFC", "takeaway": "yes"}}, {"name": "Burger King", "amenity": "fast_food", "data_type": "node", "lat": "52.3636870", "lon": "-1.9455316", "other_tags": {"addr:city": "Alvechurch", "addr:parentstreet": "Redditch Road", "addr:postcode": "B48 7AU", "addr:street": "Hopwood Park Services", "amenity": "fast_food", "brand": "Burger King", "brand:wikidata": "Q177054", "brand:wikipedia": "en:Burger King", "contact:website": "https://locations.burgerking.co.uk/alvechurch/hopwod-park-s/a-jct-2", "cuisine": "burger", "fhrs:id": "1007145", "name": "Burger King", "takeaway": "yes"}}, {"name": "Hopwood Park Supercharger", "amenity": "charging_station", "data_type": "node", "lat": "52.3631241", "lon": "-1.9454444", "other_tags": {"access": "customers", "addr:city": "Birmingham", "addr:country": "GB", "addr:postcode": "B48 7AU", "addr:street": "Redditch Road", "amenity": "charging_station", "amenity:wikipedia": "en:Tesla Supercharger", "brand": "Tesla Supercharger", "brand:wikidata": "Q17089620", "brand:wikipedia": "en:Tesla Supercharger", "capacity": "16", "car": "yes", "fee": "yes", "name": "Hopwood Park Supercharger", "opening_hours": "24/7", "operator": "Tesla, Inc.", "socket:tesla_supercharger": "16", "socket:tesla_supercharger:output": "150 kW", "socket:tesla_supercharger_ccs": "16", "socket:tesla_supercharger_ccs:output": "150 kW", "website": "https://www.tesla.com/findus/location/supercharger/birminghamhopwoodparksupercharger"}}, {"name": "N/A", "amenity": "parking", "data_type": "node", "lat": "52.3641788", "lon": "-1.9500076", "other_tags": {"access": "yes", "amenity": "parking", "fee": "no", "source": "survey"}}, {"name": "N/A", "amenity": "parking", "data_type": "node", "lat": "52.3644923", "lon": "-1.9506097", "other_tags": {"access": "yes", "amenity": "parking", "fee": "no", "source": "survey"}}, {"name": "N/A", "amenity": "toilets", "data_type": "node", "lat": "52.3638719", "lon": "-1.9458407", "other_tags": {"amenity": "toilets", "fee": "no", "source": "survey", "wheelchair": "yes"}}, {"name": "N/A", "amenity": "post_box", "data_type": "node", "lat": "52.3721616", "lon": "-1.9562967", "other_tags": {"amenity": "post_box", "ref": "B48 1194"}}, {"name": "Shell Hopwood Park", "amenity": "fuel", "data_type": "way", "lat": "52.3635527", "lon": "-1.9485134", "other_tags": {"addr:city": "Alvechurch", "addr:parentstreet": "Redditch Road", "addr:postcode": "B48 7AU", "addr:street": "Hopwood Park Services", "amenity": "fuel", "brand": "Shell", "building": "yes", "name": "Shell Hopwood Park", "opening_hours": "24/7", "operator": "Shell", "phone": "+44 121 445 6662", "ref:navads": "NVDS353_10045882"}}, {"name": "Hopwood Village Hall", "amenity": "community_hall", "data_type": "way", "lat": "52.3780796", "lon": "-1.9585823", "other_tags": {"addr:postcode": "B48 7AL", "amenity": "community_hall", "building": "yes", "fhrs:id": "684284", "name": "Hopwood Village Hall", "source": "bing"}}, {"name": "Lorry Parking", "amenity": "parking", "data_type": "way", "lat": "52.3648032", "lon": "-1.9501687", "other_tags": {"amenity": "parking", "name": "Lorry Parking", "parking": "surface", "source": "bing"}}, {"name": "N/A", "amenity": "parking", "data_type": "way", "lat": "52.3630306", "lon": "-1.9474664", "other_tags": {"access": "customers", "amenity": "parking", "fee": "no", "parking": "surface", "source": "visual survey; bing"}}, {"name": "N/A", "amenity": "parking", "data_type": "way", "lat": "52.3636069", "lon": "-1.9688080", "other_tags": {"amenity": "parking", "parking": "surface", "source": "bing"}}, {"name": "Hopwood House Inn", "amenity": "pub", "data_type": "way", "lat": "52.3720862", "lon": "-1.9567376", "other_tags": {"addr:city": "Hopwood", "addr:postcode": "B48 7AB", "addr:street": "Redditch Road", "amenity": "pub", "building": "yes", "fhrs:id": "672336", "name": "Hopwood House Inn", "outdoor_seating": "yes", "smoking": "outside"}}, {"name": "N/A", "amenity": "parking", "data_type": "way", "lat": "52.3719148", "lon": "-1.9566608", "other_tags": {"access": "customers", "amenity": "parking", "operator": "Hopwood House Inn", "parking": "surface", "supervised": "no", "surface": "asphalt"}}, {"name": "N/A", "amenity": "parking", "data_type": "way", "lat": "52.3779913", "lon": "-1.9577578", "other_tags": {"amenity": "parking"}}, {"name": "N/A", "amenity": "parking", "data_type": "way", "lat": "52.3749904", "lon": "-1.9566089", "other_tags": {"access": "private", "amenity": "parking"}}, {"name": "N/A", "amenity": "social_facility", "data_type": "way", "lat": "52.3748440", "lon": "-1.9562448", "other_tags": {"addr:city": "Hopwood", "addr:housename": "Hopwood Court Retirement Home", "addr:postcode": "B48 7AQ", "addr:street": "Birmingham Road", "amenity": "social_facility", "building": "yes", "fhrs:id": "672217", "social_facility": "group_home", "social_facility:for": "senior"}}, {"name": "N/A", "amenity": "parking", "data_type": "way", "lat": "52.3708930", "lon": "-1.9612417", "other_tags": {"access": "private", "amenity": "parking"}}, {"name": "N/A", "amenity": "parking", "data_type": "way", "lat": "52.3779357", "lon": "-1.9580984", "other_tags": {"access": "private", "amenity": "parking"}}, {"name": "The Leys Residential Home", "amenity": "social_facility", "data_type": "way", "lat": "52.3620549", "lon": "-1.9598673", "other_tags": {"addr:city": "Alvechurch", "addr:housename": "The Leys", "addr:postcode": "B48 7TQ", "addr:street": "Old Birmingham Road", "amenity": "social_facility", "building": "yes", "fhrs:id": "672326", "name": "The Leys Residential Home", "phone": "+44 121 445 5587", "social_facility": "group_home", "social_facility:for": "senior", "source": "bing"}}, {"name": "Karenswood Kennels", "amenity": "animal_boarding", "data_type": "way", "lat": "52.3672113", "lon": "-1.9493141", "other_tags": {"amenity": "animal_boarding", "animal_boarding": "dog", "building": "stable", "grooming": "yes", "name": "Karenswood Kennels", "source": "bing", "training": "yes", "website": "http://www.karenswoodkennels.co.uk/Home.html"}}, {"name": "N/A", "amenity": "parking", "data_type": "way", "lat": "52.3917043", "lon": "-1.9489115", "other_tags": {"access": "customers", "amenity": "parking", "parking": "surface", "surface": "asphalt"}}, {"name": "Starbucks Drive Thru", "amenity": "cafe", "data_type": "way", "lat": "52.3633891", "lon": "-1.9473287", "other_tags": {"addr:housename": "Starbucks Drive-Thru", "amenity": "cafe", "building": "retail", "name": "Starbucks Drive Thru", "source": "visual survey;estimate"}}]}, {"county": "Worcestershire", "code": "E00163845", "lad": "Bromsgrove", "rgn_main": "West Midlands", "population": 428, "amenities": [{"name": "N/A", "amenity": "post_box", "data_type": "node", "lat": "52.3645470", "lon": "-1.9186017", "other_tags": {"amenity": "post_box", "ref": "B48 9"}}, {"name": "N/A", "amenity": "bench", "data_type": "node", "lat": "52.3435426", "lon": "-1.9366591", "other_tags": {"amenity": "bench", "backrest": "yes", "material": "metal", "source": "survey"}}, {"name": "The Coach and Horses", "amenity": "pub", "data_type": "way", "lat": "52.3648936", "lon": "-1.9185298", "other_tags": {"addr:city": "Alvechurch", "addr:housename": "Coach & Horses Inn", "addr:postcode": "B48 7EA", "addr:street": "Weatheroak Hill", "amenity": "pub", "brewery": "yes", "building": "yes", "fhrs:id": "672406", "name": "The Coach and Horses", "name_1": "Weatheroak Hill Brewery", "real_ale": "yes", "smoking": "outside", "source": "visual survey;bing;local knowledge"}}, {"name": "Village Hall", "amenity": "community_centre", "data_type": "way", "lat": "52.3436659", "lon": "-1.9373655", "other_tags": {"amenity": "community_centre", "building": "yes", "name": "Village Hall"}}]}, {"county": "Worcestershire", "code": "E00163846", "lad": "Bromsgrove", "rgn_main": "West Midlands", "population": 258, "amenities": []}, {"county": "Worcestershire", "code": "E00163847", "lad": "Bromsgrove", "rgn_main": "West Midlands", "population": 206, "amenities": [{"name": "N/A", "amenity": "bench", "data_type": "node", "lat": "52.3492940", "lon": "-1.9779200", "other_tags": {"amenity": "bench", "source": "survey"}}, {"name": "The Weighbridge Inn", "amenity": "pub", "data_type": "node", "lat": "52.3475492", "lon": "-1.9696365", "other_tags": {"amenity": "pub", "name": "The Weighbridge Inn", "operator": "Freehouse"}}, {"name": "N/A", "amenity": "post_box", "data_type": "node", "lat": "52.3512270", "lon": "-1.9742682", "other_tags": {"amenity": "post_box"}}, {"name": "N/A", "amenity": "parking", "data_type": "node", "lat": "52.3536498", "lon": "-1.9734221", "other_tags": {"amenity": "parking"}}, {"name": "N/A", "amenity": "parking", "data_type": "way", "lat": "52.3513797", "lon": "-1.9735645", "other_tags": {"amenity": "parking", "parking": "surface", "source": "bing"}}, {"name": "N/A", "amenity": "parking", "data_type": "way", "lat": "52.3472841", "lon": "-1.9706612", "other_tags": {"access": "customers", "amenity": "parking", "fee": "no", "parking": "surface", "source": "bing"}}, {"name": "The Crown", "amenity": "pub", "data_type": "way", "lat": "52.3515074", "lon": "-1.9738990", "other_tags": {"amenity": "pub", "building": "yes", "name": "The Crown", "source": "bing"}}]}, {"county": "Worcestershire", "code": "E00163848", "lad": "Bromsgrove", "rgn_main": "West Midlands", "population": 279, "amenities": []}, {"county": "Worcestershire", "code": "E00163849", "lad": "Bromsgrove", "rgn_main": "West Midlands", "population": 272, "amenities": []}, {"county": "Worcestershire", "code": "E00163850", "lad": "Bromsgrove", "rgn_main": "West Midlands", "population": 276, "amenities": []}, {"county": "Worcestershire", "code": "E00163851", "lad": "Bromsgrove", "rgn_main": "West Midlands", "population": 299, "amenities": [{"name": "Alvechurch Baptist Church", "amenity": "place_of_worship", "data_type": "way", "lat": "52.3524924", "lon": "-1.9605336", "other_tags": {"amenity": "place_of_worship", "building": "church", "denomination": "baptist", "name": "Alvechurch Baptist Church", "religion": "christian"}}, {"name": "Red Lion", "amenity": "pub", "data_type": "way", "lat": "52.3528842", "lon": "-1.9614083", "other_tags": {"addr:city": "Alvechurch", "addr:postcode": "B48 7LG", "addr:street": "Red Lion Street", "amenity": "pub", "building": "yes", "name": "Red Lion", "opening_hours": "Mo-Sa 12:00-23:00; Su 12:00-22:30", "operator": "Vintage Inns", "phone": "+44 121 4454162", "website": "https://www.vintageinn.co.uk/theredlionalvechurch/"}}]}, {"county": "Worcestershire", "code": "E00163852", "lad": "Bromsgrove", "rgn_main": "West Midlands", "population": 247, "amenities": [{"name": "N/A", "amenity": "toilets", "data_type": "node", "lat": "52.3521755", "lon": "-1.9610700", "other_tags": {"amenity": "toilets", "fee": "no", "note": "Radar", "wheelchair": "yes"}}, {"name": "N/A", "amenity": "recycling", "data_type": "node", "lat": "52.3523354", "lon": "-1.9612629", "other_tags": {"amenity": "recycling", "recycling:glass": "yes"}}, {"name": "Tanyard Lane", "amenity": "parking", "data_type": "way", "lat": "52.3523738", "lon": "-1.9617571", "other_tags": {"amenity": "parking", "name": "Tanyard Lane", "parking": "surface"}}, {"name": "N/A", "amenity": "parking", "data_type": "way", "lat": "52.3520316", "lon": "-1.9613340", "other_tags": {"amenity": "parking", "capacity": "11", "parking": "surface"}}]}, {"county": "Worcestershire", "code": "E00163853", "lad": "Bromsgrove", "rgn_main": "West Midlands", "population": 264, "amenities": [{"name": "N/A", "amenity": "post_box", "data_type": "node", "lat": "52.3522065", "lon": "-1.9659398", "other_tags": {"amenity": "post_box", "postal_code": "B48", "ref": "B48 785", "source": "survey"}}]}, {"county": "Worcestershire", "code": "E00163854", "lad": "Bromsgrove", "rgn_main": "West Midlands", "population": 298, "amenities": []}, {"county": "Worcestershire", "code": "E00163855", "lad": "Bromsgrove", "rgn_main": "West Midlands", "population": 421, "amenities": [{"name": "N/A", "amenity": "post_box", "data_type": "node", "lat": "52.3515955", "lon": "-1.9600903", "other_tags": {"amenity": "post_box", "collection_times": "Mo-Fr 17:00; Sa 10:15", "operator": "Royal Mail", "operator:wikidata": "Q638098", "post_box:type": "pillar", "postal_code": "B48", "ref": "B48 223", "royal_cypher": "EIIR", "source": "survey"}}, {"name": "N/A", "amenity": "telephone", "data_type": "node", "lat": "52.3515822", "lon": "-1.9600530", "other_tags": {"amenity": "telephone", "booth": "K6", "covered": "booth", "listed_status": "Grade II", "operator": "BT", "phone": "+44 121 447 7635", "source": "survey"}}, {"name": "Tudor Rose Fish Bar", "amenity": "fast_food", "data_type": "node", "lat": "52.3519417", "lon": "-1.9597276", "other_tags": {"amenity": "fast_food", "cuisine": "fish_and_chips", "name": "Tudor Rose Fish Bar", "source": "survey"}}, {"name": "N/A", "amenity": "atm", "data_type": "node", "lat": "52.3523032", "lon": "-1.9592234", "other_tags": {"amenity": "atm", "operator": "Link"}}, {"name": "Cafe Morso", "amenity": "cafe", "data_type": "node", "lat": "52.3515785", "lon": "-1.9592618", "other_tags": {"addr:city": "Alvechurch", "addr:housenumber": "9", "addr:postcode": "B48 7LA", "addr:street": "The Square", "amenity": "cafe", "fhrs:id": "738041", "name": "Cafe Morso"}}, {"name": "Medical Centre", "amenity": "doctors", "data_type": "node", "lat": "52.3518469", "lon": "-1.9588540", "other_tags": {"amenity": "doctors", "description": "Medical Centre", "healthcare": "doctor", "name": "Medical Centre"}}, {"name": "The Lounge/Youth Club", "amenity": "cafe", "data_type": "node", "lat": "52.3521532", "lon": "-1.9592132", "other_tags": {"amenity": "cafe", "name": "The Lounge/Youth Club"}}, {"name": "N/A", "amenity": "bench", "data_type": "node", "lat": "52.3517241", "lon": "-1.9601767", "other_tags": {"amenity": "bench", "backrest": "yes", "source": "survey"}}, {"name": "N/A", "amenity": "bench", "data_type": "node", "lat": "52.3513739", "lon": "-1.9606457", "other_tags": {"amenity": "bench"}}, {"name": "N/A", "amenity": "bench", "data_type": "node", "lat": "52.3517826", "lon": "-1.9594575", "other_tags": {"amenity": "bench"}}, {"name": "N/A", "amenity": "bench", "data_type": "node", "lat": "52.3518339", "lon": "-1.9596802", "other_tags": {"amenity": "bench"}}, {"name": "N/A", "amenity": "bench", "data_type": "node", "lat": "52.3515800", "lon": "-1.9594148", "other_tags": {"amenity": "bench"}}, {"name": "N/A", "amenity": "parking", "data_type": "way", "lat": "52.3521764", "lon": "-1.9596288", "other_tags": {"amenity": "parking", "maxstay": "60", "parking": "surface"}}, {"name": "N/A", "amenity": "parking", "data_type": "way", "lat": "52.3517897", "lon": "-1.9595000", "other_tags": {"amenity": "parking"}}, {"name": "St Laurence", "amenity": "place_of_worship", "data_type": "way", "lat": "52.3501979", "lon": "-1.9623821", "other_tags": {"amenity": "place_of_worship", "building": "church", "denomination": "anglican", "heritage": "2", "heritage:operator": "Historic England", "listed_status": "Grade II", "name": "St Laurence", "religion": "christian", "wikidata": "Q17547512"}}, {"name": "N/A", "amenity": "grave_yard", "data_type": "way", "lat": "52.3506762", "lon": "-1.9609310", "other_tags": {"amenity": "grave_yard", "source": "bing"}}, {"name": "Alvechurch Village Hall", "amenity": "public_building", "data_type": "way", "lat": "52.3517633", "lon": "-1.9604203", "other_tags": {"addr:housenumber": "10", "addr:postcode": "B48 7JX", "addr:street": "Bear Hill", "amenity": "public_building", "building": "yes", "fhrs:id": "684274", "name": "Alvechurch Village Hall"}}, {"name": "The Ark", "amenity": "place_of_worship", "data_type": "way", "lat": "52.3501716", "lon": "-1.9625615", "other_tags": {"amenity": "place_of_worship", "building": "church", "denomination": "anglican", "name": "The Ark", "religion": "christian"}}, {"name": "The Swan", "amenity": "pub", "data_type": "way", "lat": "52.3512637", "lon": "-1.9595941", "other_tags": {"addr:city": "Birmingham", "addr:housenumber": "12", "addr:postcode": "B48 7RP", "addr:street": "Swan Street", "amenity": "pub", "building": "pub", "fhrs:id": "1302415", "name": "The Swan"}}, {"name": "Tran's Chinese", "amenity": "fast_food", "data_type": "way", "lat": "52.3523265", "lon": "-1.9596838", "other_tags": {"amenity": "fast_food", "building": "retail", "cuisine": "chinese", "name": "Tran's Chinese", "source": "visual survey;bing"}}, {"name": "New Dilshad", "amenity": "restaurant", "data_type": "way", "lat": "52.3522792", "lon": "-1.9596324", "other_tags": {"addr:city": "Alvechurch", "addr:housenumber": "2", "addr:postcode": "B48 7LF", "addr:street": "Red Lion Street", "amenity": "restaurant", "building": "retail", "fhrs:id": "672341", "name": "New Dilshad", "source": "visual survey;bing"}}, {"name": "Alvechurch Sports & Social Club", "amenity": "nightclub", "data_type": "way", "lat": "52.3515362", "lon": "-1.9588884", "other_tags": {"addr:city": "Alvechurch", "addr:postcode": "B48 7LD", "addr:street": "Radford Road", "amenity": "nightclub", "building": "yes", "fhrs:id": "672395", "name": "Alvechurch Sports & Social Club", "source": "bing"}}, {"name": "Lloyds Pharmacy", "amenity": "pharmacy", "data_type": "way", "lat": "52.3516439", "lon": "-1.9590032", "other_tags": {"amenity": "pharmacy", "brand": "Lloyds Pharmacy", "brand:wikidata": "Q6662870", "brand:wikipedia": "en:LloydsPharmacy", "building": "retail", "healthcare": "pharmacy", "name": "Lloyds Pharmacy", "source": "bing"}}, {"name": "N/A", "amenity": "grave_yard", "data_type": "way", "lat": "52.3493509", "lon": "-1.9639189", "other_tags": {"amenity": "grave_yard", "source": "bing"}}, {"name": "Alvechurch Sports & Social Club Car Park", "amenity": "parking", "data_type": "way", "lat": "52.3510921", "lon": "-1.9586126", "other_tags": {"amenity": "parking", "fee": "no", "maxstay": "120", "name": "Alvechurch Sports & Social Club Car Park", "operator": "Club & Parish Council maintained", "parking": "surface"}}]}, {"county": "Worcestershire", "code": "E00163856", "lad": "Bromsgrove", "rgn_main": "West Midlands", "population": 288, "amenities": []}, {"county": "Worcestershire", "code": "E00163857", "lad": "Bromsgrove", "rgn_main": "West Midlands", "population": 367, "amenities": [{"name": "N/A", "amenity": "parking", "data_type": "node", "lat": "52.3463879", "lon": "-1.9675412", "other_tags": {"amenity": "parking"}}, {"name": "N/A", "amenity": "post_box", "data_type": "node", "lat": "52.3392892", "lon": "-1.9534222", "other_tags": {"amenity": "post_box", "collection_times": "Mo-Fr 16:30; Sa 09:15", "operator": "Royal Mail", "operator:wikidata": "Q638098", "post_box:type": "lamp", "ref": "B48 35", "royal_cypher": "EIIR", "source": "survey"}}, {"name": "Alms Houses", "amenity": "social_facility", "data_type": "node", "lat": "52.3474117", "lon": "-1.9660884", "other_tags": {"amenity": "social_facility", "name": "Alms Houses", "social_facility": "shelter", "social_facility:for": "homeless"}}, {"name": "N/A", "amenity": "bicycle_parking", "data_type": "node", "lat": "52.3475726", "lon": "-1.9679866", "other_tags": {"amenity": "bicycle_parking", "bicycle_parking": "rack", "capacity": "13", "covered": "yes", "fee": "no"}}, {"name": "N/A", "amenity": "bicycle_parking", "data_type": "way", "lat": "52.3442044", "lon": "-1.9555897", "other_tags": {"amenity": "bicycle_parking", "operator": "Alvechurch FC"}}, {"name": "N/A", "amenity": "bicycle_parking", "data_type": "way", "lat": "52.3447847", "lon": "-1.9556398", "other_tags": {"amenity": "bicycle_parking", "operator": "Alvechurch FC"}}]}, {"county": "Worcestershire", "code": "E00163858", "lad": "Bromsgrove", "rgn_main": "West Midlands", "population": 278, "amenities": [{"name": "N/A", "amenity": "post_box", "data_type": "node", "lat": "52.3428787", "lon": "-1.9378105", "other_tags": {"amenity": "post_box", "collection_times": "Mo-Fr 16:15; Sa 09:00", "operator": "Royal Mail", "operator:wikidata": "Q638098", "post_box:type": "pillar", "ref": "B48 1339", "royal_cypher": "EIIR"}}, {"name": "N/A", "amenity": "bench", "data_type": "node", "lat": "52.3440086", "lon": "-1.9426385", "other_tags": {"amenity": "bench", "backrest": "yes", "material": "wood", "source": "survey"}}, {"name": "Rowney Green Shared Church", "amenity": "place_of_worship", "data_type": "way", "lat": "52.3438431", "lon": "-1.9338962", "other_tags": {"amenity": "place_of_worship", "building": "church", "name": "Rowney Green Shared Church", "religion": "christian", "source": "bing"}}]}, {"county": "Worcestershire", "code": "E00163859", "lad": "Bromsgrove", "rgn_main": "West Midlands", "population": 303, "amenities": [{"name": "N/A", "amenity": "post_box", "data_type": "node", "lat": "52.3294982", "lon": "-1.9467267", "other_tags": {"amenity": "post_box", "ref": "B97 114"}}, {"name": "N/A", "amenity": "parking", "data_type": "node", "lat": "52.3242490", "lon": "-1.9415162", "other_tags": {"access": "customers", "amenity": "parking", "capacity": "3"}}, {"name": "Bordesley Service Station", "amenity": "fuel", "data_type": "way", "lat": "52.3241932", "lon": "-1.9413779", "other_tags": {"amenity": "fuel", "brand": "BP", "brand:wikidata": "Q152057", "brand:wikipedia": "en:BP", "building": "roof", "fuel:diesel": "yes", "fuel:octane_95": "yes", "layer": "1", "name": "Bordesley Service Station", "wheelchair": "yes"}}]}, {"county": "Worcestershire", "code": "E00163860", "lad": "Bromsgrove", "rgn_main": "West Midlands", "population": 245, "amenities": [{"name": "N/A", "amenity": "post_box", "data_type": "node", "lat": "52.3246653", "lon": "-1.8882594", "other_tags": {"amenity": "post_box", "collection_times": "Mo-Fr 16:00; Sa 08:00", "operator": "Royal Mail", "operator:wikidata": "Q638098", "post_box:type": "lamp", "ref": "B98 135", "royal_cypher": "EIIR", "source": "survey"}}, {"name": "Dave's Snack Bar", "amenity": "cafe", "data_type": "node", "lat": "52.3253224", "lon": "-1.8672708", "other_tags": {"amenity": "cafe", "delivery": "no", "name": "Dave's Snack Bar", "outdoor_seating": "yes", "smoking": "outside", "takeaway": "yes"}}, {"name": "N/A", "amenity": "post_box", "data_type": "node", "lat": "52.3236966", "lon": "-1.8931145", "other_tags": {"amenity": "post_box", "collection_times": "Mo-Fr 09:00; Sa 07:00", "operator": "Royal Mail", "operator:wikidata": "Q638098", "post_box:mounting": "brick_pillar", "post_box:type": "wall", "ref": "B98 84D", "royal_cypher": "EIIR", "source": "survey"}}, {"name": "N/A", "amenity": "post_box", "data_type": "node", "lat": "52.3324134", "lon": "-1.8697149", "other_tags": {"amenity": "post_box", "collection_times": "Mo-Fr 16:15; Sa 08:30", "operator": "Royal Mail", "operator:wikidata": "Q638098", "post_box:type": "lamp", "ref": "B98 53", "royal_cypher": "EIIR", "source": "survey"}}, {"name": "Beoley First School", "amenity": "school", "data_type": "way", "lat": "52.3246061", "lon": "-1.8951022", "other_tags": {"addr:city": "Redditch", "addr:postcode": "B98 9AN", "addr:street": "Beoley Lane", "amenity": "school", "name": "Beoley First School", "ref:edubase": "116652", "source": "bing", "source:addr:postcode": "get-information-schools.service.gov.uk"}}, {"name": "The Cross & Bowling Green", "amenity": "pub", "data_type": "way", "lat": "52.3328969", "lon": "-1.8690122", "other_tags": {"addr:city": "Redditch", "addr:postcode": "B98 9DR", "addr:street": "Alcester Road", "amenity": "pub", "building": "pub", "fhrs:id": "1202577", "name": "The Cross & Bowling Green", "source": "Warwicks CC 2013 Aerial Imagery"}}, {"name": "N/A", "amenity": "parking", "data_type": "way", "lat": "52.3238372", "lon": "-1.8959463", "other_tags": {"amenity": "parking", "fee": "no", "parking": "surface", "source": "Warwicks CC Aerial Imagery 2013"}}, {"name": "Beoley Village Hall", "amenity": "community_centre", "data_type": "way", "lat": "52.3238273", "lon": "-1.8962071", "other_tags": {"addr:city": "Beoley", "addr:postcode": "B98 9AN", "addr:street": "Beoley Lane", "amenity": "community_centre", "building": "yes", "name": "Beoley Village Hall", "website": "http://www.beoley.org.uk/"}}, {"name": "Woodland House Private Day Nursery", "amenity": "childcare", "data_type": "way", "lat": "52.3241588", "lon": "-1.8961912", "other_tags": {"addr:city": "Beoley", "addr:postcode": "B98 9AN", "addr:street": "Beoley Lane", "amenity": "childcare", "building": "yes", "name": "Woodland House Private Day Nursery", "phone": "+44 1527 596868", "source": "Warwicks CC Aerial Imagery 2013", "website": "http://woodlandhousegroup.co.uk/woodlandhouse/home/"}}, {"name": "Beoley Garage", "amenity": "fuel", "data_type": "way", "lat": "52.3324340", "lon": "-1.8691411", "other_tags": {"amenity": "fuel", "brand": "Murco", "brand:wikidata": "Q16998281", "brand:wikipedia": "en:Murco Petroleum", "building": "roof", "fuel:diesel": "yes", "fuel:octane_95": "yes", "fuel:octane_98": "yes", "name": "Beoley Garage"}}, {"name": "N/A", "amenity": "parking", "data_type": "way", "lat": "52.3119906", "lon": "-1.8769944", "other_tags": {"access": "private", "amenity": "parking", "parking": "surface", "source": "maxar"}}]}, {"county": "Worcestershire", "code": "E00163861", "lad": "Bromsgrove", "rgn_main": "West Midlands", "population": 258, "amenities": [{"name": "N/A", "amenity": "post_box", "data_type": "node", "lat": "52.3315431", "lon": "-1.9098016", "other_tags": {"amenity": "post_box", "ref": "B98 59"}}, {"name": "N/A", "amenity": "grave_yard", "data_type": "way", "lat": "52.3251979", "lon": "-1.9062031", "other_tags": {"amenity": "grave_yard", "source": "Bing"}}, {"name": "St. Leonard", "amenity": "place_of_worship", "data_type": "way", "lat": "52.3249518", "lon": "-1.9059545", "other_tags": {"amenity": "place_of_worship", "building": "church", "denomination": "anglican", "heritage": "2", "heritage:operator": "Historic England", "listed_status": "Grade I", "name": "St. Leonard", "religion": "christian", "wikidata": "Q17530258"}}, {"name": "N/A", "amenity": "parking", "data_type": "way", "lat": "52.3245798", "lon": "-1.9055459", "other_tags": {"amenity": "parking", "capacity": "9", "operator": "St. Leonard's Church", "parking": "surface", "source": "Bing"}}, {"name": "The Village Inn", "amenity": "pub", "data_type": "way", "lat": "52.3238702", "lon": "-1.8912992", "other_tags": {"amenity": "pub", "building": "yes", "name": "The Village Inn", "source": "bing"}}, {"name": "N/A", "amenity": "parking", "data_type": "way", "lat": "52.3238254", "lon": "-1.8904965", "other_tags": {"amenity": "parking", "parking": "surface", "source": "bing"}}]}, {"county": "Worcestershire", "code": "E00163864", "lad": "Bromsgrove", "rgn_main": "West Midlands", "population": 313, "amenities": [{"name": "Home Farm Day Nursery", "amenity": "childcare", "data_type": "way", "lat": "52.3767203", "lon": "-2.0410946", "other_tags": {"amenity": "childcare", "building": "yes", "name": "Home Farm Day Nursery"}}, {"name": "The Meadows", "amenity": "nursing_home", "data_type": "way", "lat": "52.3798552", "lon": "-2.0394641", "other_tags": {"addr:street": "Birmingham Road", "amenity": "nursing_home", "name": "The Meadows"}}]}, {"county": "Worcestershire", "code": "E00163865", "lad": "Bromsgrove", "rgn_main": "West Midlands", "population": 262, "amenities": []}, {"county": "Worcestershire", "code": "E00163866", "lad": "Bromsgrove", "rgn_main": "West Midlands", "population": 258, "amenities": []}, {"county": "Worcestershire", "code": "E00163867", "lad": "Bromsgrove", "rgn_main": "West Midlands", "population": 295, "amenities": [{"name": "N/A", "amenity": "post_box", "data_type": "node", "lat": "52.3919787", "lon": "-2.0143706", "other_tags": {"amenity": "post_box", "ref": "B45 566", "source": "survey"}}]}, {"county": "Worcestershire", "code": "E00163868", "lad": "Bromsgrove", "rgn_main": "West Midlands", "population": 334, "amenities": [{"name": "N/A", "amenity": "post_box", "data_type": "node", "lat": "52.3894919", "lon": "-2.0178313", "other_tags": {"amenity": "post_box", "ref": "B45 95", "source": "GPS Survey"}}]}, {"county": "Worcestershire", "code": "E00163869", "lad": "Bromsgrove", "rgn_main": "West Midlands", "population": 323, "amenities": []}, {"county": "Worcestershire", "code": "E00163870", "lad": "Bromsgrove", "rgn_main": "West Midlands", "population": 277, "amenities": [{"name": "N/A", "amenity": "post_box", "data_type": "node", "lat": "52.3901801", "lon": "-2.0253679", "other_tags": {"amenity": "post_box", "ref": "B45 199", "source": "survey"}}, {"name": "Beaconside Primary and Nursery School", "amenity": "school", "data_type": "way", "lat": "52.3901713", "lon": "-2.0244635", "other_tags": {"addr:postcode": "B45 9DX", "amenity": "school", "capacity": "231", "isced:level": "0;1", "max_age": "11", "min_age": "3", "name": "Beaconside Primary and Nursery School", "phone": "+44 121 4533801", "ref:GB:uprn": "100121262165", "ref:edubase": "116768", "religion": "none", "school:boarding": "no", "school:gender": "mixed", "school:selective": "no", "school:trust": "no", "school:type": "community", "source": "bing", "source:addr:postcode": "get-information-schools.service.gov.uk", "website": "https://www.beaconside.co.uk/"}}, {"name": "The Beacon Church Centre", "amenity": "place_of_worship", "data_type": "way", "lat": "52.3912672", "lon": "-2.0215342", "other_tags": {"amenity": "place_of_worship", "building": "church", "denomination": "united_reformed", "name": "The Beacon Church Centre", "religion": "christian"}}]}, {"county": "Worcestershire", "code": "E00163871", "lad": "Bromsgrove", "rgn_main": "West Midlands", "population": 414, "amenities": [{"name": "N/A", "amenity": "post_box", "data_type": "node", "lat": "52.3660917", "lon": "-2.0469380", "other_tags": {"amenity": "post_box", "collection_times": "Mo-Fr 09:00; Sa 07:00", "operator": "Royal Mail", "operator:wikidata": "Q638098", "post_box:type": "pillar", "ref": "B61 319D", "royal_cypher": "EIIR", "source": "survey"}}, {"name": "Esso", "amenity": "fuel", "data_type": "node", "lat": "52.3656894", "lon": "-2.0470767", "other_tags": {"amenity": "fuel", "brand": "Esso", "brand:wikidata": "Q867662", "brand:wikipedia": "en:Esso", "name": "Esso", "source": "survey"}}, {"name": "Miu Miu", "amenity": "fast_food", "data_type": "way", "lat": "52.3660402", "lon": "-2.0471797", "other_tags": {"addr:street": "Birmingham Road", "amenity": "fast_food", "building": "yes", "cuisine": "chinese", "name": "Miu Miu"}}, {"name": "N/A", "amenity": "parking", "data_type": "way", "lat": "52.3673358", "lon": "-2.0482985", "other_tags": {"amenity": "parking"}}, {"name": "N/A", "amenity": "parking", "data_type": "way", "lat": "52.3684020", "lon": "-2.0470513", "other_tags": {"amenity": "parking"}}, {"name": "N/A", "amenity": "parking", "data_type": "way", "lat": "52.3682710", "lon": "-2.0480651", "other_tags": {"amenity": "parking"}}]}, {"county": "Worcestershire", "code": "E00163872", "lad": "Bromsgrove", "rgn_main": "West Midlands", "population": 272, "amenities": []}, {"county": "Worcestershire", "code": "E00163873", "lad": "Bromsgrove", "rgn_main": "West Midlands", "population": 267, "amenities": [{"name": "N/A", "amenity": "atm", "data_type": "node", "lat": "52.3641129", "lon": "-2.0575576", "other_tags": {"amenity": "atm", "source": "survey"}}, {"name": "N/A", "amenity": "atm", "data_type": "node", "lat": "52.3659161", "lon": "-2.0561805", "other_tags": {"amenity": "atm", "source": "survey"}}, {"name": "N/A", "amenity": "parking", "data_type": "way", "lat": "52.3641524", "lon": "-2.0574279", "other_tags": {"amenity": "parking"}}, {"name": "N/A", "amenity": "parking", "data_type": "way", "lat": "52.3640537", "lon": "-2.0594785", "other_tags": {"amenity": "parking"}}, {"name": "Knights Pharmacy", "amenity": "pharmacy", "data_type": "way", "lat": "52.3640344", "lon": "-2.0590390", "other_tags": {"amenity": "pharmacy", "building": "retail", "healthcare": "pharmacy", "name": "Knights Pharmacy"}}, {"name": "Dildaar Balti", "amenity": "fast_food", "data_type": "way", "lat": "52.3640710", "lon": "-2.0584483", "other_tags": {"amenity": "fast_food", "building": "retail", "cuisine": "indian", "name": "Dildaar Balti"}}, {"name": "Spices", "amenity": "restaurant", "data_type": "way", "lat": "52.3640575", "lon": "-2.0586637", "other_tags": {"amenity": "restaurant", "building": "retail", "cuisine": "indian", "name": "Spices"}}, {"name": "Pizzaman", "amenity": "fast_food", "data_type": "way", "lat": "52.3640523", "lon": "-2.0587459", "other_tags": {"amenity": "fast_food", "building": "retail", "cuisine": "pizza", "name": "Pizzaman"}}, {"name": "Peking", "amenity": "fast_food", "data_type": "way", "lat": "52.3640686", "lon": "-2.0584868", "other_tags": {"amenity": "fast_food", "building": "retail", "cuisine": "chinese", "name": "Peking"}}, {"name": "Catshill Fish Bar", "amenity": "fast_food", "data_type": "way", "lat": "52.3640908", "lon": "-2.0581338", "other_tags": {"amenity": "fast_food", "building": "retail", "cuisine": "fish_and_chips", "name": "Catshill Fish Bar"}}, {"name": "Mr Wong's", "amenity": "fast_food", "data_type": "way", "lat": "52.3640839", "lon": "-2.0582435", "other_tags": {"amenity": "fast_food", "building": "retail", "cuisine": "chinese", "name": "Mr Wong's"}}, {"name": "Catshill Village Hall", "amenity": "community_centre", "data_type": "way", "lat": "52.3644424", "lon": "-2.0585768", "other_tags": {"amenity": "community_centre", "building": "yes", "name": "Catshill Village Hall"}}]}, {"county": "Worcestershire", "code": "E00163874", "lad": "Bromsgrove", "rgn_main": "West Midlands", "population": 285, "amenities": [{"name": "N/A", "amenity": "post_box", "data_type": "node", "lat": "52.3614480", "lon": "-2.0628429", "other_tags": {"amenity": "post_box", "collection_plate": "CP1", "collection_times": "Mo-Fr 16:45; Sa 09:30", "historic_operator": "Royal Mail", "post_box:type": "pillar", "ref": "B60 202", "royal_cypher": "EIIR", "source": "survey"}}, {"name": "N/A", "amenity": "telephone", "data_type": "node", "lat": "52.3614653", "lon": "-2.0625856", "other_tags": {"amenity": "telephone", "source": "survey"}}, {"name": "Catshill First School & Nursery", "amenity": "school", "data_type": "way", "lat": "52.3631414", "lon": "-2.0580626", "other_tags": {"addr:postcode": "B61 0JP", "amenity": "school", "name": "Catshill First School & Nursery", "ref:edubase": "116658", "source:addr:postcode": "get-information-schools.service.gov.uk"}}, {"name": "Catshill Middle School", "amenity": "school", "data_type": "way", "lat": "52.3623046", "lon": "-2.0612710", "other_tags": {"addr:postcode": "B61 0JW", "amenity": "school", "name": "Catshill Middle School", "ref:edubase": "116958", "source:addr:postcode": "get-information-schools.service.gov.uk"}}, {"name": "Chadsgrove School", "amenity": "school", "data_type": "way", "lat": "52.3613678", "lon": "-2.0624857", "other_tags": {"addr:postcode": "B61 0JL", "amenity": "school", "name": "Chadsgrove School", "previous_name": "Chadgrove School & Specialist Sports College", "ref:edubase": "117062", "source:addr:postcode": "get-information-schools.service.gov.uk"}}, {"name": "Catshill Post Office", "amenity": "post_office", "data_type": "way", "lat": "52.3616054", "lon": "-2.0631812", "other_tags": {"addr:city": "Bromsgrove", "addr:postcode": "B61 0JJ", "addr:street": "Meadow Road", "addr:suburb": "Catshill", "amenity": "post_office", "building": "yes", "name": "Catshill Post Office"}}, {"name": "N/A", "amenity": "parking", "data_type": "way", "lat": "52.3619473", "lon": "-2.0620992", "other_tags": {"amenity": "parking", "parking": "surface", "source": "bing"}}]}, {"county": "Worcestershire", "code": "E00163875", "lad": "Bromsgrove", "rgn_main": "West Midlands", "population": 365, "amenities": [{"name": "The Plough & Harrow", "amenity": "pub", "data_type": "node", "lat": "52.3647408", "lon": "-2.0652512", "other_tags": {"amenity": "pub", "name": "The Plough & Harrow", "source": "survey"}}, {"name": "Catshill Working Mens Club", "amenity": "pub", "data_type": "way", "lat": "52.3613343", "lon": "-2.0644028", "other_tags": {"amenity": "pub", "building": "yes", "name": "Catshill Working Mens Club"}}, {"name": "N/A", "amenity": "parking", "data_type": "way", "lat": "52.3611341", "lon": "-2.0645861", "other_tags": {"amenity": "parking"}}, {"name": "N/A", "amenity": "restaurant", "data_type": "way", "lat": "52.3646438", "lon": "-2.0652812", "other_tags": {"addr:city": "Bromsgrove", "addr:postcode": "B61 9LG", "addr:street": "Stourbridge Road", "addr:suburb": "Catshill", "amenity": "restaurant", "building": "yes"}}]}, {"county": "Worcestershire", "code": "E00163876", "lad": "Bromsgrove", "rgn_main": "West Midlands", "population": 236, "amenities": [{"name": "Catshill Baptist Church", "amenity": "place_of_worship", "data_type": "way", "lat": "52.3628647", "lon": "-2.0564191", "other_tags": {"amenity": "place_of_worship", "building": "yes", "denomination": "baptist", "name": "Catshill Baptist Church", "religion": "christian"}}]}, {"county": "Worcestershire", "code": "E00163877", "lad": "Bromsgrove", "rgn_main": "West Midlands", "population": 364, "amenities": [{"name": "N/A", "amenity": "post_box", "data_type": "node", "lat": "52.3576989", "lon": "-2.0641320", "other_tags": {"amenity": "post_box", "ref": "B61 1133", "source": "survey"}}, {"name": "Crown Inn", "amenity": "pub", "data_type": "way", "lat": "52.3600006", "lon": "-2.0648333", "other_tags": {"amenity": "pub", "building": "yes", "name": "Crown Inn", "source": "survey"}}, {"name": "N/A", "amenity": "parking", "data_type": "way", "lat": "52.3600194", "lon": "-2.0650836", "other_tags": {"amenity": "parking"}}, {"name": "N/A", "amenity": "parking", "data_type": "way", "lat": "52.3605559", "lon": "-2.0647349", "other_tags": {"amenity": "parking"}}]}, {"county": "Worcestershire", "code": "E00163878", "lad": "Bromsgrove", "rgn_main": "West Midlands", "population": 351, "amenities": []}, {"county": "Worcestershire", "code": "E00163879", "lad": "Bromsgrove", "rgn_main": "West Midlands", "population": 304, "amenities": []}, {"county": "Worcestershire", "code": "E00163880", "lad": "Bromsgrove", "rgn_main": "West Midlands", "population": 529, "amenities": [{"name": "Bromsgrove Spiritualist Church", "amenity": "place_of_worship", "data_type": "way", "lat": "52.3634226", "lon": "-2.0625739", "other_tags": {"addr:city": "Bromsgrove", "addr:postcode": "B61 0JY", "addr:street": "Church Road", "addr:suburb": "Catshill", "amenity": "place_of_worship", "building": "yes", "name": "Bromsgrove Spiritualist Church", "religion": "spiritualist"}}, {"name": "Christ Church Catshill", "amenity": "place_of_worship", "data_type": "way", "lat": "52.3642074", "lon": "-2.0643546", "other_tags": {"amenity": "place_of_worship", "building": "yes", "denomination": "anglican", "name": "Christ Church Catshill", "religion": "christian", "wikidata": "Q26391675"}}]}, {"county": "Worcestershire", "code": "E00163881", "lad": "Bromsgrove", "rgn_main": "West Midlands", "population": 364, "amenities": []}, {"county": "Worcestershire", "code": "E00163882", "lad": "Bromsgrove", "rgn_main": "West Midlands", "population": 250, "amenities": []}, {"county": "Worcestershire", "code": "E00163883", "lad": "Bromsgrove", "rgn_main": "West Midlands", "population": 313, "amenities": [{"name": "Catshill Methodist Church", "amenity": "place_of_worship", "data_type": "way", "lat": "52.3649204", "lon": "-2.0524322", "other_tags": {"amenity": "place_of_worship", "building": "yes", "denomination": "methodist", "name": "Catshill Methodist Church", "religion": "christian"}}]}, {"county": "Worcestershire", "code": "E00163884", "lad": "Bromsgrove", "rgn_main": "West Midlands", "population": 268, "amenities": [{"name": "N/A", "amenity": "post_box", "data_type": "node", "lat": "52.3667195", "lon": "-2.0551118", "other_tags": {"amenity": "post_box", "ref": "B61 591", "source": "survey"}}, {"name": "N/A", "amenity": "telephone", "data_type": "node", "lat": "52.3662648", "lon": "-2.0553755", "other_tags": {"amenity": "telephone", "source": "survey"}}, {"name": "Catshill Village Surgery", "amenity": "doctors", "data_type": "way", "lat": "52.3666326", "lon": "-2.0546751", "other_tags": {"amenity": "doctors", "building": "yes", "healthcare": "doctor", "name": "Catshill Village Surgery"}}, {"name": "Welcome Hall Evangelical Church", "amenity": "place_of_worship", "data_type": "way", "lat": "52.3664376", "lon": "-2.0549267", "other_tags": {"amenity": "place_of_worship", "building": "yes", "name": "Welcome Hall Evangelical Church", "religion": "christian"}}]}, {"county": "Worcestershire", "code": "E00163885", "lad": "Bromsgrove", "rgn_main": "West Midlands", "population": 281, "amenities": [{"name": "N/A", "amenity": "parking", "data_type": "way", "lat": "52.3203213", "lon": "-2.0697414", "other_tags": {"amenity": "parking", "parking": "surface"}}]}, {"county": "Worcestershire", "code": "E00163886", "lad": "Bromsgrove", "rgn_main": "West Midlands", "population": 363, "amenities": []}, {"county": "Worcestershire", "code": "E00163887", "lad": "Bromsgrove", "rgn_main": "West Midlands", "population": 249, "amenities": [{"name": "N/A", "amenity": "waste_basket", "data_type": "node", "lat": "52.3192107", "lon": "-2.0711075", "other_tags": {"amenity": "waste_basket"}}, {"name": "N/A", "amenity": "grit_bin", "data_type": "node", "lat": "52.3195007", "lon": "-2.0713293", "other_tags": {"amenity": "grit_bin"}}, {"name": "Charford Post Office", "amenity": "post_office", "data_type": "node", "lat": "52.3194331", "lon": "-2.0710457", "other_tags": {"addr:city": "Bromsgrove", "addr:housenumber": "55", "addr:postcode": "B60 3JZ", "addr:street": "Gilbert Road", "amenity": "post_office", "name": "Charford Post Office", "opening_hours": "Mo-Su 07:00-23:00", "ref:pol_id": "13156"}}, {"name": "N/A", "amenity": "post_box", "data_type": "node", "lat": "52.3193671", "lon": "-2.0710554", "other_tags": {"amenity": "post_box", "ref": "B60 1390"}}, {"name": "N/A", "amenity": "parking", "data_type": "way", "lat": "52.3193647", "lon": "-2.0710899", "other_tags": {"amenity": "parking"}}, {"name": "N/A", "amenity": "parking", "data_type": "way", "lat": "52.3199635", "lon": "-2.0693095", "other_tags": {"amenity": "parking", "parking": "surface", "source": "bing"}}]}, {"county": "Worcestershire", "code": "E00163888", "lad": "Bromsgrove", "rgn_main": "West Midlands", "population": 296, "amenities": [{"name": "N/A", "amenity": "waste_basket", "data_type": "node", "lat": "52.3188359", "lon": "-2.0666698", "other_tags": {"amenity": "waste_basket", "waste_basket": "dog_waste"}}]}, {"county": "Worcestershire", "code": "E00163890", "lad": "Bromsgrove", "rgn_main": "West Midlands", "population": 343, "amenities": [{"name": "St Peter's Catholic Church", "amenity": "place_of_worship", "data_type": "way", "lat": "52.3266191", "lon": "-2.0708710", "other_tags": {"amenity": "place_of_worship", "building": "yes", "denomination": "catholic", "name": "St Peter's Catholic Church", "name:la": "Ecclesia Sancti Petri", "religion": "christian"}}, {"name": "N/A", "amenity": "grave_yard", "data_type": "way", "lat": "52.3265592", "lon": "-2.0704429", "other_tags": {"amenity": "grave_yard", "source": "bing"}}]}, {"county": "Worcestershire", "code": "E00163891", "lad": "Bromsgrove", "rgn_main": "West Midlands", "population": 324, "amenities": [{"name": "N/A", "amenity": "post_box", "data_type": "node", "lat": "52.3230990", "lon": "-2.0483556", "other_tags": {"amenity": "post_box", "collection_plate": "CP1", "collection_times": "Mo-Fr 17:30; Sa 12:00", "historic_operator": "Royal Mail", "post_box:type": "pillar", "ref": "B60 199", "royal_cypher": "EIIR", "source": "survey"}}, {"name": "Aston House Chinese Take-away", "amenity": "fast_food", "data_type": "node", "lat": "52.3228166", "lon": "-2.0495210", "other_tags": {"amenity": "fast_food", "cuisine": "chinese", "name": "Aston House Chinese Take-away"}}, {"name": "Dental Surgery", "amenity": "dentist", "data_type": "node", "lat": "52.3228299", "lon": "-2.0494282", "other_tags": {"amenity": "dentist", "healthcare": "dentist", "name": "Dental Surgery"}}, {"name": "Jets Craft Caf\u00e9", "amenity": "arts_centre", "data_type": "node", "lat": "52.3229937", "lon": "-2.0486024", "other_tags": {"amenity": "arts_centre", "name": "Jets Craft Caf\u00e9"}}, {"name": "Zinga", "amenity": "fast_food", "data_type": "node", "lat": "52.3230090", "lon": "-2.0484774", "other_tags": {"amenity": "fast_food", "name": "Zinga"}}, {"name": "N/A", "amenity": "vending_machine", "data_type": "node", "lat": "52.3224691", "lon": "-2.0476203", "other_tags": {"amenity": "vending_machine", "source": "survey", "vending": "parking_tickets"}}, {"name": "Aston Fields Post Office", "amenity": "post_office", "data_type": "node", "lat": "52.3229100", "lon": "-2.0483400", "other_tags": {"addr:city": "Bromsgrove", "addr:housenumber": "1", "addr:postcode": "B60 3EQ", "addr:street": "Stoke Road", "amenity": "post_office", "fixme": "verify by survey", "name": "Aston Fields Post Office", "opening_hours": "Mo-Su 06:00-23:00", "ref:pol_id": "10359", "source": "pol_branch_list_2018-02"}}, {"name": "No3a social", "amenity": "restaurant", "data_type": "node", "lat": "52.3230079", "lon": "-2.0486320", "other_tags": {"addr:city": "Bromsgrove", "addr:housenumber": "3", "addr:postcode": "B60 3EQ", "addr:street": "Stoke Road", "amenity": "restaurant", "name": "No3a social", "phone": "+44 1527 874139", "website": "www.no3a.co.uk"}}, {"name": "N/A", "amenity": "parking", "data_type": "way", "lat": "52.3231930", "lon": "-2.0478215", "other_tags": {"amenity": "parking", "parking": "surface"}}, {"name": "The Ladybird", "amenity": "pub", "data_type": "way", "lat": "52.3231414", "lon": "-2.0481434", "other_tags": {"amenity": "pub", "building": "yes", "name": "The Ladybird"}}, {"name": "Aston Fields Car Park", "amenity": "parking", "data_type": "way", "lat": "52.3224027", "lon": "-2.0476131", "other_tags": {"amenity": "parking", "fee": "yes", "name": "Aston Fields Car Park", "note": "first 2 hours free ", "operator": "Bromsgrove District Council"}}, {"name": "Busy Bees", "amenity": "kindergarten", "data_type": "way", "lat": "52.3220615", "lon": "-2.0488767", "other_tags": {"amenity": "kindergarten", "building": "yes", "name": "Busy Bees"}}, {"name": "Banners Cafe and Restaurant", "amenity": "restaurant", "data_type": "way", "lat": "52.3233151", "lon": "-2.0473861", "other_tags": {"amenity": "restaurant", "building": "yes", "name": "Banners Cafe and Restaurant", "source": "bing"}}, {"name": "N/A", "amenity": "parking", "data_type": "way", "lat": "52.3219515", "lon": "-2.0486920", "other_tags": {"amenity": "parking", "fee": "yes", "parking": "surface"}}]}, {"county": "Worcestershire", "code": "E00163892", "lad": "Bromsgrove", "rgn_main": "West Midlands", "population": 302, "amenities": [{"name": "N/A", "amenity": "post_box", "data_type": "node", "lat": "52.3229737", "lon": "-2.0629028", "other_tags": {"amenity": "post_box", "ref": "B60 959"}}]}, {"county": "Worcestershire", "code": "E00163893", "lad": "Bromsgrove", "rgn_main": "West Midlands", "population": 300, "amenities": [{"name": "St Andrew", "amenity": "place_of_worship", "data_type": "way", "lat": "52.3227465", "lon": "-2.0695895", "other_tags": {"amenity": "place_of_worship", "building": "church", "denomination": "anglican", "name": "St Andrew", "religion": "christian", "wikidata": "Q105105252"}}, {"name": "St Peter's Catholic First School", "amenity": "school", "data_type": "way", "lat": "52.3258257", "lon": "-2.0684328", "other_tags": {"addr:city": "Bromsgrove", "addr:postcode": "B61 7LH", "addr:street": "Rock Hill", "amenity": "school", "capacity": "300", "denomination": "roman_catholic", "diocese": "Archdiocese of Birmingham", "fhrs:id": "672455", "max_age": "9", "min_age": "5", "name": "St Peter's Catholic First School", "phone": "+44 1527 831872", "ref:GB:uprn": "10023884345", "ref:edubase": "141066", "ref:edubase:group": "4115", "religion": "christian", "school:boarding": "no", "school:gender": "mixed", "school:selective": "no", "school:trust": "yes", "school:trust:name": "Our Lady of The Magnificat Multi-Academy Company", "school:trust:type": "multi_academy", "school:type": "academy", "source": "bing", "source:addr:postcode": "get-information-schools.service.gov.uk", "website": "https://www.stpeters-bromsgrove.co.uk/"}}]}, {"county": "Worcestershire", "code": "E00163894", "lad": "Bromsgrove", "rgn_main": "West Midlands", "population": 323, "amenities": [{"name": "Charford Fish Bar", "amenity": "fast_food", "data_type": "node", "lat": "52.3219819", "lon": "-2.0731272", "other_tags": {"amenity": "fast_food", "cuisine": "fish_and_chips", "name": "Charford Fish Bar"}}, {"name": "Prego Pizza", "amenity": "fast_food", "data_type": "node", "lat": "52.3219196", "lon": "-2.0730923", "other_tags": {"amenity": "fast_food", "cuisine": "pizza", "name": "Prego Pizza"}}, {"name": "N/A", "amenity": "waste_basket", "data_type": "node", "lat": "52.3220023", "lon": "-2.0729165", "other_tags": {"amenity": "waste_basket"}}, {"name": "N/A", "amenity": "post_box", "data_type": "node", "lat": "52.3221278", "lon": "-2.0730653", "other_tags": {"amenity": "post_box", "ref": "B60 1298"}}]}, {"county": "Worcestershire", "code": "E00163895", "lad": "Bromsgrove", "rgn_main": "West Midlands", "population": 444, "amenities": [{"name": "N/A", "amenity": "telephone", "data_type": "node", "lat": "52.3228997", "lon": "-2.0617423", "other_tags": {"amenity": "telephone", "operator": "BT", "payment:coins": "yes"}}, {"name": "Orange Car & Van Rental", "amenity": "car_rental", "data_type": "node", "lat": "52.3185021", "lon": "-2.0599356", "other_tags": {"amenity": "car_rental", "name": "Orange Car & Van Rental"}}, {"name": "Greggs", "amenity": "fast_food", "data_type": "way", "lat": "52.3175638", "lon": "-2.0617193", "other_tags": {"addr:city": "Bromsgrove", "addr:country": "GB", "addr:housenumber": "53", "addr:postcode": "B60 3DR", "addr:street": "Sherwood Road", "amenity": "fast_food", "brand": "Greggs", "brand:wikidata": "Q3403981", "brand:wikipedia": "en:Greggs", "building": "yes", "cuisine": "sandwich;bakery", "fhrs:id": "672109", "name": "Greggs", "takeaway": "yes"}}, {"name": "Silver Birches Business Park", "amenity": "conference_hall", "data_type": "way", "lat": "52.3156188", "lon": "-2.0600579", "other_tags": {"amenity": "conference_hall", "building": "yes", "name": "Silver Birches Business Park"}}, {"name": "KFC", "amenity": "fast_food", "data_type": "way", "lat": "52.3225511", "lon": "-2.0596993", "other_tags": {"addr:city": "Bromsgrove", "addr:street": "Charford Road", "alt_name": "Kentucky Fried Chicken", "amenity": "fast_food", "brand": "KFC", "brand:wikidata": "Q524757", "brand:wikipedia": "en:KFC", "building": "retail", "contact:website": "https://www.kfc.co.uk/kfc-near-me/bromsgrove-charford-road", "cuisine": "chicken", "drive_through": "yes", "name": "KFC", "opening_hours": "Mo-Su 10:30-23:00", "outdoor_seating": "yes", "smoking": "no", "takeaway": "yes", "wheelchair": "yes"}}, {"name": "N/A", "amenity": "parking", "data_type": "way", "lat": "52.3230763", "lon": "-2.0597808", "other_tags": {"access": "customers", "amenity": "parking", "capacity": "15", "capacity:disabled": "1", "lit": "yes", "operator": "Kentucky Fried Chicken", "parking": "surface", "smoothness": "good", "surface": "asphalt", "wheelchair": "yes"}}]}, {"county": "Worcestershire", "code": "E00163896", "lad": "Bromsgrove", "rgn_main": "West Midlands", "population": 319, "amenities": [{"name": "N/A", "amenity": "parking", "data_type": "node", "lat": "52.3251400", "lon": "-2.0727313", "other_tags": {"amenity": "parking", "created_by": "JOSM"}}, {"name": "N/A", "amenity": "post_box", "data_type": "node", "lat": "52.3254046", "lon": "-2.0724108", "other_tags": {"amenity": "post_box", "ref": "B61 1155"}}]}, {"county": "Worcestershire", "code": "E00163897", "lad": "Bromsgrove", "rgn_main": "West Midlands", "population": 198, "amenities": []}, {"county": "Worcestershire", "code": "E00163898", "lad": "Bromsgrove", "rgn_main": "West Midlands", "population": 371, "amenities": [{"name": "Bromsgrove, Salvation Army Foodbank", "amenity": "social_facility", "data_type": "node", "lat": "52.3241896", "lon": "-2.0493150", "other_tags": {"addr:city": "Bromsgrove", "addr:postcode": "B60 2PN", "addr:street": "Carlyle Road", "amenity": "social_facility", "email": "info@salvationarmy.org.uk", "foodbank": "Salvation Army", "foodbank_url": "https://www.givefood.org.uk/needs/at/salvation-army/", "name": "Bromsgrove, Salvation Army Foodbank", "network": "Independent", "parliamentary_constituency": "Bromsgrove", "social_facility": "food_bank", "social_facility:for": "under_privileged", "source": "give_food", "telephone": "01527834970", "url": "https://www.givefood.org.uk/needs/at/salvation-army/bromsgrove/"}}, {"name": "Aston Fields Social Club", "amenity": "pub", "data_type": "way", "lat": "52.3229661", "lon": "-2.0538179", "other_tags": {"amenity": "pub", "building": "yes", "name": "Aston Fields Social Club", "source": "bing"}}]}, {"county": "Worcestershire", "code": "E00163899", "lad": "Bromsgrove", "rgn_main": "West Midlands", "population": 353, "amenities": [{"name": "N/A", "amenity": "post_box", "data_type": "node", "lat": "52.3222580", "lon": "-2.0667865", "other_tags": {"amenity": "post_box", "post_box:type": "pillar", "ref": "B60 4030", "royal_cypher": "GVIR"}}, {"name": "N/A", "amenity": "waste_basket", "data_type": "node", "lat": "52.3222948", "lon": "-2.0668207", "other_tags": {"amenity": "waste_basket", "waste_basket": "dog_waste"}}, {"name": "N/A", "amenity": "waste_basket", "data_type": "node", "lat": "52.3224720", "lon": "-2.0666908", "other_tags": {"amenity": "waste_basket"}}, {"name": "N/A", "amenity": "waste_basket", "data_type": "node", "lat": "52.3217028", "lon": "-2.0644975", "other_tags": {"amenity": "waste_basket", "waste_basket": "dog_waste"}}]}, {"county": "Worcestershire", "code": "E00163900", "lad": "Bromsgrove", "rgn_main": "West Midlands", "population": 336, "amenities": []}, {"county": "Worcestershire", "code": "E00163901", "lad": "Bromsgrove", "rgn_main": "West Midlands", "population": 270, "amenities": []}, {"county": "Worcestershire", "code": "E00163902", "lad": "Bromsgrove", "rgn_main": "West Midlands", "population": 348, "amenities": [{"name": "N/A", "amenity": "grit_bin", "data_type": "node", "lat": "52.3875739", "lon": "-1.8725120", "other_tags": {"amenity": "grit_bin"}}]}, {"county": "Worcestershire", "code": "E00163903", "lad": "Bromsgrove", "rgn_main": "West Midlands", "population": 108, "amenities": []}, {"county": "Worcestershire", "code": "E00163904", "lad": "Bromsgrove", "rgn_main": "West Midlands", "population": 329, "amenities": [{"name": "N/A", "amenity": "post_box", "data_type": "node", "lat": "52.3917277", "lon": "-1.9252569", "other_tags": {"amenity": "post_box", "collection_times": "Mo-Fr 16:00; Sa 10:00", "operator": "Royal Mail", "operator:wikidata": "Q638098", "post_box:type": "lamp", "ref": "B38 54", "royal_cypher": "EIIR"}}, {"name": "N/A", "amenity": "post_box", "data_type": "node", "lat": "52.3882779", "lon": "-1.9065324", "other_tags": {"amenity": "post_box", "ref": "B38 1042"}}]}, {"county": "Worcestershire", "code": "E00163905", "lad": "Bromsgrove", "rgn_main": "West Midlands", "population": 229, "amenities": [{"name": "N/A", "amenity": "parking", "data_type": "node", "lat": "52.3805504", "lon": "-1.8920159", "other_tags": {"amenity": "parking", "parking": "layby", "source": "visual survey; bing"}}, {"name": "N/A", "amenity": "post_box", "data_type": "node", "lat": "52.3820534", "lon": "-1.8998800", "other_tags": {"amenity": "post_box", "ref": "B38 71", "source": "visual survey; estimate"}}, {"name": "The Packhorse", "amenity": "pub", "data_type": "way", "lat": "52.3908267", "lon": "-1.8851400", "other_tags": {"addr:city": "Hollywood", "addr:postcode": "B47 5HA", "addr:street": "Alcester Road", "amenity": "pub", "building": "pub", "diet:vegan": "yes", "diet:vegetarian": "yes", "fhrs:id": "684263", "name": "The Packhorse", "opening_hours": "Mo-Su 11:00-23:00", "phone": "+44 1564 822321", "source": "Warwicks Aerial Imagery OGLv2", "source:name": "NAPTaN", "website": "https://www.sizzlingpubs.co.uk/findapub/eastandwestmidlands/thepackhorsewythall"}}, {"name": "N/A", "amenity": "parking", "data_type": "way", "lat": "52.3913429", "lon": "-1.8848242", "other_tags": {"access": "customers", "amenity": "parking", "fee": "no"}}]}, {"county": "Worcestershire", "code": "E00163906", "lad": "Bromsgrove", "rgn_main": "West Midlands", "population": 200, "amenities": [{"name": "N/A", "amenity": "post_box", "data_type": "node", "lat": "52.3912718", "lon": "-1.8831016", "other_tags": {"amenity": "post_box", "post_box:type": "pillar", "ref": "B14 1273", "royal_cypher": "EIIR", "source": "survey"}}]}, {"county": "Worcestershire", "code": "E00163907", "lad": "Bromsgrove", "rgn_main": "West Midlands", "population": 275, "amenities": [{"name": "N/A", "amenity": "telephone", "data_type": "node", "lat": "52.3907925", "lon": "-1.8790358", "other_tags": {"amenity": "telephone", "source": "survey"}}, {"name": "N/A", "amenity": "post_box", "data_type": "node", "lat": "52.3876855", "lon": "-1.8798689", "other_tags": {"amenity": "post_box", "ref": "B47 1380"}}, {"name": "N/A", "amenity": "parking", "data_type": "relation", "lat": "52.3890249", "lon": "-1.8774054", "other_tags": {"access": "customers", "amenity": "parking", "fee": "no", "parking": "surface", "surface": "asphalt", "type": "multipolygon"}}, {"name": "Woodrush Community High School", "amenity": "school", "data_type": "way", "lat": "52.3893291", "lon": "-1.8784891", "other_tags": {"addr:city": "Birmingham", "addr:postcode": "B47 5JW", "addr:street": "Shawhurst Lane", "amenity": "school", "name": "Woodrush Community High School", "ref:edubase": "136924", "source": "visual survey;estimate", "source:addr:postcode": "get-information-schools.service.gov.uk"}}, {"name": "Woodrush Community Hub", "amenity": "community_centre", "data_type": "way", "lat": "52.3892754", "lon": "-1.8783745", "other_tags": {"addr:street": "Shawhurst Lane", "amenity": "community_centre", "building": "yes", "building:levels": "2", "name": "Woodrush Community Hub", "source": "bing", "website": "https://www.woodrush.org/page/?title=Community+Hub+%26amp%3B+Leisure+Centre&pid=2"}}, {"name": "Hollywood Medical Practice", "amenity": "doctors", "data_type": "way", "lat": "52.3897417", "lon": "-1.8808631", "other_tags": {"addr:city": "Hollywood", "addr:housename": "Hollywood Medical Practice", "addr:postcode": "B47 5DP", "addr:street": "Beaudesert Road", "amenity": "doctors", "building": "yes", "email": "hollywood.adminteam@nhs.net", "healthcare": "doctor", "healthcare:speciality": "general", "name": "Hollywood Medical Practice", "opening_hours": "Mo-Fr 08:00-18:30", "phone": "+44 1564 822642", "source": "Warwicks Aerial Imagery OGLv2", "website": "https://www.hollywoodmedicalpractice.co.uk/"}}, {"name": "N/A", "amenity": "childcare", "data_type": "way", "lat": "52.3880389", "lon": "-1.8794295", "other_tags": {"addr:city": "Hollywood", "addr:postcode": "B47 5JW", "addr:street": "Shawhurst Lane", "amenity": "childcare", "building": "yes", "email": "info@wendyhousedaynursery.co.uk", "phone": "+44 121 270 5020", "source": "Warwicks Aerial Imagery OGLv2", "website": "https://wendyhousedaynursery.co.uk/"}}, {"name": "N/A", "amenity": "parking", "data_type": "way", "lat": "52.3895937", "lon": "-1.8779599", "other_tags": {"access": "private", "amenity": "parking", "fee": "no", "parking": "surface", "surface": "gravel"}}, {"name": "N/A", "amenity": "parking", "data_type": "way", "lat": "52.3891707", "lon": "-1.8777088", "other_tags": {"access": "customers", "amenity": "parking", "fee": "no", "parking": "lane"}}, {"name": "Wythall Community Library", "amenity": "library", "data_type": "way", "lat": "52.3891341", "lon": "-1.8785690", "other_tags": {"amenity": "library", "building": "yes", "level": "1", "name": "Wythall Community Library", "operator": "Worcestershire Library Service", "operator:type": "council"}}, {"name": "N/A", "amenity": "cafe", "data_type": "way", "lat": "52.3890818", "lon": "-1.8786417", "other_tags": {"amenity": "cafe", "building": "yes", "building:floor": "1", "level": "0", "outdoor_seating": "no"}}]}, {"county": "Worcestershire", "code": "E00163908", "lad": "Bromsgrove", "rgn_main": "West Midlands", "population": 277, "amenities": []}, {"county": "Worcestershire", "code": "E00163909", "lad": "Bromsgrove", "rgn_main": "West Midlands", "population": 282, "amenities": [{"name": "N/A", "amenity": "parking", "data_type": "way", "lat": "52.3894240", "lon": "-1.8810057", "other_tags": {"amenity": "parking", "parking": "surface"}}]}, {"county": "Worcestershire", "code": "E00163910", "lad": "Bromsgrove", "rgn_main": "West Midlands", "population": 338, "amenities": [{"name": "N/A", "amenity": "grit_bin", "data_type": "node", "lat": "52.3894177", "lon": "-1.8713858", "other_tags": {"amenity": "grit_bin"}}, {"name": "The Coppice Primary School & Nursery", "amenity": "school", "data_type": "way", "lat": "52.3887669", "lon": "-1.8740592", "other_tags": {"addr:postcode": "B47 5JN", "addr:street": "Shawhurst Lane", "amenity": "school", "grades": "Nursery, Reception, 1-6", "name": "The Coppice Primary School & Nursery", "ref:edubase": "137697", "religion": "none", "source": "visual survey;estimate", "source:addr:postcode": "get-information-schools.service.gov.uk", "website": "https://www.coppice.worcs.sch.uk/"}}, {"name": "St Mary's", "amenity": "place_of_worship", "data_type": "way", "lat": "52.3889755", "lon": "-1.8766304", "other_tags": {"amenity": "place_of_worship", "building": "church", "building:levels": "2", "denomination": "anglican", "name": "St Mary's", "religion": "christian", "source": "bing", "website": "http://www.wythallchurch.net/", "wikidata": "Q105084494"}}, {"name": "Forest School", "amenity": "shelter", "data_type": "way", "lat": "52.3897228", "lon": "-1.8759493", "other_tags": {"amenity": "shelter", "bench": "yes", "building": "yes", "name": "Forest School"}}]}, {"county": "Worcestershire", "code": "E00163911", "lad": "Bromsgrove", "rgn_main": "West Midlands", "population": 345, "amenities": [{"name": "Wythall Post Office", "amenity": "post_office", "data_type": "node", "lat": "52.3851515", "lon": "-1.8837753", "other_tags": {"addr:city": "Birmingham", "addr:housenumber": "1A", "addr:postcode": "B47 5HD", "addr:street": "Drakes Cross Parade", "addr:village": "Wythall", "amenity": "post_office", "name": "Wythall Post Office", "opening_hours": "Mo-Su 06:00-23:00", "ref:pol_id": "15033", "source": "survey"}}, {"name": "Fanaris Fish Bar", "amenity": "fast_food", "data_type": "node", "lat": "52.3853134", "lon": "-1.8837831", "other_tags": {"addr:city": "Wythall", "addr:postcode": "B47 5HD", "addr:street": "Drakes Cross Parade", "amenity": "fast_food", "cuisine": "fish_and_chips", "drive_through": "no", "fhrs:id": "697284", "name": "Fanaris Fish Bar", "phone": "+441564822373", "source": "survey"}}, {"name": "N/A", "amenity": "post_box", "data_type": "node", "lat": "52.3837272", "lon": "-1.8838754", "other_tags": {"amenity": "post_box", "collection_times": "Mo-Fr 09:00; Sa 07:00", "operator": "Royal Mail", "operator:wikidata": "Q638098", "post_box:type": "wall", "ref": "B47 248D", "royal_cypher": "VR", "source": "GPS Survey"}}, {"name": "N/A", "amenity": "parking", "data_type": "node", "lat": "52.3802836", "lon": "-1.8910795", "other_tags": {"amenity": "parking", "parking": "layby", "source": "visual survey; bing"}}, {"name": "N/A", "amenity": "post_box", "data_type": "node", "lat": "52.3850886", "lon": "-1.8838608", "other_tags": {"amenity": "post_box", "collection_times": "Mo-Fr 17:00; Sa 12:30", "operator": "Royal Mail", "operator:wikidata": "Q638098", "post_box:type": "pillar", "ref": "B47 142", "royal_cypher": "EIIR", "source": "survey"}}, {"name": "N/A", "amenity": "waste_basket", "data_type": "node", "lat": "52.3863757", "lon": "-1.8846928", "other_tags": {"amenity": "waste_basket"}}, {"name": "Silver House", "amenity": "restaurant", "data_type": "node", "lat": "52.3852189", "lon": "-1.8837829", "other_tags": {"addr:city": "Wythall", "addr:housenumber": "1A", "addr:postcode": "B47 5HD", "addr:street": "Drakes Cross Parade", "amenity": "restaurant", "cuisine": "chinese", "fhrs:id": "672192", "name": "Silver House", "opening_hours": "Mo-Su 17:00+", "phone": "+44 1564 822881", "takeaway": "only"}}, {"name": "Bean 47", "amenity": "cafe", "data_type": "node", "lat": "52.3853514", "lon": "-1.8837860", "other_tags": {"addr:city": "Hollywood", "addr:housenumber": "4", "addr:postcode": "B47 5HD", "addr:street": "Drakes Cross Parade", "amenity": "cafe", "cuisine": "coffee_shop", "email": "enquiries@bean47.co.uk", "fhrs:id": "1027655", "name": "Bean 47", "opening_hours": "Mo-Fr 08:30-17:00; Sa 09:30-14:00; ", "phone": "+44 1564 822414", "website": "https://www.bean47.co.uk/"}}, {"name": "Subway", "amenity": "fast_food", "data_type": "node", "lat": "52.3856144", "lon": "-1.8834584", "other_tags": {"addr:city": "Hollywood", "addr:housenumber": "8", "addr:postcode": "B47 5HD", "addr:street": "Drakes Cross Parade", "amenity": "fast_food", "brand": "Subway", "brand:wikidata": "Q244457", "brand:wikipedia": "en:Subway (restaurant)", "cuisine": "sandwich", "diet:vegan": "yes", "diet:vegetarian": "yes", "name": "Subway", "opening_hours": "Mo-Su 09:00-17:00", "phone": "+44 1564 824252", "takeaway": "yes", "website": "https://restaurants.subway.com/united-kingdom/en/hollywood/8-drakes-cross-parade"}}, {"name": "N/A", "amenity": "bench", "data_type": "node", "lat": "52.3845347", "lon": "-1.8874130", "other_tags": {"amenity": "bench"}}, {"name": "N/A", "amenity": "parking", "data_type": "way", "lat": "52.3840716", "lon": "-1.8901168", "other_tags": {"access": "yes", "amenity": "parking", "fee": "yes", "parking": "surface", "source": "visual survey;estimate"}}, {"name": "Wythall Royal British Legion", "amenity": "social_club", "data_type": "way", "lat": "52.3839364", "lon": "-1.8834744", "other_tags": {"addr:city": "Hollywood", "addr:postcode": "B47 6LS", "amenity": "social_club", "building": "yes", "fhrs:id": "684347", "name": "Wythall Royal British Legion", "source": "Warwicks Aerial Imagery OGLv2"}}, {"name": "N/A", "amenity": "parking", "data_type": "way", "lat": "52.3850184", "lon": "-1.8838508", "other_tags": {"access": "customers", "amenity": "parking", "parking": "surface"}}, {"name": "N/A", "amenity": "parking", "data_type": "way", "lat": "52.3837064", "lon": "-1.8874078", "other_tags": {"amenity": "parking", "fee": "yes"}}]}, {"county": "Worcestershire", "code": "E00163912", "lad": "Bromsgrove", "rgn_main": "West Midlands", "population": 262, "amenities": []}, {"county": "Worcestershire", "code": "E00163913", "lad": "Bromsgrove", "rgn_main": "West Midlands", "population": 325, "amenities": []}, {"county": "Worcestershire", "code": "E00163914", "lad": "Bromsgrove", "rgn_main": "West Midlands", "population": 270, "amenities": []}, {"county": "Worcestershire", "code": "E00163915", "lad": "Bromsgrove", "rgn_main": "West Midlands", "population": 264, "amenities": [{"name": "Hollywood Christian Life Centre", "amenity": "place_of_worship", "data_type": "way", "lat": "52.3849738", "lon": "-1.8825480", "other_tags": {"addr:city": "Hollywood", "addr:postcode": "B47 5HN", "addr:street": "Simms Lane", "amenity": "place_of_worship", "building": "yes", "fhrs:id": "684418", "name": "Hollywood Christian Life Centre", "religion": "christian"}}]}, {"county": "Worcestershire", "code": "E00163916", "lad": "Bromsgrove", "rgn_main": "West Midlands", "population": 326, "amenities": []}, {"county": "Worcestershire", "code": "E00163917", "lad": "Bromsgrove", "rgn_main": "West Midlands", "population": 274, "amenities": [{"name": "Kings Norton Christadelphian Hall", "amenity": "place_of_worship", "data_type": "way", "lat": "52.4072866", "lon": "-1.9136324", "other_tags": {"amenity": "place_of_worship", "building": "yes", "name": "Kings Norton Christadelphian Hall", "religion": "christian", "source": "visual survey; OS_OpenData_StreetView"}}]}, {"county": "Worcestershire", "code": "E00163918", "lad": "Bromsgrove", "rgn_main": "West Midlands", "population": 346, "amenities": []}, {"county": "Worcestershire", "code": "E00163919", "lad": "Bromsgrove", "rgn_main": "West Midlands", "population": 323, "amenities": [{"name": "N/A", "amenity": "parking", "data_type": "way", "lat": "52.3917526", "lon": "-2.1186756", "other_tags": {"access": "customers", "amenity": "parking", "fee": "yes"}}, {"name": "The Talbot", "amenity": "restaurant", "data_type": "way", "lat": "52.3918532", "lon": "-2.1187213", "other_tags": {"amenity": "restaurant", "building": "yes", "name": "The Talbot"}}, {"name": "Belbroughton Church of England Primary School", "amenity": "school", "data_type": "way", "lat": "52.3886983", "lon": "-2.1177536", "other_tags": {"addr:postcode": "DY9 9TF", "amenity": "school", "name": "Belbroughton Church of England Primary School", "phone": "+44 1562 730208", "ref:edubase": "116782", "source:addr:postcode": "get-information-schools.service.gov.uk", "website": "http://www.belbroughton-school.co.uk/"}}, {"name": "N/A", "amenity": "parking", "data_type": "way", "lat": "52.3898177", "lon": "-2.1157156", "other_tags": {"amenity": "parking"}}]}, {"county": "Worcestershire", "code": "E00163920", "lad": "Bromsgrove", "rgn_main": "West Midlands", "population": 381, "amenities": [{"name": "N/A", "amenity": "parking", "data_type": "node", "lat": "52.3869319", "lon": "-2.0838211", "other_tags": {"access": "yes", "amenity": "parking", "fee": "no", "parking": "layby", "source": "bing"}}, {"name": "N/A", "amenity": "post_box", "data_type": "node", "lat": "52.3952867", "lon": "-2.0710704", "other_tags": {"amenity": "post_box", "brand": "Royal Mail", "brand:wikidata": "Q638098", "brand:wikipedia": "en:Royal Mail", "collection_times": "Mo-Fr 16:15; Sa 11:00", "operator": "Royal Mail", "operator:wikidata": "Q638098", "post_box:type": "lamp", "ref": "DY9 103", "royal_cypher": "EIIR", "source": "survey"}}, {"name": "N/A", "amenity": "telephone", "data_type": "node", "lat": "52.3952834", "lon": "-2.0711134", "other_tags": {"amenity": "telephone", "booth": "K6", "colour": "blue", "covered": "booth", "man_made": "telephone_box", "old_phone": "+44 1562 710211", "source": "survey"}}, {"name": "N/A", "amenity": "bench", "data_type": "node", "lat": "52.3953026", "lon": "-2.0712984", "other_tags": {"amenity": "bench", "source": "survey"}}, {"name": "N/A", "amenity": "parking", "data_type": "way", "lat": "52.3918838", "lon": "-2.0739256", "other_tags": {"amenity": "parking"}}, {"name": "The Bell", "amenity": "pub", "data_type": "way", "lat": "52.3925655", "lon": "-2.0892409", "other_tags": {"amenity": "pub", "building": "pub", "name": "The Bell", "source": "OS_OpenData_StreetView", "wikidata": "Q26392232"}}, {"name": "N/A", "amenity": "parking", "data_type": "way", "lat": "52.3927783", "lon": "-2.0882864", "other_tags": {"amenity": "parking", "parking": "surface", "source": "bing"}}, {"name": "N/A", "amenity": "car_wash", "data_type": "way", "lat": "52.3912978", "lon": "-2.0867737", "other_tags": {"amenity": "car_wash", "building": "yes", "source": "bing"}}, {"name": "Shell", "amenity": "fuel", "data_type": "way", "lat": "52.3911701", "lon": "-2.0872586", "other_tags": {"addr:postcode": "DY9 9XU", "amenity": "fuel", "brand": "Shell", "brand:wikidata": "Q154950", "brand:wikipedia": "en:Royal Dutch Shell", "building": "retail", "name": "Shell", "opening_hours": "24/7", "phone": "+44 1562 731207", "ref:navads": "NVDS353_12193941", "source": "bing"}}]}, {"county": "Worcestershire", "code": "E00163921", "lad": "Bromsgrove", "rgn_main": "West Midlands", "population": 354, "amenities": [{"name": "Belbroughton Post Office", "amenity": "post_office", "data_type": "node", "lat": "52.3921025", "lon": "-2.1189135", "other_tags": {"addr:city": "Stourbridge", "addr:housenumber": "29-31", "addr:postcode": "DY9 9ST", "addr:street": "High Street", "addr:village": "Belbroughton", "amenity": "post_office", "fixme": "verify by survey", "name": "Belbroughton Post Office", "opening_hours": "Mo-Su 06:00-22:00", "ref:pol_id": "135285", "source": "pol_branch_list_2018-02"}}, {"name": "N/A", "amenity": "public_bookcase", "data_type": "node", "lat": "52.3930055", "lon": "-2.1177315", "other_tags": {"amenity": "public_bookcase", "booth": "K6", "colour": "red", "disused:amenity": "telephone", "man_made": "telephone_box", "public_bookcase:type": "phone_box"}}, {"name": "N/A", "amenity": "bench", "data_type": "node", "lat": "52.3930528", "lon": "-2.1177017", "other_tags": {"amenity": "bench"}}, {"name": "N/A", "amenity": "bench", "data_type": "node", "lat": "52.3913682", "lon": "-2.1162555", "other_tags": {"amenity": "bench", "backrest": "yes"}}, {"name": "N/A", "amenity": "post_box", "data_type": "node", "lat": "52.3913559", "lon": "-2.1162696", "other_tags": {"amenity": "post_box", "operator": "Royal Mail", "operator:wikidata": "Q638098", "post_box:type": "pillar", "ref": "DY9 107D", "royal_cypher": "EIIR"}}, {"name": "Ye Olde Horseshoe Inn", "amenity": "restaurant", "data_type": "way", "lat": "52.3923580", "lon": "-2.1186906", "other_tags": {"amenity": "restaurant", "building": "yes", "name": "Ye Olde Horseshoe Inn"}}]}, {"county": "Worcestershire", "code": "E00163922", "lad": "Bromsgrove", "rgn_main": "West Midlands", "population": 294, "amenities": [{"name": "Holy Trinity Church", "amenity": "place_of_worship", "data_type": "way", "lat": "52.3898213", "lon": "-2.1204310", "other_tags": {"addr:city": "Belbroughton", "addr:postcode": "DY9 9TF", "addr:street": "Bradford Lane", "amenity": "place_of_worship", "building": "yes", "denomination": "anglican", "name": "Holy Trinity Church", "religion": "christian", "website": "http://holytrinitybelbroughton.co.uk/", "wikidata": "Q17547571"}}, {"name": "N/A", "amenity": "grave_yard", "data_type": "way", "lat": "52.3899513", "lon": "-2.1205456", "other_tags": {"amenity": "grave_yard"}}, {"name": "The Queens", "amenity": "restaurant", "data_type": "way", "lat": "52.3914434", "lon": "-2.1217649", "other_tags": {"addr:city": "Belbroughton", "addr:postcode": "DY9 0DU", "addr:street": "Queens Hill", "amenity": "restaurant", "building": "yes", "heritage": "2", "heritage:operator": "Historic England", "listed_status": "Grade II", "name": "The Queens", "phone": "+44 1562 730276", "website": "http://www.thequeensbelbroughton.co.uk/", "wikidata": "Q26631970"}}]}, {"county": "Worcestershire", "code": "E00163923", "lad": "Bromsgrove", "rgn_main": "West Midlands", "population": 381, "amenities": []}, {"county": "Worcestershire", "code": "E00163924", "lad": "Bromsgrove", "rgn_main": "West Midlands", "population": 236, "amenities": [{"name": "N/A", "amenity": "public_bookcase", "data_type": "node", "lat": "52.4080982", "lon": "-2.1150600", "other_tags": {"amenity": "public_bookcase", "booth": "K6", "colour": "red", "disused:amenity": "telephone", "man_made": "telephone_box", "public_bookcase:type": "phone_box"}}, {"name": "N/A", "amenity": "post_box", "data_type": "node", "lat": "52.4073564", "lon": "-2.1142464", "other_tags": {"amenity": "post_box", "post_box:type": "lamp"}}, {"name": "N/A", "amenity": "parking", "data_type": "way", "lat": "52.4050743", "lon": "-2.1155074", "other_tags": {"amenity": "parking", "parking": "surface", "source": "bing"}}]}, {"county": "Worcestershire", "code": "E00163925", "lad": "Bromsgrove", "rgn_main": "West Midlands", "population": 593, "amenities": []}, {"county": "Worcestershire", "code": "E00163926", "lad": "Bromsgrove", "rgn_main": "West Midlands", "population": 285, "amenities": [{"name": "Sunfield School", "amenity": "school", "data_type": "way", "lat": "52.4187337", "lon": "-2.1173254", "other_tags": {"addr:postcode": "DY9 9PB", "amenity": "school", "capacity": "70", "max_age": "19", "min_age": "6", "name": "Sunfield School", "phone": "+44 1562 882253", "ref:GB:uprn": "10000214573", "ref:edubase": "117033", "religion": "none", "school:boarding": "yes", "school:gender": "mixed", "school:selective": "no", "school:trust": "no", "school:type": "special", "source": "visual survey; bing", "source:addr:postcode": "get-information-schools.service.gov.uk", "website": "http://www.sunfield.org.uk/"}}, {"name": "The Fountain Inn", "amenity": "pub", "data_type": "way", "lat": "52.4152732", "lon": "-2.1135347", "other_tags": {"addr:postcode": "DY9 9PU", "addr:street": "Odnall Lane", "amenity": "pub", "building": "pub", "fhrs:id": "672183", "name": "The Fountain Inn", "real_ale": "yes", "url": "http://www.thefountainatclent.co.uk"}}, {"name": "The French Hen", "amenity": "pub", "data_type": "way", "lat": "52.4156908", "lon": "-2.1219291", "other_tags": {"amenity": "pub", "building": "yes", "food": "yes", "name": "The French Hen", "outdoor_seating": "yes"}}]}, {"county": "Worcestershire", "code": "E00163927", "lad": "Bromsgrove", "rgn_main": "West Midlands", "population": 373, "amenities": []}, {"county": "Worcestershire", "code": "E00163928", "lad": "Bromsgrove", "rgn_main": "West Midlands", "population": 305, "amenities": [{"name": "N/A", "amenity": "parking", "data_type": "node", "lat": "52.4136432", "lon": "-2.1508842", "other_tags": {"amenity": "parking", "capacity": "25"}}, {"name": "N/A", "amenity": "parking", "data_type": "node", "lat": "52.4138251", "lon": "-2.1507838", "other_tags": {"amenity": "parking", "capacity": "7", "capacity:disabled": "3"}}, {"name": "N/A", "amenity": "atm", "data_type": "node", "lat": "52.4139388", "lon": "-2.1503697", "other_tags": {"amenity": "atm", "source": "Mapillary"}}, {"name": "Shell", "amenity": "fuel", "data_type": "way", "lat": "52.4139786", "lon": "-2.1503177", "other_tags": {"addr:postcode": "DY9 0JL", "amenity": "fuel", "brand": "Shell", "brand:wikidata": "Q154950", "brand:wikipedia": "en:Royal Dutch Shell", "building": "roof", "name": "Shell", "opening_hours": "24/7", "phone": "+44 1562 885962", "ref:navads": "NVDS353_10019009"}}, {"name": "N/A", "amenity": "parking", "data_type": "way", "lat": "52.4117089", "lon": "-2.1559269", "other_tags": {"access": "customers", "amenity": "parking", "source": "Mapbox"}}]}, {"county": "Worcestershire", "code": "E00163929", "lad": "Bromsgrove", "rgn_main": "West Midlands", "population": 358, "amenities": []}, {"county": "Worcestershire", "code": "E00163930", "lad": "Bromsgrove", "rgn_main": "West Midlands", "population": 313, "amenities": [{"name": "Clent Parochial Primary School", "amenity": "school", "data_type": "way", "lat": "52.4066021", "lon": "-2.1125738", "other_tags": {"addr:postcode": "DY9 9QP", "amenity": "school", "name": "Clent Parochial Primary School", "ref:edubase": "116796", "source:addr:postcode": "get-information-schools.service.gov.uk"}}]}, {"county": "Worcestershire", "code": "E00163931", "lad": "Bromsgrove", "rgn_main": "West Midlands", "population": 332, "amenities": [{"name": "N/A", "amenity": "bench", "data_type": "node", "lat": "52.4212869", "lon": "-2.0985514", "other_tags": {"amenity": "bench", "backrest": "no", "source": "survey"}}, {"name": "N/A", "amenity": "bench", "data_type": "node", "lat": "52.4211186", "lon": "-2.0989121", "other_tags": {"amenity": "bench", "backrest": "no", "source": "survey"}}, {"name": "N/A", "amenity": "bench", "data_type": "node", "lat": "52.4215247", "lon": "-2.0999307", "other_tags": {"amenity": "bench", "source": "survey"}}, {"name": "N/A", "amenity": "bench", "data_type": "node", "lat": "52.4220962", "lon": "-2.0986323", "other_tags": {"amenity": "bench", "source": "survey"}}, {"name": "N/A", "amenity": "grit_bin", "data_type": "node", "lat": "52.4138548", "lon": "-2.1021274", "other_tags": {"amenity": "grit_bin", "ref": "284"}}, {"name": "N/A", "amenity": "post_box", "data_type": "node", "lat": "52.4121145", "lon": "-2.1074706", "other_tags": {"amenity": "post_box", "ref": "DY9 1180"}}, {"name": "N/A", "amenity": "telephone", "data_type": "node", "lat": "52.4122243", "lon": "-2.1068683", "other_tags": {"amenity": "telephone"}}, {"name": "N/A", "amenity": "grit_bin", "data_type": "node", "lat": "52.4187524", "lon": "-2.0949179", "other_tags": {"amenity": "grit_bin", "ref": "282"}}, {"name": " Nimmings Wood NT Cafe", "amenity": "cafe", "data_type": "node", "lat": "52.4248162", "lon": "-2.0934749", "other_tags": {"amenity": "cafe", "name": " Nimmings Wood NT Cafe"}}, {"name": "N/A", "amenity": "parking", "data_type": "node", "lat": "52.4200671", "lon": "-2.0851108", "other_tags": {"amenity": "parking"}}, {"name": "N/A", "amenity": "bench", "data_type": "node", "lat": "52.4120545", "lon": "-2.1067863", "other_tags": {"amenity": "bench", "source": "survey"}}, {"name": "N/A", "amenity": "grit_bin", "data_type": "node", "lat": "52.4120822", "lon": "-2.1068036", "other_tags": {"amenity": "grit_bin", "source": "survey"}}, {"name": "N/A", "amenity": "shelter", "data_type": "node", "lat": "52.4178843", "lon": "-2.0832924", "other_tags": {"amenity": "shelter", "source": "survey"}}, {"name": "N/A", "amenity": "bench", "data_type": "node", "lat": "52.4187442", "lon": "-2.0836454", "other_tags": {"amenity": "bench", "source": "survey"}}, {"name": "N/A", "amenity": "bench", "data_type": "node", "lat": "52.4188590", "lon": "-2.0838978", "other_tags": {"amenity": "bench", "source": "survey"}}, {"name": "N/A", "amenity": "bench", "data_type": "node", "lat": "52.4188803", "lon": "-2.0836105", "other_tags": {"amenity": "bench", "source": "survey"}}, {"name": "N/A", "amenity": "bench", "data_type": "node", "lat": "52.4188934", "lon": "-2.0836745", "other_tags": {"amenity": "bench", "source": "survey"}}, {"name": "N/A", "amenity": "bench", "data_type": "node", "lat": "52.4189052", "lon": "-2.0837891", "other_tags": {"amenity": "bench", "source": "survey"}}, {"name": "N/A", "amenity": "toilets", "data_type": "node", "lat": "52.4247660", "lon": "-2.0935327", "other_tags": {"amenity": "toilets"}}, {"name": "N/A", "amenity": "parking", "data_type": "way", "lat": "52.4213749", "lon": "-2.0906562", "other_tags": {"amenity": "parking", "parking": "surface"}}, {"name": "Walton Hill Car Park (S)", "amenity": "parking", "data_type": "way", "lat": "52.4202799", "lon": "-2.0853067", "other_tags": {"amenity": "parking", "name": "Walton Hill Car Park (S)", "parking": "surface", "source": "Bing"}}, {"name": "N/A", "amenity": "parking", "data_type": "way", "lat": "52.4139089", "lon": "-2.1034714", "other_tags": {"access": "customers", "amenity": "parking"}}, {"name": "N/A", "amenity": "grave_yard", "data_type": "way", "lat": "52.4128220", "lon": "-2.1058780", "other_tags": {"amenity": "grave_yard", "denomination": "anglican", "religion": "christian"}}, {"name": "St. Leonard's Church", "amenity": "place_of_worship", "data_type": "way", "lat": "52.4120469", "lon": "-2.1065402", "other_tags": {"addr:city": "Clent", "addr:postcode": "DY9 9PL", "addr:street": "Church Avenue", "amenity": "place_of_worship", "building": "yes", "denomination": "anglican", "heritage": "2", "heritage:operator": "Historic England", "listed_status": "Grade II*", "name": "St. Leonard's Church", "religion": "christian", "website": "http://www.clent-worcs.co.uk/", "wikidata": "Q17547530"}}, {"name": "School Parking", "amenity": "parking", "data_type": "way", "lat": "52.4192496", "lon": "-2.1152414", "other_tags": {"amenity": "parking", "name": "School Parking", "parking": "surface", "source": "visual survey; bing"}}, {"name": "Walton Hill Car Park (N)", "amenity": "parking", "data_type": "way", "lat": "52.4207032", "lon": "-2.0863799", "other_tags": {"amenity": "parking", "fee": "no", "name": "Walton Hill Car Park (N)", "parking": "surface", "source": "gps_survey"}}, {"name": "St Kenelm's Chuch car park", "amenity": "parking", "data_type": "way", "lat": "52.4244789", "lon": "-2.0844550", "other_tags": {"amenity": "parking", "name": "St Kenelm's Chuch car park", "parking": "surface", "source": "survey"}}, {"name": "The Vine Inn", "amenity": "pub", "data_type": "way", "lat": "52.4139089", "lon": "-2.1034714", "other_tags": {"addr:city": "Clent", "addr:postcode": "DY9 9PH", "addr:street": "Vine Lane", "amenity": "pub", "building": "yes", "name": "The Vine Inn", "phone": "+44 1562 882491", "website": "http://www.vineinnclent.com/"}}, {"name": "Adam's Hill", "amenity": "parking", "data_type": "way", "lat": "52.4163331", "lon": "-2.1096333", "other_tags": {"amenity": "parking", "fee": "no", "lit": "no", "name": "Adam's Hill", "parking": "surface", "smoothness": "intermediate", "surface": "unpaved"}}, {"name": "The Four Stones", "amenity": "restaurant", "data_type": "way", "lat": "52.4164004", "lon": "-2.1100396", "other_tags": {"amenity": "restaurant", "building": "yes", "name": "The Four Stones", "source": "visual survey;bing"}}, {"name": "The Hill Tavern", "amenity": "pub", "data_type": "way", "lat": "52.4164904", "lon": "-2.1098130", "other_tags": {"amenity": "pub", "building": "pub", "name": "The Hill Tavern"}}, {"name": "Jaipur Cottage", "amenity": "restaurant", "data_type": "way", "lat": "52.4119087", "lon": "-2.1067755", "other_tags": {"amenity": "restaurant", "building": "yes", "name": "Jaipur Cottage", "source": "bing", "source:classification": "visual survey; bing"}}, {"name": "Adam's Hill", "amenity": "parking", "data_type": "way", "lat": "52.4156405", "lon": "-2.1117784", "other_tags": {"amenity": "parking", "fee": "no", "lit": "no", "name": "Adam's Hill", "parking": "surface", "smoothness": "intermediate", "surface": "unpaved"}}, {"name": "N/A", "amenity": "parking", "data_type": "way", "lat": "52.4251100", "lon": "-2.0922616", "other_tags": {"amenity": "parking", "fee": "yes", "operator": "National Trust", "operator:wikidata": "Q333515", "parking": "surface", "supervised": "no", "surface": "gravel"}}]}, {"county": "Worcestershire", "code": "E00163932", "lad": "Bromsgrove", "rgn_main": "West Midlands", "population": 516, "amenities": []}, {"county": "Worcestershire", "code": "E00163933", "lad": "Bromsgrove", "rgn_main": "West Midlands", "population": 287, "amenities": []}, {"county": "Worcestershire", "code": "E00163934", "lad": "Bromsgrove", "rgn_main": "West Midlands", "population": 382, "amenities": []}, {"county": "Worcestershire", "code": "E00163935", "lad": "Bromsgrove", "rgn_main": "West Midlands", "population": 352, "amenities": [{"name": "West One", "amenity": "restaurant", "data_type": "node", "lat": "52.4216950", "lon": "-2.1430844", "other_tags": {"amenity": "restaurant", "cuisine": "international", "name": "West One", "source": "local knowledge", "website": "www.westonehagley.co.uk"}}, {"name": "Lloyds Bank", "amenity": "bank", "data_type": "node", "lat": "52.4212231", "lon": "-2.1432974", "other_tags": {"amenity": "bank", "atm": "yes", "brand": "Lloyds Bank", "brand:wikidata": "Q1152847", "brand:wikipedia": "en:Lloyds Bank", "name": "Lloyds Bank"}}, {"name": "Va Bene", "amenity": "restaurant", "data_type": "node", "lat": "52.4203037", "lon": "-2.1436084", "other_tags": {"amenity": "restaurant", "cuisine": "italian", "name": "Va Bene"}}, {"name": "Our Plaice", "amenity": "fast_food", "data_type": "node", "lat": "52.4204293", "lon": "-2.1435897", "other_tags": {"amenity": "fast_food", "cuisine": "fish_and_chips", "name": "Our Plaice", "source": "survey"}}, {"name": "N/A", "amenity": "telephone", "data_type": "node", "lat": "52.4205625", "lon": "-2.1434087", "other_tags": {"amenity": "telephone", "source": "survey"}}, {"name": "N/A", "amenity": "parking", "data_type": "way", "lat": "52.4214030", "lon": "-2.1439558", "other_tags": {"amenity": "parking"}}, {"name": "Hagley Dental Practice", "amenity": "dentist", "data_type": "way", "lat": "52.4216238", "lon": "-2.1431828", "other_tags": {"amenity": "dentist", "building": "yes", "healthcare": "dentist", "name": "Hagley Dental Practice", "source": "bing"}}, {"name": "The King Arthur", "amenity": "pub", "data_type": "way", "lat": "52.4208386", "lon": "-2.1436544", "other_tags": {"amenity": "pub", "building": "yes", "name": "The King Arthur", "operator": "Bathams", "previous_name": "Palladium House", "source": "bing"}}]}, {"county": "Worcestershire", "code": "E00163937", "lad": "Bromsgrove", "rgn_main": "West Midlands", "population": 194, "amenities": [{"name": "N/A", "amenity": "post_box", "data_type": "node", "lat": "52.4190509", "lon": "-2.1439188", "other_tags": {"amenity": "post_box", "post_box:apertures": "2", "post_box:type": "pillar", "royal_cypher": "EIIR"}}, {"name": "Subway", "amenity": "fast_food", "data_type": "node", "lat": "52.4199661", "lon": "-2.1437297", "other_tags": {"amenity": "fast_food", "brand": "Subway", "brand:wikidata": "Q244457", "brand:wikipedia": "en:Subway (restaurant)", "contact:website": "https://restaurants.subway.com/united-kingdom/en/stourbridge/spar-117-worcester-road-hagley", "cuisine": "sandwich", "name": "Subway", "takeaway": "yes"}}, {"name": "The Hagley Caf\u00e9", "amenity": "cafe", "data_type": "node", "lat": "52.4192921", "lon": "-2.1436912", "other_tags": {"amenity": "cafe", "name": "The Hagley Caf\u00e9", "source": "survey"}}, {"name": "West Hagley Post Office", "amenity": "post_office", "data_type": "node", "lat": "52.4190744", "lon": "-2.1438037", "other_tags": {"addr:city": "Stourbridge", "addr:housenumber": "88", "addr:postcode": "DY9 0NJ", "addr:street": "Worcester Road", "addr:village": "West Hagley", "amenity": "post_office", "name": "West Hagley Post Office", "opening_hours:post_office": "Mo-Su 06:00-22:00", "ref:pol_id": "8385", "source": "pol_branch_list_2018-02"}},