[{"county": "Cumbria", "code": "E00096409", "lad": "Allerdale", "rgn_main": "North West", "population": 298, "amenities": [{"name": "N/A", "amenity": "post_box", "data_type": "node", "lat": "54.6621033", "lon": "-3.3484606", "other_tags": {"amenity": "post_box", "ref": "CA13 34"}}, {"name": "N/A", "amenity": "parking", "data_type": "way", "lat": "54.6604264", "lon": "-3.3489992", "other_tags": {"access": "private", "amenity": "parking", "capacity": "8", "parking": "surface"}}, {"name": "N/A", "amenity": "parking", "data_type": "way", "lat": "54.6607186", "lon": "-3.3486982", "other_tags": {"access": "private", "amenity": "parking", "capacity": "2", "parking": "surface"}}, {"name": "N/A", "amenity": "parking", "data_type": "way", "lat": "54.6607194", "lon": "-3.3488584", "other_tags": {"access": "private", "amenity": "parking", "capacity": "2", "parking": "surface"}}, {"name": "N/A", "amenity": "parking", "data_type": "way", "lat": "54.6605168", "lon": "-3.3486103", "other_tags": {"access": "private", "amenity": "parking", "capacity": "2", "parking": "surface"}}, {"name": "N/A", "amenity": "parking", "data_type": "way", "lat": "54.6603764", "lon": "-3.3488183", "other_tags": {"access": "private", "amenity": "parking", "capacity": "3", "parking": "surface"}}]}, {"county": "Cumbria", "code": "E00096410", "lad": "Allerdale", "rgn_main": "North West", "population": 310, "amenities": [{"name": "N/A", "amenity": "parking", "data_type": "node", "lat": "54.6506008", "lon": "-3.3542477", "other_tags": {"amenity": "parking"}}]}, {"county": "Cumbria", "code": "E00096411", "lad": "Allerdale", "rgn_main": "North West", "population": 266, "amenities": [{"name": "N/A", "amenity": "post_box", "data_type": "node", "lat": "54.6637719", "lon": "-3.3547460", "other_tags": {"amenity": "post_box", "ref": "CA13 185"}}, {"name": "N/A", "amenity": "post_box", "data_type": "node", "lat": "54.6644011", "lon": "-3.3486858", "other_tags": {"amenity": "post_box", "ref": "CA13 44"}}]}, {"county": "Cumbria", "code": "E00096413", "lad": "Allerdale", "rgn_main": "North West", "population": 262, "amenities": [{"name": "N/A", "amenity": "telephone", "data_type": "node", "lat": "54.6574568", "lon": "-3.3536199", "other_tags": {"amenity": "telephone", "booth": "KX100", "covered": "booth", "defibrillator:location": "inside old phone box on Lorton Road, Cockermouth", "emergency": "defibrillator", "man_made": "telephone_box", "source": "survey"}}, {"name": "N/A", "amenity": "grave_yard", "data_type": "way", "lat": "54.6587724", "lon": "-3.3541198", "other_tags": {"amenity": "grave_yard", "source": "OS Streetview;local knowledge"}}, {"name": "N/A", "amenity": "place_of_worship", "data_type": "way", "lat": "54.6586800", "lon": "-3.3540208", "other_tags": {"amenity": "place_of_worship", "building": "yes", "layer": "1", "religion": "christian"}}]}, {"county": "Cumbria", "code": "E00096414", "lad": "Allerdale", "rgn_main": "North West", "population": 293, "amenities": [{"name": "N/A", "amenity": "bench", "data_type": "node", "lat": "54.6612604", "lon": "-3.3608011", "other_tags": {"amenity": "bench"}}, {"name": "The Hub", "amenity": "community_centre", "data_type": "node", "lat": "54.6637672", "lon": "-3.3614558", "other_tags": {"addr:city": "Cockermouth", "addr:housename": "King's Church", "addr:housenumber": "2", "addr:postcode": "CA13 9NJ", "addr:street": "Market Street", "amenity": "community_centre", "level": "0", "name": "The Hub", "website": "https://www.kingscc.org/hub", "wheelchair": "yes"}}, {"name": "Cockermouth Town Hall", "amenity": "townhall", "data_type": "way", "lat": "54.6631331", "lon": "-3.3610244", "other_tags": {"amenity": "townhall", "building": "yes", "name": "Cockermouth Town Hall"}}, {"name": "Riverside Car Park", "amenity": "parking", "data_type": "way", "lat": "54.6630105", "lon": "-3.3613784", "other_tags": {"access": "yes", "amenity": "parking", "capacity": "35", "fee": "yes", "name": "Riverside Car Park", "operator": "Allerdale Borough Council", "park_ride": "no", "parking": "surface"}}, {"name": "Bitterbeck Car Park", "amenity": "parking", "data_type": "way", "lat": "54.6638576", "lon": "-3.3610280", "other_tags": {"amenity": "parking", "fee": "yes", "name": "Bitterbeck Car Park", "operator": "Allerdale Borough Council", "parking": "surface"}}, {"name": "N/A", "amenity": "toilets", "data_type": "way", "lat": "54.6635686", "lon": "-3.3610094", "other_tags": {"amenity": "toilets", "building": "yes", "fee": "yes"}}]}, {"county": "Cumbria", "code": "E00096415", "lad": "Allerdale", "rgn_main": "North West", "population": 315, "amenities": [{"name": "N/A", "amenity": "post_box", "data_type": "node", "lat": "54.6567436", "lon": "-3.3527269", "other_tags": {"amenity": "post_box", "post_box:mounting": "brick_pillar", "post_box:type": "wall", "ref": "CA13 161", "royal_cypher": "EIIR"}}]}, {"county": "Cumbria", "code": "E00096416", "lad": "Allerdale", "rgn_main": "North West", "population": 255, "amenities": [{"name": "N/A", "amenity": "post_box", "data_type": "node", "lat": "54.6562289", "lon": "-3.3582556", "other_tags": {"amenity": "post_box", "post_box:type": "lamp", "ref": "CA13 7", "royal_cypher": "EIIR"}}]}, {"county": "Cumbria", "code": "E00096417", "lad": "Allerdale", "rgn_main": "North West", "population": 255, "amenities": [{"name": "N/A", "amenity": "parking", "data_type": "way", "lat": "54.6675944", "lon": "-3.3490038", "other_tags": {"access": "private", "amenity": "parking", "fee": "no", "park_ride": "no", "parking": "surface", "supervised": "no", "surface": "asphalt"}}, {"name": "N/A", "amenity": "bicycle_parking", "data_type": "way", "lat": "54.6673003", "lon": "-3.3499771", "other_tags": {"amenity": "bicycle_parking", "bicycle_parking": "shed", "building": "yes"}}, {"name": "N/A", "amenity": "bicycle_parking", "data_type": "way", "lat": "54.6672966", "lon": "-3.3498947", "other_tags": {"amenity": "bicycle_parking", "bicycle_parking": "shed", "building": "yes"}}, {"name": "N/A", "amenity": "parking", "data_type": "way", "lat": "54.6673304", "lon": "-3.3500301", "other_tags": {"access": "private", "amenity": "parking", "operator": "Cockermouth School", "parking": "surface", "surface": "asphalt"}}, {"name": "N/A", "amenity": "parking_space", "data_type": "way", "lat": "54.6674843", "lon": "-3.3499084", "other_tags": {"amenity": "parking_space", "capacity": "2", "parking_space": "disabled"}}, {"name": "N/A", "amenity": "shelter", "data_type": "way", "lat": "54.6682141", "lon": "-3.3508461", "other_tags": {"amenity": "shelter", "building": "yes"}}, {"name": "N/A", "amenity": "shelter", "data_type": "way", "lat": "54.6678933", "lon": "-3.3504823", "other_tags": {"amenity": "shelter", "building": "yes"}}]}, {"county": "Cumbria", "code": "E00096418", "lad": "Allerdale", "rgn_main": "North West", "population": 314, "amenities": [{"name": "N/A", "amenity": "post_box", "data_type": "node", "lat": "54.6666615", "lon": "-3.3521350", "other_tags": {"amenity": "post_box", "ref": "CA13 181"}}, {"name": "N/A", "amenity": "bicycle_parking", "data_type": "node", "lat": "54.6662760", "lon": "-3.3582092", "other_tags": {"amenity": "bicycle_parking", "bicycle_parking": "stands", "capacity": "30", "covered": "yes"}}, {"name": "N/A", "amenity": "toilets", "data_type": "node", "lat": "54.6661121", "lon": "-3.3585112", "other_tags": {"amenity": "toilets", "fee": "yes"}}, {"name": "Castlegate & Derwent Surgery", "amenity": "doctors", "data_type": "node", "lat": "54.6659249", "lon": "-3.3587082", "other_tags": {"addr:city": "Cockermouth", "addr:housename": "Cockermouth Community Hospital", "addr:postcode": "CA13 9HT", "addr:street": "Isel Road", "amenity": "doctors", "healthcare": "doctor", "name": "Castlegate & Derwent Surgery", "phone": "+44 1900 705350;+44 1900 705750", "website": "http://derwentsurgery.co.uk/"}}, {"name": "N/A", "amenity": "pharmacy", "data_type": "node", "lat": "54.6657797", "lon": "-3.3587866", "other_tags": {"amenity": "pharmacy", "dispensing": "yes", "healthcare": "pharmacy"}}, {"name": "Cockermouth Scouts", "amenity": "community_centre", "data_type": "node", "lat": "54.6644438", "lon": "-3.3562872", "other_tags": {"addr:city": "Cockermouth", "addr:postcode": "CA13 9HX", "addr:street": "Saint Helens street", "amenity": "community_centre", "name": "Cockermouth Scouts", "website": "http://1stcockermouth.cumbriascouts.org.uk/"}}, {"name": "Hospital Car Park", "amenity": "parking", "data_type": "way", "lat": "54.6660580", "lon": "-3.3578883", "other_tags": {"access": "customers", "amenity": "parking", "capacity": "130", "name": "Hospital Car Park", "park_ride": "no", "parking": "surface"}}, {"name": "Cockermouth Sports Centre", "amenity": "parking", "data_type": "way", "lat": "54.6646712", "lon": "-3.3582952", "other_tags": {"access": "customers", "amenity": "parking", "capacity": "50", "name": "Cockermouth Sports Centre", "park_ride": "no", "parking": "surface"}}, {"name": "Cockermouth Sports Centre", "amenity": "parking", "data_type": "way", "lat": "54.6643637", "lon": "-3.3565740", "other_tags": {"access": "customers", "amenity": "parking", "capacity": "20", "name": "Cockermouth Sports Centre", "park_ride": "no", "parking": "surface"}}, {"name": "Cockermouth Sports Centre Car Park", "amenity": "parking", "data_type": "way", "lat": "54.6648383", "lon": "-3.3587465", "other_tags": {"access": "customers", "amenity": "parking", "capacity": "30", "name": "Cockermouth Sports Centre Car Park", "parking": "surface"}}, {"name": "N/A", "amenity": "hospital", "data_type": "way", "lat": "54.6671435", "lon": "-3.3587561", "other_tags": {"amenity": "hospital", "healthcare": "hospital"}}, {"name": "N/A", "amenity": "parking", "data_type": "way", "lat": "54.6669449", "lon": "-3.3507194", "other_tags": {"access": "private", "amenity": "parking", "fee": "no", "park_ride": "no", "parking": "surface", "supervised": "no", "surface": "asphalt"}}, {"name": "N/A", "amenity": "parking_space", "data_type": "way", "lat": "54.6670643", "lon": "-3.3512979", "other_tags": {"amenity": "parking_space", "capacity": "2", "parking_space": "disabled"}}, {"name": "N/A", "amenity": "bicycle_parking", "data_type": "way", "lat": "54.6670371", "lon": "-3.3516435", "other_tags": {"amenity": "bicycle_parking", "bicycle_parking": "shed", "building": "yes"}}]}, {"county": "Cumbria", "code": "E00096419", "lad": "Allerdale", "rgn_main": "North West", "population": 255, "amenities": []}, {"county": "Cumbria", "code": "E00096420", "lad": "Allerdale", "rgn_main": "North West", "population": 241, "amenities": [{"name": "Seth's Bar", "amenity": "bar", "data_type": "node", "lat": "54.6638752", "lon": "-3.3598933", "other_tags": {"addr:city": "Cockermouth", "addr:housenumber": "1", "addr:postcode": "CA13 9NH", "addr:street": "Market Place", "amenity": "bar", "name": "Seth's Bar", "phone": "+44 1900 829282"}}, {"name": "N/A", "amenity": "recycling", "data_type": "node", "lat": "54.6635191", "lon": "-3.3588633", "other_tags": {"amenity": "recycling", "recycling:glass": "yes"}}, {"name": "Little Basil", "amenity": "fast_food", "data_type": "node", "lat": "54.6639243", "lon": "-3.3602807", "other_tags": {"addr:city": "Cockermouth", "addr:housenumber": "7", "addr:postcode": "CA13 9NH", "addr:street": "Market Place", "amenity": "fast_food", "cuisine": "chinese", "fhrs:id": "268102", "name": "Little Basil", "phone": "+44 1900 823376"}}, {"name": "Portofino's Bistro", "amenity": "restaurant", "data_type": "node", "lat": "54.6639078", "lon": "-3.3618337", "other_tags": {"addr:city": "Cockermouth", "addr:housenumber": "41", "addr:postcode": "CA13 9LT", "addr:street": "Market Place", "amenity": "restaurant", "cuisine": "italian", "fhrs:id": "267265", "name": "Portofino's Bistro", "phone": "+44 1900 829770"}}, {"name": "Blocks Steakhouse", "amenity": "restaurant", "data_type": "node", "lat": "54.6642006", "lon": "-3.3607523", "other_tags": {"addr:city": "Cockermouth", "addr:housenumber": "20", "addr:postcode": "CA13 9NQ", "addr:street": "Market Place", "amenity": "restaurant", "name": "Blocks Steakhouse", "phone": "+441900 823654", "website": "https://www.allerdalecourthotel.co.uk/carlins-bars-the-allerdale-hotel-carlins-bar-cockermouth-cumbria-the-lake-district.html"}}, {"name": "Bamboo", "amenity": "restaurant", "data_type": "node", "lat": "54.6641709", "lon": "-3.3606119", "other_tags": {"addr:city": "Cockermouth", "addr:housenumber": "16", "addr:postcode": "CA13 9NQ", "addr:street": "Market Place", "amenity": "restaurant", "cuisine": "chinese", "fhrs:id": "268181", "name": "Bamboo", "phone": "+44 1900 829308"}}, {"name": "Castle Bar", "amenity": "pub", "data_type": "node", "lat": "54.6641431", "lon": "-3.3604631", "other_tags": {"addr:city": "Cockermouth", "addr:housenumber": "14", "addr:postcode": "CA13 9NQ", "addr:street": "Market Place", "amenity": "pub", "fhrs:id": "268190", "name": "Castle Bar", "phone": "+44 1900 829904", "website": "www.cockermouth.org.uk/castlebar/"}}, {"name": "Fermento Italian Family Kitchen", "amenity": "restaurant", "data_type": "node", "lat": "54.6640477", "lon": "-3.3598152", "other_tags": {"addr:city": "Cockermouth", "addr:housenumber": "2", "addr:postcode": "CA13 9NQ", "addr:street": "Market Place", "amenity": "restaurant", "fhrs:id": "1090232", "name": "Fermento Italian Family Kitchen", "phone": "+441900 826655"}}, {"name": "Bitter End", "amenity": "pub", "data_type": "node", "lat": "54.6634275", "lon": "-3.3595094", "other_tags": {"addr:city": "Cockermouth", "addr:postcode": "CA13 9PJ", "addr:street": "Kirkgate", "amenity": "pub", "name": "Bitter End", "phone": "+44 1900 828993", "website": "http://www.bitterend.co.uk/"}}, {"name": "N/A", "amenity": "post_box", "data_type": "node", "lat": "54.6640495", "lon": "-3.3599645", "other_tags": {"amenity": "post_box", "ref": "CA13 69"}}, {"name": "N/A", "amenity": "post_box", "data_type": "node", "lat": "54.6656370", "lon": "-3.3594388", "other_tags": {"amenity": "post_box", "ref": "CA13 114"}}, {"name": "N/A", "amenity": "bench", "data_type": "node", "lat": "54.6649088", "lon": "-3.3648285", "other_tags": {"amenity": "bench"}}, {"name": "N/A", "amenity": "bench", "data_type": "node", "lat": "54.6649804", "lon": "-3.3646511", "other_tags": {"amenity": "bench"}}, {"name": "N/A", "amenity": "bench", "data_type": "node", "lat": "54.6650439", "lon": "-3.3644713", "other_tags": {"amenity": "bench"}}, {"name": "St Helens Dental Practice", "amenity": "dentist", "data_type": "node", "lat": "54.6640454", "lon": "-3.3596892", "other_tags": {"addr:city": "Cockermouth", "addr:postcode": "CA13 9NQ", "addr:street": "Market Place", "amenity": "dentist", "healthcare": "dentist", "healthcare:speciality": "dentist", "name": "St Helens Dental Practice", "phone": "+44 1900 826210", "website": "https://www.sthelensdentalpractice.org.uk/"}}, {"name": "N/A", "amenity": "bench", "data_type": "node", "lat": "54.6639667", "lon": "-3.3599952", "other_tags": {"amenity": "bench"}}, {"name": "N/A", "amenity": "bench", "data_type": "node", "lat": "54.6640055", "lon": "-3.3603921", "other_tags": {"amenity": "bench"}}, {"name": "N/A", "amenity": "bench", "data_type": "node", "lat": "54.6640938", "lon": "-3.3603903", "other_tags": {"amenity": "bench"}}, {"name": "N/A", "amenity": "bench", "data_type": "node", "lat": "54.6641141", "lon": "-3.3605692", "other_tags": {"amenity": "bench"}}, {"name": "N/A", "amenity": "bench", "data_type": "node", "lat": "54.6640489", "lon": "-3.3606550", "other_tags": {"amenity": "bench"}}, {"name": "N/A", "amenity": "bench", "data_type": "node", "lat": "54.6642382", "lon": "-3.3612102", "other_tags": {"amenity": "bench"}}, {"name": "N/A", "amenity": "bench", "data_type": "node", "lat": "54.6641017", "lon": "-3.3612505", "other_tags": {"amenity": "bench"}}, {"name": "N/A", "amenity": "bench", "data_type": "node", "lat": "54.6641141", "lon": "-3.3613497", "other_tags": {"amenity": "bench"}}, {"name": "The Last Unicorn", "amenity": "cafe", "data_type": "node", "lat": "54.6643235", "lon": "-3.3614900", "other_tags": {"addr:city": "Cockermouth", "addr:housenumber": "1", "addr:postcode": "CA13 9EU", "addr:street": "Castlegate", "amenity": "cafe", "fhrs:id": "957899", "name": "The Last Unicorn"}}, {"name": "N/A", "amenity": "charging_station", "data_type": "node", "lat": "54.6634672", "lon": "-3.3594680", "other_tags": {"access": "customers", "amenity": "charging_station", "bicycle": "yes", "charge": "0.5 GBP", "fee": "yes", "motorcar": "no", "operator": "Bitter End", "website": "https://www.visitlakedistrict.com/explore/travel/electric-bike-charging-point-rydal-hall-tea-room-p1414501"}}, {"name": "N/A", "amenity": "bicycle_parking", "data_type": "node", "lat": "54.6640586", "lon": "-3.3614127", "other_tags": {"amenity": "bicycle_parking", "bicycle_parking": "stands", "capacity": "6", "covered": "no"}}, {"name": "All Saints Church", "amenity": "place_of_worship", "data_type": "way", "lat": "54.6632681", "lon": "-3.3602170", "other_tags": {"amenity": "place_of_worship", "building": "yes", "denomination": "anglican", "name": "All Saints Church", "religion": "christian", "wikidata": "Q17540820"}}, {"name": "Castle Brewery Car Park", "amenity": "parking", "data_type": "way", "lat": "54.6643090", "lon": "-3.3621535", "other_tags": {"access": "customers", "amenity": "parking", "capacity": "30", "name": "Castle Brewery Car Park", "park_ride": "no", "parking": "surface", "supervised": "no"}}, {"name": "Quince & Medlar", "amenity": "restaurant", "data_type": "way", "lat": "54.6646961", "lon": "-3.3610939", "other_tags": {"addr:city": "Cockermouth", "addr:housenumber": "11-13", "addr:postcode": "CA13 9EU", "addr:street": "Castlegate", "amenity": "restaurant", "building": "yes", "diet:vegetarian": "yes", "fhrs:id": "267217", "name": "Quince & Medlar", "phone": "+44 1900 823579", "website": "https://www.quinceandmedlar.co.uk/"}}, {"name": "The Kirkgate Centre", "amenity": "theatre", "data_type": "way", "lat": "54.6636934", "lon": "-3.3592936", "other_tags": {"addr:city": "Cockermouth", "addr:postcode": "CA13 9PJ", "addr:street": "Kirkgate", "amenity": "theatre", "building": "yes", "name": "The Kirkgate Centre", "phone": "+44 1900 826448", "website": "https://kirkgateartsandheritage.org.uk/"}}, {"name": "Kirgate Centre Car Park", "amenity": "parking", "data_type": "way", "lat": "54.6635616", "lon": "-3.3589008", "other_tags": {"amenity": "parking", "capacity": "50", "name": "Kirgate Centre Car Park", "park_ride": "no", "parking": "surface"}}, {"name": "N/A", "amenity": "grave_yard", "data_type": "way", "lat": "54.6633907", "lon": "-3.3596833", "other_tags": {"amenity": "grave_yard"}}, {"name": "King's Church", "amenity": "place_of_worship", "data_type": "way", "lat": "54.6638450", "lon": "-3.3614220", "other_tags": {"addr:city": "Cockermouth", "addr:housenumber": "2", "addr:postcode": "CA13 9NJ", "addr:street": "Market Street", "amenity": "place_of_worship", "building": "yes", "fhrs:id": "1030484", "name": "King's Church", "religion": "christian", "website": "https://www.kingscc.org/"}}]}, {"county": "Cumbria", "code": "E00096421", "lad": "Allerdale", "rgn_main": "North West", "population": 268, "amenities": [{"name": "N/A", "amenity": "post_box", "data_type": "node", "lat": "54.6616991", "lon": "-3.3522355", "other_tags": {"amenity": "post_box", "ref": "CA13 169"}}, {"name": "All Saints Church of England Primary School", "amenity": "school", "data_type": "way", "lat": "54.6639208", "lon": "-3.3497736", "other_tags": {"addr:city": "Cockermouth", "addr:postcode": "CA13 9BH", "addr:street": "Slatefell Drive", "amenity": "school", "name": "All Saints Church of England Primary School", "phone": "+44 1900 823431", "ref:edubase": "112272", "website": "http://www.allsaintscockermouth.org.uk/", "wikidata": "Q65973727"}}]}, {"county": "Cumbria", "code": "E00096422", "lad": "Allerdale", "rgn_main": "North West", "population": 256, "amenities": []}, {"county": "Cumbria", "code": "E00096423", "lad": "Allerdale", "rgn_main": "North West", "population": 275, "amenities": []}, {"county": "Cumbria", "code": "E00096424", "lad": "Allerdale", "rgn_main": "North West", "population": 252, "amenities": [{"name": "N/A", "amenity": "post_box", "data_type": "node", "lat": "54.6614004", "lon": "-3.3587545", "other_tags": {"amenity": "post_box", "ref": "CA13 87"}}, {"name": "Helen Siddle", "amenity": "dentist", "data_type": "node", "lat": "54.6617198", "lon": "-3.3593006", "other_tags": {"addr:city": "Cockermouth", "addr:housenumber": "72", "addr:postcode": "CA13 9PH", "addr:street": "Kirkgate", "amenity": "dentist", "healthcare": "dentist", "name": "Helen Siddle", "phone": "+44 1900 824111"}}, {"name": "Quaker Meeting House", "amenity": "place_of_worship", "data_type": "way", "lat": "54.6618732", "lon": "-3.3587095", "other_tags": {"addr:city": "Cockermouth", "addr:housename": "Quaker House", "addr:postcode": "CA13 9PH", "addr:street": "Kirkgate", "amenity": "place_of_worship", "building": "yes", "name": "Quaker Meeting House", "phone": "+44 1900 822171", "religion": "christian"}}, {"name": "Goodwin & Associates", "amenity": "dentist", "data_type": "way", "lat": "54.6623192", "lon": "-3.3589568", "other_tags": {"addr:city": "Cockermouth", "addr:housenumber": "57", "addr:postcode": "CA13 9PH", "addr:street": "Kirkgate", "amenity": "dentist", "building": "yes", "healthcare": "dentist", "name": "Goodwin & Associates", "phone": "+44 1900 823467"}}, {"name": "The Swan", "amenity": "pub", "data_type": "way", "lat": "54.6623169", "lon": "-3.3594140", "other_tags": {"addr:city": "Cockermouth", "addr:housenumber": "52-56", "addr:postcode": "CA13 9PH", "addr:street": "Kirkgate", "amenity": "pub", "building": "yes", "name": "The Swan", "phone": "+44 1900 822425"}}]}, {"county": "Cumbria", "code": "E00096425", "lad": "Allerdale", "rgn_main": "North West", "population": 279, "amenities": [{"name": "N/A", "amenity": "grit_bin", "data_type": "node", "lat": "54.7747827", "lon": "-3.2351597", "other_tags": {"amenity": "grit_bin"}}, {"name": "N/A", "amenity": "post_box", "data_type": "node", "lat": "54.7656134", "lon": "-3.2778145", "other_tags": {"amenity": "post_box", "ref": "CA7 240"}}, {"name": "N/A", "amenity": "post_box", "data_type": "node", "lat": "54.7728313", "lon": "-3.2656612", "other_tags": {"amenity": "post_box", "ref": "CA7 216"}}, {"name": "Allhallows Old Church", "amenity": "place_of_worship", "data_type": "node", "lat": "54.7651948", "lon": "-3.2390035", "other_tags": {"amenity": "place_of_worship", "name": "Allhallows Old Church", "religion": "christian"}}, {"name": "N/A", "amenity": "recycling", "data_type": "way", "lat": "54.7760598", "lon": "-3.2355936", "other_tags": {"amenity": "recycling"}}, {"name": "All Saints Church", "amenity": "place_of_worship", "data_type": "way", "lat": "54.7711433", "lon": "-3.2489324", "other_tags": {"amenity": "place_of_worship", "building": "yes", "denomination": "anglican", "heritage": "yes", "name": "All Saints Church", "religion": "christian", "wikidata": "Q26437474"}}, {"name": "N/A", "amenity": "grave_yard", "data_type": "way", "lat": "54.7711096", "lon": "-3.2485635", "other_tags": {"amenity": "grave_yard"}}, {"name": "N/A", "amenity": "grave_yard", "data_type": "way", "lat": "54.7653842", "lon": "-3.2395661", "other_tags": {"amenity": "grave_yard"}}]}, {"county": "Cumbria", "code": "E00096426", "lad": "Allerdale", "rgn_main": "North West", "population": 246, "amenities": [{"name": "N/A", "amenity": "post_box", "data_type": "node", "lat": "54.7753827", "lon": "-3.2332535", "other_tags": {"amenity": "post_box", "post_box:type": "lamp", "ref": "CA7 229"}}, {"name": "N/A", "amenity": "bench", "data_type": "node", "lat": "54.7754629", "lon": "-3.2330381", "other_tags": {"amenity": "bench"}}, {"name": "N/A", "amenity": "telephone", "data_type": "node", "lat": "54.7754907", "lon": "-3.2330025", "other_tags": {"amenity": "telephone", "booth": "KX100", "covered": "booth", "man_made": "telephone_box"}}, {"name": "N/A", "amenity": "bench", "data_type": "node", "lat": "54.7756454", "lon": "-3.2322706", "other_tags": {"amenity": "bench"}}, {"name": "N/A", "amenity": "bench", "data_type": "node", "lat": "54.7759672", "lon": "-3.2301285", "other_tags": {"amenity": "bench"}}, {"name": "N/A", "amenity": "bench", "data_type": "node", "lat": "54.7757733", "lon": "-3.2309958", "other_tags": {"amenity": "bench"}}, {"name": "N/A", "amenity": "parking", "data_type": "way", "lat": "54.7755657", "lon": "-3.2352219", "other_tags": {"amenity": "parking", "parking": "surface"}}]}, {"county": "Cumbria", "code": "E00096427", "lad": "Allerdale", "rgn_main": "North West", "population": 309, "amenities": [{"name": "Disc Zone", "amenity": "parking", "data_type": "node", "lat": "54.7644556", "lon": "-3.3265881", "other_tags": {"amenity": "parking", "name": "Disc Zone"}}, {"name": "N/A", "amenity": "post_box", "data_type": "node", "lat": "54.7642421", "lon": "-3.3276286", "other_tags": {"amenity": "post_box", "ref": "CA7 271"}}, {"name": "Grapes hotel", "amenity": "pub", "data_type": "way", "lat": "54.7634566", "lon": "-3.3325898", "other_tags": {"amenity": "pub", "building": "yes", "name": "Grapes hotel"}}, {"name": "N/A", "amenity": "fire_station", "data_type": "way", "lat": "54.7640753", "lon": "-3.3314217", "other_tags": {"amenity": "fire_station", "building": "yes"}}, {"name": "Ken Tong", "amenity": "fast_food", "data_type": "way", "lat": "54.7639418", "lon": "-3.3307875", "other_tags": {"addr:city": "Aspatria", "addr:housenumber": "8a", "addr:postcode": "CA7 3ES", "addr:street": "King Street", "amenity": "fast_food", "building": "yes", "cuisine": "chinese", "name": "Ken Tong"}}, {"name": "Cumberland Building Society", "amenity": "bank", "data_type": "way", "lat": "54.7639839", "lon": "-3.3305944", "other_tags": {"addr:city": "Aspatria", "addr:housenumber": "6", "addr:postcode": "CA7 3ET", "addr:street": "King Street", "amenity": "bank", "brand": "Cumberland Building Society", "brand:wikidata": "Q5193845", "brand:wikipedia": "en:Cumberland Building Society", "building": "yes", "name": "Cumberland Building Society"}}, {"name": "HSBC UK", "amenity": "bank", "data_type": "way", "lat": "54.7640987", "lon": "-3.3286812", "other_tags": {"amenity": "bank", "area": "yes", "brand": "HSBC UK", "brand:wikidata": "Q64767453", "building": "yes", "name": "HSBC UK", "not:brand:wikidata": "Q190464"}}, {"name": "Chatanooga", "amenity": "fast_food", "data_type": "way", "lat": "54.7642657", "lon": "-3.3280533", "other_tags": {"addr:city": "Aspatria", "addr:housenumber": "63", "addr:postcode": "CA7 3AG", "addr:street": "King Street", "amenity": "fast_food", "building": "yes", "cuisine": "kebab;italian", "name": "Chatanooga", "phone": "+44 16973 23232"}}, {"name": "Aspatria Post Office", "amenity": "post_office", "data_type": "way", "lat": "54.7641694", "lon": "-3.3276133", "other_tags": {"addr:city": "Wigton", "addr:country": "GB", "addr:housenumber": "50,52", "addr:postcode": "CA7 3AA", "addr:street": "King Street", "addr:village": "Aspatria", "amenity": "post_office", "brand": "Post Office", "brand:wikidata": "Q1783168", "building": "yes", "check_date": "2022-05-27", "check_date:opening_hours": "2022-05-27", "contact:website": "https://www.postoffice.co.uk/branch-finder/1564102/aspatria", "name": "Aspatria Post Office", "opening_hours": "Mo-Fr 09:00-13:00; Sa 09:00-12:00", "phone": "+44 345 611 2970", "ref:pol_id": "3321"}}, {"name": "N/A", "amenity": "grave_yard", "data_type": "way", "lat": "54.7645217", "lon": "-3.3260946", "other_tags": {"amenity": "grave_yard"}}, {"name": "N/A", "amenity": "place_of_worship", "data_type": "way", "lat": "54.7646258", "lon": "-3.3251834", "other_tags": {"amenity": "place_of_worship", "building": "yes", "religion": "christian"}}]}, {"county": "Cumbria", "code": "E00096428", "lad": "Allerdale", "rgn_main": "North West", "population": 299, "amenities": [{"name": "N/A", "amenity": "post_box", "data_type": "node", "lat": "54.7646296", "lon": "-3.3201866", "other_tags": {"amenity": "post_box", "ref": "CA7 235"}}, {"name": "N/A", "amenity": "charging_station", "data_type": "node", "lat": "54.7650410", "lon": "-3.3202608", "other_tags": {"access": "yes", "amenity": "charging_station", "authentication:app": "yes", "capacity": "1", "fee": "yes", "motorcar": "yes", "network": "Charge My Street", "operator": "Masonic Lodge", "parking:fee": "no", "payment:app": "yes", "ref": "EG-03694", "socket:type2": "1", "socket:type2:current": "32", "socket:type2:output": "7kW", "socket:type2:voltage": "230"}}, {"name": "N/A", "amenity": "charging_station", "data_type": "node", "lat": "54.7650362", "lon": "-3.3202493", "other_tags": {"access": "yes", "amenity": "charging_station", "authentication:app": "yes", "capacity": "1", "fee": "yes", "motorcar": "yes", "network": "Charge My Street", "operator": "Masonic Lodge", "parking:fee": "no", "payment:app": "yes", "ref": "EG-03693", "socket:type2": "1", "socket:type2:current": "32", "socket:type2:output": "7kW", "socket:type2:voltage": "230"}}, {"name": "N/A", "amenity": "parking", "data_type": "way", "lat": "54.7650304", "lon": "-3.3197830", "other_tags": {"access": "customers", "amenity": "parking", "capacity": "20", "fee": "no", "operator": "Noble Tempe Masonic Hall", "park_ride": "no", "parking": "surface"}}]}, {"county": "Cumbria", "code": "E00096429", "lad": "Allerdale", "rgn_main": "North West", "population": 346, "amenities": [{"name": "N/A", "amenity": "post_box", "data_type": "node", "lat": "54.7688327", "lon": "-3.3154139", "other_tags": {"amenity": "post_box", "post_box:type": "lamp", "ref": "CA7 217", "royal_cypher": "EIIR", "source": "survey"}}, {"name": "N/A", "amenity": "telephone", "data_type": "node", "lat": "54.7627440", "lon": "-3.3073831", "other_tags": {"amenity": "telephone"}}, {"name": "N/A", "amenity": "bench", "data_type": "node", "lat": "54.7620639", "lon": "-3.3090965", "other_tags": {"amenity": "bench"}}, {"name": "N/A", "amenity": "bench", "data_type": "node", "lat": "54.7620567", "lon": "-3.3089332", "other_tags": {"amenity": "bench"}}, {"name": "N/A", "amenity": "post_box", "data_type": "node", "lat": "54.7621026", "lon": "-3.3085879", "other_tags": {"amenity": "post_box", "ref": "CA7 263"}}, {"name": "N/A", "amenity": "bench", "data_type": "node", "lat": "54.7632859", "lon": "-3.3058107", "other_tags": {"amenity": "bench"}}, {"name": "Village Hall", "amenity": "village_hall", "data_type": "way", "lat": "54.7627151", "lon": "-3.3074838", "other_tags": {"amenity": "village_hall", "building": "yes", "name": "Village Hall"}}, {"name": "N/A", "amenity": "parking", "data_type": "way", "lat": "54.7711539", "lon": "-3.3012370", "other_tags": {"access": "customers", "amenity": "parking", "park_ride": "no", "parking": "surface", "supervised": "no"}}, {"name": "N/A", "amenity": "parking", "data_type": "way", "lat": "54.7684471", "lon": "-3.3005119", "other_tags": {"amenity": "parking", "parking": "surface"}}]}, {"county": "Cumbria", "code": "E00096430", "lad": "Allerdale", "rgn_main": "North West", "population": 298, "amenities": [{"name": "Esso", "amenity": "fuel", "data_type": "node", "lat": "54.7637580", "lon": "-3.3328404", "other_tags": {"amenity": "fuel", "brand": "Esso", "brand:wikidata": "Q867662", "contact:website": "https://www.esso.co.uk/en-gb/find-station/esso-aspatria-essotaslrjaallen-100200408", "name": "Esso"}}, {"name": "N/A", "amenity": "post_box", "data_type": "node", "lat": "54.7620946", "lon": "-3.3384314", "other_tags": {"amenity": "post_box", "ref": "CA7 211"}}, {"name": "N/A", "amenity": "post_box", "data_type": "node", "lat": "54.7587419", "lon": "-3.3330465", "other_tags": {"amenity": "post_box", "ref": "CA7 243"}}, {"name": "Aspatria Medical Group", "amenity": "doctors", "data_type": "node", "lat": "54.7629435", "lon": "-3.3354837", "other_tags": {"amenity": "doctors", "name": "Aspatria Medical Group", "url": "http://www.aspatriamedicalgroup.co.uk/"}}, {"name": "Beacon Hill Community School", "amenity": "school", "data_type": "way", "lat": "54.7639361", "lon": "-3.3336578", "other_tags": {"addr:postcode": "CA7 3EZ", "addr:street": "Market Square", "amenity": "school", "capacity": "350", "isced:level": "2", "max_age": "16", "min_age": "11", "name": "Beacon Hill Community School", "phone": "+44 16973 20509", "ref:GB:uprn": "10023917460", "ref:edubase": "112375", "ref:edubase:group": "17085", "religion": "none", "school:boarding": "no", "school:federation:name": "Cumbria Futures Federation", "school:gender": "mixed", "school:selective": "no", "school:trust": "no", "school:type": "community", "website": "http://beaconhill.cumbria.sch.uk/", "wikidata": "Q65973820"}}, {"name": "N/A", "amenity": "parking", "data_type": "way", "lat": "54.7598909", "lon": "-3.3324830", "other_tags": {"amenity": "parking"}}, {"name": "N/A", "amenity": "parking", "data_type": "way", "lat": "54.7635953", "lon": "-3.3332675", "other_tags": {"amenity": "parking", "capacity": "75", "fee": "yes", "park_ride": "no", "parking": "surface", "supervised": "no"}}, {"name": "N/A", "amenity": "library", "data_type": "way", "lat": "54.7638084", "lon": "-3.3339993", "other_tags": {"addr:city": "Aspatria", "addr:postcode": "CA7 3HB", "addr:street": "Market Square", "amenity": "library", "building": "yes"}}, {"name": "School Car Park", "amenity": "parking", "data_type": "way", "lat": "54.7640964", "lon": "-3.3328713", "other_tags": {"amenity": "parking", "name": "School Car Park"}}, {"name": "The Chapel Cafe", "amenity": "cafe", "data_type": "way", "lat": "54.7642421", "lon": "-3.3327523", "other_tags": {"amenity": "cafe", "building": "yes", "name": "The Chapel Cafe"}}, {"name": "Letters Inn", "amenity": "pub", "data_type": "way", "lat": "54.7644675", "lon": "-3.3327847", "other_tags": {"amenity": "pub", "building": "yes", "name": "Letters Inn"}}, {"name": "NatWest", "amenity": "bank", "data_type": "way", "lat": "54.7638029", "lon": "-3.3325996", "other_tags": {"amenity": "bank", "brand": "NatWest", "brand:wikidata": "Q2740021", "building": "yes", "name": "NatWest"}}]}, {"county": "Cumbria", "code": "E00096431", "lad": "Allerdale", "rgn_main": "North West", "population": 256, "amenities": []}, {"county": "Cumbria", "code": "E00096432", "lad": "Allerdale", "rgn_main": "North West", "population": 364, "amenities": [{"name": "N/A", "amenity": "post_box", "data_type": "node", "lat": "54.7672880", "lon": "-3.3251738", "other_tags": {"amenity": "post_box", "ref": "CA7 383"}}]}, {"county": "Cumbria", "code": "E00096433", "lad": "Allerdale", "rgn_main": "North West", "population": 340, "amenities": [{"name": "N/A", "amenity": "post_box", "data_type": "node", "lat": "54.7664004", "lon": "-3.3293687", "other_tags": {"amenity": "post_box", "ref": "CA7 178"}}, {"name": "N/A", "amenity": "toilets", "data_type": "way", "lat": "54.7664927", "lon": "-3.3293665", "other_tags": {"amenity": "toilets", "building": "yes"}}]}, {"county": "Cumbria", "code": "E00096434", "lad": "Allerdale", "rgn_main": "North West", "population": 314, "amenities": [{"name": "N/A", "amenity": "post_box", "data_type": "node", "lat": "54.7664497", "lon": "-3.3160810", "other_tags": {"amenity": "post_box", "ref": "CA7 364"}}]}, {"county": "Cumbria", "code": "E00096435", "lad": "Allerdale", "rgn_main": "North West", "population": 287, "amenities": [{"name": "Boots", "amenity": "pharmacy", "data_type": "way", "lat": "54.7630901", "lon": "-3.3351572", "other_tags": {"addr:postcode": "CA7 3HH", "addr:street": "West Street", "amenity": "pharmacy", "brand:wikidata": "Q6123139", "building": "yes", "dispensing": "yes", "name": "Boots"}}, {"name": "Rugby Club Car Park", "amenity": "parking", "data_type": "way", "lat": "54.7618884", "lon": "-3.3308222", "other_tags": {"amenity": "parking", "name": "Rugby Club Car Park"}}, {"name": "N/A", "amenity": "parking", "data_type": "way", "lat": "54.7632665", "lon": "-3.3351291", "other_tags": {"amenity": "parking"}}, {"name": "St Kentigern", "amenity": "place_of_worship", "data_type": "way", "lat": "54.7649372", "lon": "-3.3267113", "other_tags": {"amenity": "place_of_worship", "building": "yes", "denomination": "anglican", "name": "St Kentigern", "religion": "christian", "wikidata": "Q15979528", "wikipedia": "en:St. Kentigern's Church, Aspatria"}}, {"name": "N/A", "amenity": "parking", "data_type": "way", "lat": "54.7646960", "lon": "-3.3240970", "other_tags": {"amenity": "parking", "fee": "no", "park_ride": "no", "supervised": "no"}}, {"name": "Richmond Hill Primary School", "amenity": "school", "data_type": "way", "lat": "54.7664595", "lon": "-3.3226919", "other_tags": {"addr:city": "Aspatria", "addr:postcode": "CA7 3BQ", "addr:street": "Queen Street", "amenity": "school", "name": "Richmond Hill Primary School", "phone": "+44 16973 20650", "website": "http://www.richill.cumbria.sch.uk/", "wikidata": "Q65973611"}}]}, {"county": "Cumbria", "code": "E00096436", "lad": "Allerdale", "rgn_main": "North West", "population": 383, "amenities": [{"name": "N/A", "amenity": "post_box", "data_type": "node", "lat": "54.6651540", "lon": "-3.1880564", "other_tags": {"amenity": "post_box", "ref": "CA12 203", "royal_cypher": "EIIR"}}, {"name": "Castle Inn Hotel", "amenity": "pub", "data_type": "node", "lat": "54.6834558", "lon": "-3.2190910", "other_tags": {"amenity": "pub", "name": "Castle Inn Hotel"}}, {"name": "N/A", "amenity": "telephone", "data_type": "node", "lat": "54.6786279", "lon": "-3.1951010", "other_tags": {"amenity": "telephone", "booth": "KX100", "covered": "booth", "defibrillator:location": "inside phone box on the Green, Bassenthwaite", "emergency": "defibrillator", "man_made": "telephone_box"}}, {"name": "N/A", "amenity": "bench", "data_type": "node", "lat": "54.6813232", "lon": "-3.2064690", "other_tags": {"amenity": "bench", "backrest": "yes"}}, {"name": "N/A", "amenity": "post_box", "data_type": "node", "lat": "54.6831319", "lon": "-3.2194363", "other_tags": {"amenity": "post_box", "post_box:type": "lamp", "ref": "CA12 176", "royal_cypher": "EIIR"}}, {"name": "N/A", "amenity": "post_box", "data_type": "node", "lat": "54.6739331", "lon": "-3.1990789", "other_tags": {"amenity": "post_box", "collection_times": "Mo-Fr 07:00; Sa 09:00", "ref": "CA12 269", "royal_cypher": "GR", "source": "survey"}}, {"name": "N/A", "amenity": "bench", "data_type": "node", "lat": "54.6790501", "lon": "-3.1952789", "other_tags": {"amenity": "bench", "backrest": "yes"}}, {"name": "N/A", "amenity": "post_box", "data_type": "node", "lat": "54.6790834", "lon": "-3.1952481", "other_tags": {"amenity": "post_box", "collection_times": "Mo-Fr 16:15; Sa 10:15", "ref": "CA12 144", "royal_cypher": "EIIR"}}, {"name": "N/A", "amenity": "bench", "data_type": "node", "lat": "54.6833871", "lon": "-3.2182286", "other_tags": {"amenity": "bench"}}, {"name": "N/A", "amenity": "recycling", "data_type": "node", "lat": "54.6836454", "lon": "-3.2337319", "other_tags": {"amenity": "recycling"}}, {"name": "N/A", "amenity": "bench", "data_type": "node", "lat": "54.6788022", "lon": "-3.1954635", "other_tags": {"amenity": "bench", "backrest": "yes"}}, {"name": "N/A", "amenity": "bench", "data_type": "node", "lat": "54.6799623", "lon": "-3.1967738", "other_tags": {"amenity": "bench", "backrest": "yes", "material": "wood"}}, {"name": "N/A", "amenity": "bench", "data_type": "node", "lat": "54.6802162", "lon": "-3.1965428", "other_tags": {"amenity": "bench", "backrest": "yes"}}, {"name": "N/A", "amenity": "bench", "data_type": "node", "lat": "54.6801695", "lon": "-3.1959509", "other_tags": {"amenity": "bench", "backrest": "yes", "material": "metal"}}, {"name": "N/A", "amenity": "waste_basket", "data_type": "node", "lat": "54.6800692", "lon": "-3.1962275", "other_tags": {"amenity": "waste_basket", "waste": "trash"}}, {"name": "Bassenthwaite Methodist Church", "amenity": "place_of_worship", "data_type": "node", "lat": "54.6785074", "lon": "-3.1965777", "other_tags": {"addr:city": "Bassenthwaite", "addr:postcode": "CA12 4QP", "amenity": "place_of_worship", "denomination": "methodist", "name": "Bassenthwaite Methodist Church", "religion": "christian", "website": "https://www.westernfells.uk/our-churches/bassenthwaite/"}}, {"name": "N/A", "amenity": "bench", "data_type": "node", "lat": "54.6824445", "lon": "-3.2119994", "other_tags": {"amenity": "bench"}}, {"name": "N/A", "amenity": "bench", "data_type": "node", "lat": "54.6821677", "lon": "-3.2083087", "other_tags": {"amenity": "bench"}}, {"name": "N/A", "amenity": "bench", "data_type": "node", "lat": "54.6821010", "lon": "-3.2082873", "other_tags": {"amenity": "bench"}}, {"name": "N/A", "amenity": "bench", "data_type": "node", "lat": "54.6815505", "lon": "-3.2023810", "other_tags": {"amenity": "bench"}}, {"name": "N/A", "amenity": "bench", "data_type": "node", "lat": "54.6804659", "lon": "-3.1954046", "other_tags": {"amenity": "bench"}}, {"name": "N/A", "amenity": "shelter", "data_type": "node", "lat": "54.6436673", "lon": "-3.1891881", "other_tags": {"amenity": "shelter", "shelter_type": "gazebo", "wikimedia_commons": "File:Formal gardens (geograph 3012243).jpg"}}, {"name": "St Bega's Church", "amenity": "place_of_worship", "data_type": "way", "lat": "54.6479200", "lon": "-3.1999549", "other_tags": {"HE_ref": "1332957", "amenity": "place_of_worship", "building": "church", "denomination": "anglican", "heritage": "2", "heritage:operator": "Historic England", "listed_status": "Grade II*", "name": "St Bega's Church", "religion": "christian", "wikidata": "Q17541195", "wikimedia_commons": "File:The Parish Church of St Bega, Bassenthwaite - geograph.org.uk - 579715.jpg"}}, {"name": "N/A", "amenity": "grave_yard", "data_type": "way", "lat": "54.6480344", "lon": "-3.1997858", "other_tags": {"amenity": "grave_yard", "denomination": "anglican", "religion": "christian"}}, {"name": "N/A", "amenity": "parking", "data_type": "way", "lat": "54.6812467", "lon": "-3.2325909", "other_tags": {"access": "customers;delivery", "amenity": "parking", "source": "bing;survey"}}, {"name": "N/A", "amenity": "parking", "data_type": "way", "lat": "54.6813516", "lon": "-3.2316076", "other_tags": {"access": "customers;delivery", "amenity": "parking"}}, {"name": "N/A", "amenity": "shelter", "data_type": "way", "lat": "54.6805468", "lon": "-3.2360690", "other_tags": {"amenity": "shelter", "source": "survey"}}, {"name": "Lake District Wildlife Park", "amenity": "parking", "data_type": "way", "lat": "54.6829269", "lon": "-3.2300932", "other_tags": {"access": "customers", "amenity": "parking", "fee": "no", "name": "Lake District Wildlife Park", "park_ride": "no", "parking": "surface", "source": "bing;survey", "supervised": "no"}}, {"name": "N/A", "amenity": "parking", "data_type": "way", "lat": "54.6837290", "lon": "-3.2189128", "other_tags": {"amenity": "parking", "fee": "no", "park_ride": "no", "parking": "lane", "supervised": "no", "surface": "unpaved"}}, {"name": "N/A", "amenity": "parking", "data_type": "way", "lat": "54.6841714", "lon": "-3.2194035", "other_tags": {"amenity": "parking"}}, {"name": "N/A", "amenity": "parking", "data_type": "way", "lat": "54.6833579", "lon": "-3.2189169", "other_tags": {"amenity": "parking"}}, {"name": "St John's Church", "amenity": "place_of_worship", "data_type": "way", "lat": "54.6735150", "lon": "-3.1972555", "other_tags": {"amenity": "place_of_worship", "building": "yes", "denomination": "anglican", "name": "St John's Church", "religion": "christian", "wikidata": "Q105093302"}}, {"name": "N/A", "amenity": "grave_yard", "data_type": "way", "lat": "54.6738518", "lon": "-3.1974256", "other_tags": {"amenity": "grave_yard"}}, {"name": "N/A", "amenity": "parking", "data_type": "way", "lat": "54.6802908", "lon": "-3.1659281", "other_tags": {"access": "yes", "amenity": "parking", "capacity": "5", "fee": "no", "park_ride": "no", "parking": "surface", "supervised": "no", "surface": "unpaved"}}, {"name": "Sun Inn", "amenity": "pub", "data_type": "way", "lat": "54.6800092", "lon": "-3.1944254", "other_tags": {"addr:city": "Bassenthwaite", "addr:housename": "Sun Inn", "addr:postcode": "CA12 4QP", "amenity": "pub", "building": "yes", "name": "Sun Inn", "phone": "+44 17687 76439", "website": "https://whatpub.com/pubs/CUM/470/sun-inn-bassenthwaite"}}, {"name": "N/A", "amenity": "parking", "data_type": "way", "lat": "54.6798559", "lon": "-3.1943590", "other_tags": {"access": "customers", "amenity": "parking", "fee": "no", "park_ride": "no", "parking": "surface", "supervised": "no"}}, {"name": "Sun Inn Parking", "amenity": "parking", "data_type": "way", "lat": "54.6800794", "lon": "-3.1935605", "other_tags": {"access": "customers", "amenity": "parking", "fee": "no", "name": "Sun Inn Parking", "park_ride": "no", "parking": "surface", "supervised": "no"}}, {"name": "Bassenthwaite Primary School", "amenity": "school", "data_type": "way", "lat": "54.6749228", "lon": "-3.1981909", "other_tags": {"addr:city": "Bassenthwaite", "addr:postcode": "CA12 4QH", "addr:street": "School Road", "amenity": "school", "capacity": "49", "isced:level": "0;1", "max_age": "11", "min_age": "3", "name": "Bassenthwaite Primary School", "phone": "+44 17687 76365", "ref:GB:uprn": "10008820597", "ref:edubase": "145326", "ref:edubase:group": "16556", "religion": "none", "school:boarding": "no", "school:gender": "mixed", "school:selective": "no", "school:trust": "yes", "school:trust:name": "Keswick School Multi Academy Trust", "school:trust:type": "multi_academy", "school:type": "academy", "wikidata": "Q65973902"}}, {"name": "N/A", "amenity": "parking", "data_type": "way", "lat": "54.6572182", "lon": "-3.1869500", "other_tags": {"access": "customers", "amenity": "parking", "fee": "no", "park_ride": "no", "parking": "surface", "supervised": "no"}}, {"name": "N/A", "amenity": "parking", "data_type": "way", "lat": "54.6566648", "lon": "-3.1865679", "other_tags": {"access": "customers", "amenity": "parking", "fee": "no", "park_ride": "no", "parking": "surface", "supervised": "no"}}, {"name": "N/A", "amenity": "parking", "data_type": "way", "lat": "54.6523866", "lon": "-3.1876469", "other_tags": {"access": "permissive", "amenity": "parking", "fee": "no", "park_ride": "no", "parking": "surface", "supervised": "no", "surface": "unpaved"}}, {"name": "N/A", "amenity": "parking", "data_type": "way", "lat": "54.6682646", "lon": "-3.1859968", "other_tags": {"access": "yes", "amenity": "parking", "capacity": "7", "fee": "no", "park_ride": "no", "parking": "lane", "supervised": "no", "surface": "unpaved"}}, {"name": "N/A", "amenity": "parking", "data_type": "way", "lat": "54.6762456", "lon": "-3.1753262", "other_tags": {"access": "customers", "amenity": "parking"}}, {"name": "N/A", "amenity": "parking", "data_type": "way", "lat": "54.6550567", "lon": "-3.1869643", "other_tags": {"access": "yes", "amenity": "parking", "capacity": "5", "fee": "no", "park_ride": "no", "parking": "lane", "supervised": "no", "surface": "asphalt"}}, {"name": "N/A", "amenity": "parking", "data_type": "way", "lat": "54.6785550", "lon": "-3.2357346", "other_tags": {"access": "yes", "amenity": "parking", "fee": "no", "parking": "lane", "surface": "asphalt"}}, {"name": "N/A", "amenity": "toilets", "data_type": "way", "lat": "54.6744083", "lon": "-3.2053171", "other_tags": {"amenity": "toilets", "building": "yes", "description": "WC & Shower Block"}}, {"name": "N/A", "amenity": "parking", "data_type": "way", "lat": "54.6809373", "lon": "-3.1647048", "other_tags": {"access": "yes", "amenity": "parking", "capacity": "4", "fee": "no", "parking": "surface", "surface": "unpaved"}}]}, {"county": "Cumbria", "code": "E00096437", "lad": "Allerdale", "rgn_main": "North West", "population": 299, "amenities": [{"name": "N/A", "amenity": "bench", "data_type": "node", "lat": "54.7872550", "lon": "-3.1884561", "other_tags": {"amenity": "bench", "backrest": "yes"}}, {"name": "N/A", "amenity": "grit_bin", "data_type": "node", "lat": "54.7873048", "lon": "-3.1885085", "other_tags": {"amenity": "grit_bin"}}, {"name": "N/A", "amenity": "post_box", "data_type": "node", "lat": "54.7867085", "lon": "-3.1907655", "other_tags": {"amenity": "post_box", "ref": "CA7 355"}}, {"name": "N/A", "amenity": "post_box", "data_type": "node", "lat": "54.7822572", "lon": "-3.2006000", "other_tags": {"amenity": "post_box", "ref": "CA7 106"}}, {"name": "N/A", "amenity": "post_box", "data_type": "node", "lat": "54.7675900", "lon": "-3.2312002", "other_tags": {"amenity": "post_box", "ref": "CA7 447"}}, {"name": "N/A", "amenity": "parking", "data_type": "node", "lat": "54.7754584", "lon": "-3.2131776", "other_tags": {"access": "yes", "amenity": "parking", "fee": "no", "parking": "lane", "supervised": "no", "surface": "asphalt"}}, {"name": "The Odfellows Arms", "amenity": "pub", "data_type": "way", "lat": "54.7886523", "lon": "-3.1865126", "other_tags": {"addr:city": "Bolton Low Houses", "addr:postcode": "CA7 8PA", "addr:street": "Howgill Close", "amenity": "pub", "building": "yes", "name": "The Odfellows Arms", "phone": "+44 16973 44452", "website": "https://www.theoddfellowsarmspub.com/"}}, {"name": "N/A", "amenity": "parking", "data_type": "way", "lat": "54.7887754", "lon": "-3.1863788", "other_tags": {"access": "customers", "amenity": "parking", "fee": "no", "park_ride": "no", "parking": "surface", "supervised": "no"}}, {"name": "Boltons Church Of England School", "amenity": "school", "data_type": "way", "lat": "54.7864700", "lon": "-3.1846863", "other_tags": {"addr:city": "Bolton Low Houses", "addr:postcode": "CA7 8PA", "amenity": "school", "name": "Boltons Church Of England School", "phone": "+44 16973 42217", "ref:edubase": "112245", "website": "https://boltons.cumbria.sch.uk/", "wikidata": "Q65973700"}}, {"name": "N/A", "amenity": "parking", "data_type": "way", "lat": "54.7694413", "lon": "-3.2266773", "other_tags": {"access": "customers", "amenity": "parking", "fee": "no", "park_ride": "no", "parking": "surface", "surface": "asphalt"}}]}, {"county": "Cumbria", "code": "E00096438", "lad": "Allerdale", "rgn_main": "North West", "population": 310, "amenities": [{"name": "N/A", "amenity": "post_box", "data_type": "node", "lat": "54.7563327", "lon": "-3.1993543", "other_tags": {"amenity": "post_box", "post_box:type": "lamp", "ref": "CA7 181", "source": "survey"}}, {"name": "N/A", "amenity": "bench", "data_type": "node", "lat": "54.7563062", "lon": "-3.1993490", "other_tags": {"amenity": "bench"}}, {"name": "N/A", "amenity": "grit_bin", "data_type": "node", "lat": "54.7563062", "lon": "-3.1991844", "other_tags": {"amenity": "grit_bin"}}, {"name": "N/A", "amenity": "post_box", "data_type": "node", "lat": "54.7518535", "lon": "-3.1701714", "other_tags": {"amenity": "post_box", "ref": "CA7 384"}}, {"name": "N/A", "amenity": "post_box", "data_type": "node", "lat": "54.7877425", "lon": "-3.1690561", "other_tags": {"amenity": "post_box", "ref": "CA7 220"}}, {"name": "Boltongate Church", "amenity": "place_of_worship", "data_type": "way", "lat": "54.7559954", "lon": "-3.1983849", "other_tags": {"amenity": "place_of_worship", "building": "yes", "denomination": "anglican", "name": "Boltongate Church", "religion": "christian", "wikidata": "Q4729449", "wikipedia": "en:All Saints Church, Boltongate"}}, {"name": "N/A", "amenity": "grave_yard", "data_type": "way", "lat": "54.7563869", "lon": "-3.1983357", "other_tags": {"amenity": "grave_yard"}}, {"name": "N/A", "amenity": "parking", "data_type": "way", "lat": "54.7563950", "lon": "-3.1992605", "other_tags": {"access": "permissive", "amenity": "parking", "capacity": "8", "fee": "no", "park_ride": "no", "parking": "surface", "supervised": "no"}}]}, {"county": "Cumbria", "code": "E00096439", "lad": "Allerdale", "rgn_main": "North West", "population": 223, "amenities": [{"name": "N/A", "amenity": "post_box", "data_type": "node", "lat": "54.7198041", "lon": "-3.1860035", "other_tags": {"amenity": "post_box", "ref": "CA7 317"}}, {"name": "N/A", "amenity": "post_box", "data_type": "node", "lat": "54.7212192", "lon": "-3.1663660", "other_tags": {"amenity": "post_box", "ref": "CA7 429"}}, {"name": "N/A", "amenity": "grit_bin", "data_type": "node", "lat": "54.7219629", "lon": "-3.1669440", "other_tags": {"amenity": "grit_bin"}}, {"name": "N/A", "amenity": "grit_bin", "data_type": "node", "lat": "54.7214360", "lon": "-3.1666649", "other_tags": {"amenity": "grit_bin"}}, {"name": "N/A", "amenity": "bench", "data_type": "node", "lat": "54.7217597", "lon": "-3.1668420", "other_tags": {"amenity": "bench"}}, {"name": "N/A", "amenity": "post_box", "data_type": "node", "lat": "54.7330419", "lon": "-3.2118986", "other_tags": {"amenity": "post_box", "ref": "CA7 219"}}, {"name": "N/A", "amenity": "post_box", "data_type": "node", "lat": "54.7238521", "lon": "-3.1956708", "other_tags": {"amenity": "post_box", "ref": "CA7 224"}}, {"name": "N/A", "amenity": "hunting_stand", "data_type": "node", "lat": "54.7293391", "lon": "-3.1433178", "other_tags": {"abandoned": "yes", "amenity": "hunting_stand", "hunting_stand": "grouse_butt"}}, {"name": "N/A", "amenity": "hunting_stand", "data_type": "node", "lat": "54.7296152", "lon": "-3.1425420", "other_tags": {"abandoned": "yes", "amenity": "hunting_stand", "hunting_stand": "grouse_butt"}}, {"name": "N/A", "amenity": "hunting_stand", "data_type": "node", "lat": "54.7290495", "lon": "-3.1440400", "other_tags": {"abandoned": "yes", "amenity": "hunting_stand", "hunting_stand": "grouse_butt"}}, {"name": "N/A", "amenity": "hunting_stand", "data_type": "node", "lat": "54.7284964", "lon": "-3.1455372", "other_tags": {"abandoned": "yes", "amenity": "hunting_stand", "hunting_stand": "grouse_butt"}}, {"name": "N/A", "amenity": "hunting_stand", "data_type": "node", "lat": "54.7287962", "lon": "-3.1447171", "other_tags": {"abandoned": "yes", "amenity": "hunting_stand", "hunting_stand": "grouse_butt"}}, {"name": "N/A", "amenity": "hunting_stand", "data_type": "node", "lat": "54.7281965", "lon": "-3.1462905", "other_tags": {"abandoned": "yes", "amenity": "hunting_stand", "hunting_stand": "grouse_butt"}}, {"name": "N/A", "amenity": "telephone", "data_type": "node", "lat": "54.7019360", "lon": "-3.2283877", "other_tags": {"amenity": "telephone", "booth": "K6", "covered": "booth"}}, {"name": "N/A", "amenity": "post_box", "data_type": "node", "lat": "54.7014866", "lon": "-3.2254480", "other_tags": {"amenity": "post_box", "post_box:type": "lamp", "royal_cypher": "EIIR"}}, {"name": "N/A", "amenity": "charging_station", "data_type": "node", "lat": "54.7205284", "lon": "-3.1655181", "other_tags": {"access": "customers", "amenity": "charging_station", "bicycle": "yes", "fee": "yes", "motorcar": "no", "operator": "Mae's Tea Rooms and Gallery", "website": "https://www.visitlakedistrict.com/explore/travel/electric-bike-charging-points-in-the-lake-district-cumbria"}}, {"name": "Mae's Tea Rooms and Gallery", "amenity": "restaurant", "data_type": "way", "lat": "54.7205945", "lon": "-3.1654357", "other_tags": {"addr:city": "Uldale", "addr:housename": "Old School", "addr:postcode": "CA7 1HA", "amenity": "restaurant", "building": "yes", "name": "Mae's Tea Rooms and Gallery", "phone": "+44 16973 71369", "website": "http://www.maestearooms.co.uk/"}}, {"name": "Snooty Fox", "amenity": "pub", "data_type": "way", "lat": "54.7223381", "lon": "-3.1658696", "other_tags": {"addr:city": "Uldale", "amenity": "pub", "building": "yes", "name": "Snooty Fox", "phone": "+44 16973 71479", "website": "https://www.snootyfoxuldale.co.uk/"}}, {"name": "N/A", "amenity": "parking", "data_type": "way", "lat": "54.7225675", "lon": "-3.1658306", "other_tags": {"access": "customers", "amenity": "parking", "capacity": "40", "fee": "no", "park_ride": "no", "parking": "surface", "supervised": "no"}}, {"name": "N/A", "amenity": "parking", "data_type": "way", "lat": "54.7206345", "lon": "-3.1653866", "other_tags": {"access": "customers", "amenity": "parking", "capacity": "30", "fee": "no", "park_ride": "no", "parking": "surface"}}, {"name": "N/A", "amenity": "parking", "data_type": "way", "lat": "54.7076511", "lon": "-3.1571165", "other_tags": {"amenity": "parking", "fee": "no", "park_ride": "no", "parking": "lane", "supervised": "no", "surface": "unpaved"}}, {"name": "N/A", "amenity": "parking", "data_type": "way", "lat": "54.7265767", "lon": "-3.1456394", "other_tags": {"amenity": "parking", "fee": "no", "park_ride": "no", "parking": "lane", "supervised": "no", "surface": "unpaved"}}, {"name": "N/A", "amenity": "parking", "data_type": "way", "lat": "54.7050807", "lon": "-3.1879320", "other_tags": {"access": "yes", "amenity": "parking", "capacity": "3", "fee": "no", "parking": "lane", "surface": "unpaved"}}, {"name": "N/A", "amenity": "parking", "data_type": "way", "lat": "54.7175301", "lon": "-3.2386153", "other_tags": {"access": "yes", "amenity": "parking", "fee": "no", "parking": "lane", "surface": "ground"}}, {"name": "N/A", "amenity": "parking", "data_type": "way", "lat": "54.7122303", "lon": "-3.1412533", "other_tags": {"access": "yes", "amenity": "parking", "fee": "no", "parking": "lane", "surface": "ground"}}, {"name": "N/A", "amenity": "parking", "data_type": "way", "lat": "54.7097071", "lon": "-3.2423433", "other_tags": {"amenity": "parking"}}, {"name": "N/A", "amenity": "parking", "data_type": "way", "lat": "54.7095494", "lon": "-3.2421296", "other_tags": {"amenity": "parking", "capacity": "2"}}, {"name": "N/A", "amenity": "parking", "data_type": "way", "lat": "54.7091780", "lon": "-3.2417325", "other_tags": {"amenity": "parking"}}, {"name": "N/A", "amenity": "parking", "data_type": "way", "lat": "54.7091425", "lon": "-3.2419137", "other_tags": {"amenity": "parking", "capacity": "2"}}, {"name": "N/A", "amenity": "parking", "data_type": "way", "lat": "54.7092540", "lon": "-3.2422443", "other_tags": {"amenity": "parking"}}, {"name": "N/A", "amenity": "parking", "data_type": "way", "lat": "54.7094023", "lon": "-3.2425991", "other_tags": {"amenity": "parking"}}, {"name": "N/A", "amenity": "parking", "data_type": "way", "lat": "54.7093293", "lon": "-3.2421734", "other_tags": {"amenity": "parking"}}, {"name": "N/A", "amenity": "parking", "data_type": "way", "lat": "54.7094135", "lon": "-3.2412573", "other_tags": {"amenity": "parking"}}, {"name": "N/A", "amenity": "parking", "data_type": "way", "lat": "54.7092784", "lon": "-3.2412859", "other_tags": {"amenity": "parking"}}, {"name": "N/A", "amenity": "parking", "data_type": "way", "lat": "54.7093352", "lon": "-3.2409457", "other_tags": {"amenity": "parking"}}, {"name": "N/A", "amenity": "parking", "data_type": "way", "lat": "54.7099107", "lon": "-3.2399664", "other_tags": {"amenity": "parking"}}, {"name": "N/A", "amenity": "parking", "data_type": "way", "lat": "54.7099724", "lon": "-3.2399439", "other_tags": {"amenity": "parking"}}, {"name": "N/A", "amenity": "parking", "data_type": "way", "lat": "54.7099268", "lon": "-3.2400687", "other_tags": {"amenity": "parking"}}, {"name": "N/A", "amenity": "parking", "data_type": "way", "lat": "54.7096969", "lon": "-3.2407750", "other_tags": {"amenity": "parking"}}, {"name": "N/A", "amenity": "parking", "data_type": "way", "lat": "54.7099334", "lon": "-3.2419558", "other_tags": {"amenity": "parking"}}, {"name": "N/A", "amenity": "parking", "data_type": "way", "lat": "54.7098912", "lon": "-3.2417261", "other_tags": {"amenity": "parking"}}, {"name": "N/A", "amenity": "parking", "data_type": "way", "lat": "54.7098664", "lon": "-3.2414778", "other_tags": {"amenity": "parking"}}, {"name": "N/A", "amenity": "parking", "data_type": "way", "lat": "54.7098551", "lon": "-3.2413154", "other_tags": {"amenity": "parking"}}, {"name": "N/A", "amenity": "parking", "data_type": "way", "lat": "54.7098443", "lon": "-3.2409689", "other_tags": {"amenity": "parking"}}, {"name": "N/A", "amenity": "parking", "data_type": "way", "lat": "54.7094523", "lon": "-3.2403332", "other_tags": {"amenity": "parking"}}, {"name": "N/A", "amenity": "parking", "data_type": "way", "lat": "54.7095596", "lon": "-3.2400691", "other_tags": {"amenity": "parking"}}, {"name": "N/A", "amenity": "parking", "data_type": "way", "lat": "54.7097013", "lon": "-3.2397019", "other_tags": {"amenity": "parking"}}, {"name": "N/A", "amenity": "parking", "data_type": "way", "lat": "54.7098511", "lon": "-3.2392438", "other_tags": {"amenity": "parking"}}, {"name": "N/A", "amenity": "parking", "data_type": "way", "lat": "54.7097534", "lon": "-3.2380162", "other_tags": {"amenity": "parking"}}, {"name": "N/A", "amenity": "parking", "data_type": "way", "lat": "54.7093648", "lon": "-3.2368769", "other_tags": {"amenity": "parking"}}, {"name": "N/A", "amenity": "parking", "data_type": "way", "lat": "54.7093450", "lon": "-3.2377016", "other_tags": {"amenity": "parking"}}, {"name": "N/A", "amenity": "parking", "data_type": "way", "lat": "54.7094516", "lon": "-3.2382505", "other_tags": {"amenity": "parking"}}, {"name": "N/A", "amenity": "parking", "data_type": "way", "lat": "54.7094581", "lon": "-3.2391356", "other_tags": {"amenity": "parking"}}, {"name": "N/A", "amenity": "parking", "data_type": "way", "lat": "54.7093367", "lon": "-3.2393494", "other_tags": {"amenity": "parking"}}, {"name": "N/A", "amenity": "parking", "data_type": "way", "lat": "54.7088696", "lon": "-3.2406651", "other_tags": {"amenity": "parking"}}, {"name": "N/A", "amenity": "parking", "data_type": "way", "lat": "54.7088451", "lon": "-3.2404360", "other_tags": {"amenity": "parking"}}, {"name": "N/A", "amenity": "parking", "data_type": "way", "lat": "54.7086255", "lon": "-3.2395287", "other_tags": {"amenity": "parking"}}, {"name": "N/A", "amenity": "parking", "data_type": "way", "lat": "54.7085309", "lon": "-3.2400075", "other_tags": {"amenity": "parking"}}, {"name": "N/A", "amenity": "parking", "data_type": "way", "lat": "54.7089217", "lon": "-3.2409154", "other_tags": {"amenity": "parking"}}, {"name": "N/A", "amenity": "parking", "data_type": "way", "lat": "54.7088271", "lon": "-3.2417040", "other_tags": {"amenity": "parking"}}, {"name": "N/A", "amenity": "parking", "data_type": "way", "lat": "54.7088330", "lon": "-3.2426169", "other_tags": {"amenity": "parking"}}, {"name": "N/A", "amenity": "parking", "data_type": "way", "lat": "54.7087236", "lon": "-3.2430613", "other_tags": {"amenity": "parking"}}, {"name": "N/A", "amenity": "parking", "data_type": "way", "lat": "54.7086783", "lon": "-3.2434953", "other_tags": {"amenity": "parking"}}, {"name": "N/A", "amenity": "parking", "data_type": "way", "lat": "54.7082365", "lon": "-3.2440207", "other_tags": {"amenity": "parking"}}, {"name": "N/A", "amenity": "parking", "data_type": "way", "lat": "54.7089704", "lon": "-3.2438076", "other_tags": {"amenity": "parking"}}, {"name": "N/A", "amenity": "parking", "data_type": "way", "lat": "54.7090819", "lon": "-3.2437350", "other_tags": {"amenity": "parking"}}, {"name": "N/A", "amenity": "parking", "data_type": "way", "lat": "54.7094291", "lon": "-3.2433211", "other_tags": {"amenity": "parking"}}, {"name": "N/A", "amenity": "parking", "data_type": "way", "lat": "54.7096346", "lon": "-3.2431595", "other_tags": {"amenity": "parking"}}, {"name": "N/A", "amenity": "parking", "data_type": "way", "lat": "54.7092452", "lon": "-3.2362504", "other_tags": {"amenity": "parking"}}, {"name": "N/A", "amenity": "parking", "data_type": "way", "lat": "54.7088969", "lon": "-3.2359002", "other_tags": {"amenity": "parking"}}, {"name": "N/A", "amenity": "parking", "data_type": "way", "lat": "54.7094742", "lon": "-3.2347703", "other_tags": {"amenity": "parking"}}, {"name": "N/A", "amenity": "parking", "data_type": "way", "lat": "54.7095152", "lon": "-3.2353947", "other_tags": {"amenity": "parking"}}, {"name": "N/A", "amenity": "parking", "data_type": "way", "lat": "54.7095501", "lon": "-3.2357258", "other_tags": {"amenity": "parking"}}, {"name": "N/A", "amenity": "parking", "data_type": "way", "lat": "54.7096900", "lon": "-3.2367205", "other_tags": {"amenity": "parking"}}, {"name": "N/A", "amenity": "parking", "data_type": "way", "lat": "54.7158872", "lon": "-3.2432179", "other_tags": {"access": "yes", "amenity": "parking", "fee": "no", "parking": "lane", "source": "survey"}}, {"name": "N/A", "amenity": "parking", "data_type": "way", "lat": "54.7159899", "lon": "-3.2407919", "other_tags": {"access": "yes", "amenity": "parking", "fee": "no", "parking": "lane", "source": "Bing", "surface": "asphalt"}}]}, {"county": "Cumbria", "code": "E00096440", "lad": "Allerdale", "rgn_main": "North West", "population": 234, "amenities": [{"name": "N/A", "amenity": "post_box", "data_type": "node", "lat": "54.7401082", "lon": "-3.1841409", "other_tags": {"amenity": "post_box", "post_box:type": "lamp", "ref": "CA7 69", "royal_cypher": "EIIR"}}, {"name": "N/A", "amenity": "bench", "data_type": "node", "lat": "54.7401684", "lon": "-3.1841374", "other_tags": {"amenity": "bench"}}, {"name": "N/A", "amenity": "grit_bin", "data_type": "node", "lat": "54.7402501", "lon": "-3.1840125", "other_tags": {"amenity": "grit_bin"}}, {"name": "N/A", "amenity": "post_box", "data_type": "node", "lat": "54.7381478", "lon": "-3.1843428", "other_tags": {"amenity": "post_box", "post_box:type": "lamp", "ref": "CA7 272", "royal_cypher": "EIIR"}}, {"name": "N/A", "amenity": "grit_bin", "data_type": "node", "lat": "54.7232198", "lon": "-3.1951924", "other_tags": {"amenity": "grit_bin"}}, {"name": "Globe Hall", "amenity": "community_centre", "data_type": "node", "lat": "54.7378809", "lon": "-3.1843675", "other_tags": {"addr:city": "Ireby", "addr:postcode": "CA7 1EA", "addr:street": "The Square", "amenity": "community_centre", "name": "Globe Hall"}}, {"name": "N/A", "amenity": "grit_bin", "data_type": "node", "lat": "54.7378594", "lon": "-3.1852926", "other_tags": {"amenity": "grit_bin"}}, {"name": "N/A", "amenity": "bench", "data_type": "node", "lat": "54.7382000", "lon": "-3.1843681", "other_tags": {"amenity": "bench"}}, {"name": "N/A", "amenity": "grave_yard", "data_type": "way", "lat": "54.7419820", "lon": "-3.1848470", "other_tags": {"amenity": "grave_yard"}}, {"name": "The Lion", "amenity": "pub", "data_type": "way", "lat": "54.7380036", "lon": "-3.1847647", "other_tags": {"addr:city": "Ireby", "addr:postcode": "CA7 1EA", "addr:street": "The Street", "amenity": "pub", "building": "yes", "contact:facebook": "https://www.facebook.com/emilysblacklion.ireby", "name": "The Lion"}}, {"name": "St James", "amenity": "place_of_worship", "data_type": "way", "lat": "54.7420430", "lon": "-3.1854912", "other_tags": {"amenity": "place_of_worship", "building": "yes", "denomination": "anglican", "name": "St James", "religion": "christian", "wikidata": "Q105093308"}}, {"name": "Ireby CofE School", "amenity": "school", "data_type": "way", "lat": "54.7386377", "lon": "-3.1855579", "other_tags": {"addr:city": "Ireby", "addr:postcode": "CA7 1DS", "amenity": "school", "name": "Ireby CofE School", "phone": "+44 16973 71367", "ref:edubase": "112251", "website": "https://www.irebycofeschool.co.uk/", "wikidata": "Q65973706"}}, {"name": "St James", "amenity": "place_of_worship", "data_type": "way", "lat": "54.7305265", "lon": "-3.1813772", "other_tags": {"amenity": "place_of_worship", "building": "yes", "denomination": "anglican", "name": "St James", "religion": "christian", "wikidata": "Q26612622"}}, {"name": "N/A", "amenity": "grave_yard", "data_type": "way", "lat": "54.7310600", "lon": "-3.1812125", "other_tags": {"amenity": "grave_yard"}}, {"name": "N/A", "amenity": "grave_yard", "data_type": "way", "lat": "54.7428052", "lon": "-3.2067038", "other_tags": {"amenity": "grave_yard"}}, {"name": "Ireby Old Church", "amenity": "place_of_worship", "data_type": "way", "lat": "54.7427141", "lon": "-3.2069775", "other_tags": {"amenity": "place_of_worship", "building": "church", "name": "Ireby Old Church", "religion": "christian", "wikidata": "Q6068431", "wikipedia": "en:Ireby Old Church"}}]}, {"county": "Cumbria", "code": "E00096441", "lad": "Allerdale", "rgn_main": "North West", "population": 362, "amenities": [{"name": "N/A", "amenity": "post_box", "data_type": "node", "lat": "54.6427657", "lon": "-3.1870053", "other_tags": {"amenity": "post_box", "collection_times": "Mo-Fr 16:00; Sa 10:45", "flickr": "https://www.flickr.com/photos/58415659@N00/34144769126", "ref": "CA12 142", "royal_cypher": "EIIR"}}, {"name": "N/A", "amenity": "parking", "data_type": "node", "lat": "54.6101497", "lon": "-3.1448128", "other_tags": {"amenity": "parking", "parking": "street_side"}}, {"name": "N/A", "amenity": "parking", "data_type": "node", "lat": "54.6088137", "lon": "-3.1577330", "other_tags": {"amenity": "parking", "parking": "street_side"}}, {"name": "N/A", "amenity": "telephone", "data_type": "node", "lat": "54.6202553", "lon": "-3.1412636", "other_tags": {"amenity": "telephone", "booth": "KX100", "covered": "booth", "operator": "BT", "source": "survey"}}, {"name": "N/A", "amenity": "post_box", "data_type": "node", "lat": "54.6246224", "lon": "-3.1537081", "other_tags": {"amenity": "post_box", "operator": "Royal Mail", "operator:wikidata": "Q638098", "post_box:type": "wall", "ref": "CA12 123", "royal_cypher": "GR", "source": "survey"}}, {"name": "N/A", "amenity": "post_box", "data_type": "node", "lat": "54.6277552", "lon": "-3.1719657", "other_tags": {"amenity": "post_box", "operator": "Royal Mail", "post_box:type": "lamp", "ref": "CA12 200", "royal_cypher": "EIIR", "source": "GPS Survey"}}, {"name": "N/A", "amenity": "bench", "data_type": "node", "lat": "54.6427339", "lon": "-3.1870804", "other_tags": {"amenity": "bench", "backrest": "yes", "flickr": "https://www.flickr.com/photos/58415659@N00/34144769126"}}, {"name": "N/A", "amenity": "bench", "data_type": "node", "lat": "54.6222140", "lon": "-3.1580490", "other_tags": {"amenity": "bench"}}, {"name": "N/A", "amenity": "grit_bin", "data_type": "node", "lat": "54.6247187", "lon": "-3.1538605", "other_tags": {"amenity": "grit_bin"}}, {"name": "N/A", "amenity": "grit_bin", "data_type": "node", "lat": "54.6210280", "lon": "-3.1390308", "other_tags": {"amenity": "grit_bin"}}, {"name": "N/A", "amenity": "post_box", "data_type": "node", "lat": "54.6128561", "lon": "-3.1453379", "other_tags": {"amenity": "post_box", "collection_times": "Mo-Fr 09:00; Sa 07:00", "drive_through": "no", "operator": "Royal Mail", "post_box:type": "lamp", "ref": "CA12 7", "royal_cypher": "EIIR"}}, {"name": "N/A", "amenity": "grit_bin", "data_type": "node", "lat": "54.6064772", "lon": "-3.1221438", "other_tags": {"amenity": "grit_bin"}}, {"name": "N/A", "amenity": "bench", "data_type": "node", "lat": "54.6089472", "lon": "-3.1045070", "other_tags": {"amenity": "bench", "material": "wood", "seats": "3"}}, {"name": "N/A", "amenity": "bench", "data_type": "node", "lat": "54.6260128", "lon": "-3.1566496", "other_tags": {"amenity": "bench", "source": "GPS Survey"}}, {"name": "N/A", "amenity": "bench", "data_type": "node", "lat": "54.6277805", "lon": "-3.1717290", "other_tags": {"amenity": "bench", "source": "GPS Survey"}}, {"name": "N/A", "amenity": "grit_bin", "data_type": "node", "lat": "54.6206138", "lon": "-3.1368246", "other_tags": {"amenity": "grit_bin"}}, {"name": "N/A", "amenity": "bench", "data_type": "node", "lat": "54.6208417", "lon": "-3.1377645", "other_tags": {"amenity": "bench", "source": "GPS Survey"}}, {"name": "N/A", "amenity": "bench", "data_type": "node", "lat": "54.6221564", "lon": "-3.1472109", "other_tags": {"amenity": "bench", "source": "GPS Survey"}}, {"name": "N/A", "amenity": "bench", "data_type": "node", "lat": "54.6127940", "lon": "-3.1456150", "other_tags": {"amenity": "bench"}}, {"name": "N/A", "amenity": "bench", "data_type": "node", "lat": "54.6114806", "lon": "-3.1218683", "other_tags": {"amenity": "bench", "backrest": "yes"}}, {"name": "N/A", "amenity": "bench", "data_type": "node", "lat": "54.6375039", "lon": "-3.1810610", "other_tags": {"amenity": "bench"}}, {"name": "N/A", "amenity": "bench", "data_type": "node", "lat": "54.6367899", "lon": "-3.1804889", "other_tags": {"amenity": "bench"}}, {"name": "N/A", "amenity": "bench", "data_type": "node", "lat": "54.6234100", "lon": "-3.1521806", "other_tags": {"amenity": "bench"}}, {"name": "N/A", "amenity": "bench", "data_type": "node", "lat": "54.6334618", "lon": "-3.1682682", "other_tags": {"amenity": "bench"}}, {"name": "N/A", "amenity": "bench", "data_type": "node", "lat": "54.6352347", "lon": "-3.1636159", "other_tags": {"amenity": "bench"}}, {"name": "N/A", "amenity": "post_box", "data_type": "node", "lat": "54.6199632", "lon": "-3.1414915", "other_tags": {"amenity": "post_box", "operator": "Royal Mail", "post_box:type": "wall", "ref": "CA12 149", "royal_cypher": "EIIR"}}, {"name": "N/A", "amenity": "bench", "data_type": "node", "lat": "54.6131887", "lon": "-3.0905567", "other_tags": {"amenity": "bench", "material": "wood", "seats": "4"}}, {"name": "N/A", "amenity": "bench", "data_type": "node", "lat": "54.6129169", "lon": "-3.0877543", "other_tags": {"amenity": "bench", "material": "wood", "seats": "3"}}, {"name": "N/A", "amenity": "bench", "data_type": "node", "lat": "54.6127847", "lon": "-3.0958998", "other_tags": {"amenity": "bench", "backrest": "yes", "material": "wood", "seats": "3"}}, {"name": "N/A", "amenity": "bench", "data_type": "node", "lat": "54.6129302", "lon": "-3.0877288", "other_tags": {"amenity": "bench", "material": "wood", "seats": "3"}}, {"name": "N/A", "amenity": "parking", "data_type": "way", "lat": "54.6183965", "lon": "-3.1155973", "other_tags": {"access": "yes", "amenity": "parking", "capacity": "40", "fee": "no", "parking": "surface", "surface": "ground"}}, {"name": "N/A", "amenity": "grave_yard", "data_type": "way", "lat": "54.6096746", "lon": "-3.1528254", "other_tags": {"amenity": "grave_yard", "religion": "christian"}}, {"name": "Dodd Wood car park", "amenity": "parking", "data_type": "way", "lat": "54.6417334", "lon": "-3.1873069", "other_tags": {"access": "yes", "amenity": "parking", "capacity": "100", "fee": "yes", "name": "Dodd Wood car park", "operator": "Forestry England", "park_ride": "no", "parking": "surface", "supervised": "no", "surface": "unpaved", "website": "https://www.forestryengland.uk/dodd-wood"}}, {"name": "N/A", "amenity": "toilets", "data_type": "way", "lat": "54.6428545", "lon": "-3.1864821", "other_tags": {"access": "yes", "amenity": "toilets", "building": "yes", "fee": "no", "female": "yes", "image": "https://www.geograph.org.uk/photo/5089507", "male": "yes", "toilets:disposal": "flush"}}, {"name": "The Old Sawmill Tearoom", "amenity": "cafe", "data_type": "way", "lat": "54.6429803", "lon": "-3.1865279", "other_tags": {"amenity": "cafe", "building": "yes", "image": "https://www.geograph.org.uk/photo/5110971", "name": "The Old Sawmill Tearoom", "phone": "+44 17687 74317", "website": "https://theoldsawmill.co.uk/"}}, {"name": "N/A", "amenity": "parking", "data_type": "way", "lat": "54.6380984", "lon": "-3.1877428", "other_tags": {"access": "customers", "amenity": "parking", "fee": "no", "park_ride": "no", "parking": "surface", "supervised": "no"}}, {"name": "N/A", "amenity": "parking", "data_type": "way", "lat": "54.6378532", "lon": "-3.1875604", "other_tags": {"access": "customers", "amenity": "parking", "fee": "no", "park_ride": "no", "parking": "surface", "supervised": "no"}}, {"name": "N/A", "amenity": "parking", "data_type": "way", "lat": "54.6236381", "lon": "-3.1622844", "other_tags": {"access": "customers", "amenity": "parking", "fee": "no", "park_ride": "no", "parking": "surface", "supervised": "no"}}, {"name": "Village Hall", "amenity": "townhall", "data_type": "way", "lat": "54.6248687", "lon": "-3.1535625", "other_tags": {"amenity": "townhall", "building": "public", "name": "Village Hall", "roof:shape": "hipped", "wikidata": "Q26437525"}}, {"name": "N/A", "amenity": "parking", "data_type": "way", "lat": "54.6249078", "lon": "-3.1538080", "other_tags": {"amenity": "parking", "fee": "no", "park_ride": "no", "parking": "surface", "supervised": "no"}}, {"name": "N/A", "amenity": "parking", "data_type": "way", "lat": "54.6209059", "lon": "-3.1303482", "other_tags": {"amenity": "parking"}}, {"name": "N/A", "amenity": "parking", "data_type": "way", "lat": "54.6210431", "lon": "-3.1317576", "other_tags": {"amenity": "parking"}}, {"name": "N/A", "amenity": "shelter", "data_type": "way", "lat": "54.6129274", "lon": "-3.0877388", "other_tags": {"amenity": "shelter", "building": "yes"}}, {"name": "Underskiddaw Parish Room", "amenity": "place_of_worship", "data_type": "way", "lat": "54.6221691", "lon": "-3.1471115", "other_tags": {"amenity": "place_of_worship", "building": "yes", "contact:website": "http://underskiddawparishcouncil.co.uk/church-room/", "denomination": "anglican", "name": "Underskiddaw Parish Room", "note": "Part of Crosthwaite Church in Keswick", "religion": "christian", "source": "GPS Survey", "wikidata": "Q105093305"}}, {"name": "N/A", "amenity": "parking", "data_type": "way", "lat": "54.6344684", "lon": "-3.1836371", "other_tags": {"amenity": "parking", "fee": "no", "park_ride": "no", "parking": "lane", "supervised": "no", "surface": "unpaved"}}, {"name": "N/A", "amenity": "parking", "data_type": "way", "lat": "54.6255009", "lon": "-3.1645840", "other_tags": {"access": "customers", "amenity": "parking", "fee": "no", "park_ride": "no", "parking": "surface", "supervised": "no", "surface": "asphalt"}}, {"name": "N/A", "amenity": "parking", "data_type": "way", "lat": "54.6134274", "lon": "-3.0874882", "other_tags": {"amenity": "parking"}}, {"name": "N/A", "amenity": "parking", "data_type": "way", "lat": "54.6210564", "lon": "-3.1306487", "other_tags": {"amenity": "parking"}}]}, {"county": "Cumbria", "code": "E00096442", "lad": "Allerdale", "rgn_main": "North West", "population": 383, "amenities": [{"name": "N/A", "amenity": "grit_bin", "data_type": "node", "lat": "54.6878371", "lon": "-3.4054362", "other_tags": {"amenity": "grit_bin"}}, {"name": "N/A", "amenity": "post_box", "data_type": "node", "lat": "54.7052020", "lon": "-3.3859917", "other_tags": {"amenity": "post_box", "ref": "CA13 121"}}, {"name": "N/A", "amenity": "bench", "data_type": "node", "lat": "54.7065936", "lon": "-3.3827651", "other_tags": {"amenity": "bench"}}, {"name": "N/A", "amenity": "waste_basket", "data_type": "node", "lat": "54.7079301", "lon": "-3.3711794", "other_tags": {"amenity": "waste_basket"}}, {"name": "N/A", "amenity": "grit_bin", "data_type": "node", "lat": "54.7079301", "lon": "-3.3713220", "other_tags": {"amenity": "grit_bin"}}, {"name": "N/A", "amenity": "bench", "data_type": "node", "lat": "54.7080294", "lon": "-3.3713941", "other_tags": {"amenity": "bench", "backrest": "yes", "seats": "3"}}, {"name": "N/A", "amenity": "waste_basket", "data_type": "node", "lat": "54.7070049", "lon": "-3.3803572", "other_tags": {"amenity": "waste_basket"}}, {"name": "The Bush Inn", "amenity": "pub", "data_type": "way", "lat": "54.7056661", "lon": "-3.3850301", "other_tags": {"addr:city": "Tallentire", "addr:postcode": "CA13 0PT", "addr:street": "Main Street", "amenity": "pub", "building": "yes", "name": "The Bush Inn", "phone": "+44 1900 823707", "wikidata": "Q26431322"}}, {"name": "N/A", "amenity": "parking", "data_type": "way", "lat": "54.7058910", "lon": "-3.3850150", "other_tags": {"access": "customers", "amenity": "parking", "fee": "no", "parking": "surface"}}]}, {"county": "Cumbria", "code": "E00096443", "lad": "Allerdale", "rgn_main": "North West", "population": 301, "amenities": [{"name": "N/A", "amenity": "post_box", "data_type": "node", "lat": "54.6871865", "lon": "-3.4059825", "other_tags": {"amenity": "post_box", "ref": "CA13 79"}}, {"name": "N/A", "amenity": "post_box", "data_type": "node", "lat": "54.6893821", "lon": "-3.3693393", "other_tags": {"amenity": "post_box", "brand": "Royal Mail", "brand:wikidata": "Q638098", "mapillary": "503809084151415", "operator": "Royal Mail", "operator:wikidata": "Q638098", "post_box:mounting": "stone_wall", "post_box:type": "wall", "ref": "CA13 68", "survey:date": "2021-01-25"}}, {"name": "N/A", "amenity": "grit_bin", "data_type": "node", "lat": "54.6848478", "lon": "-3.3670391", "other_tags": {"amenity": "grit_bin"}}, {"name": "N/A", "amenity": "post_box", "data_type": "node", "lat": "54.7024418", "lon": "-3.3893751", "other_tags": {"amenity": "post_box", "ref": "CA13 162"}}, {"name": "N/A", "amenity": "post_box", "data_type": "node", "lat": "54.6877118", "lon": "-3.3892723", "other_tags": {"amenity": "post_box", "brand": "Royal Mail", "brand:wikidata": "Q638098", "mapillary": "483426376316519", "operator": "Royal Mail", "operator:wikidata": "Q638098", "post_box:mounting": "pier", "post_box:type": "lamp", "ref": "CA13 153", "survey:date": "2020-03-27"}}, {"name": "N/A", "amenity": "bench", "data_type": "node", "lat": "54.6879675", "lon": "-3.4050618", "other_tags": {"amenity": "bench"}}, {"name": "Bridekirk and Dovenby School", "amenity": "school", "data_type": "way", "lat": "54.6877807", "lon": "-3.3894540", "other_tags": {"addr:postcode": "CA13 0PG", "amenity": "school", "name": "Bridekirk and Dovenby School", "ref:edubase": "112270", "source:addr:postcode": "get-information-schools.service.gov.uk"}}, {"name": "The Ship Inn", "amenity": "pub", "data_type": "way", "lat": "54.6882642", "lon": "-3.4043877", "other_tags": {"amenity": "pub", "building": "yes", "name": "The Ship Inn"}}, {"name": "N/A", "amenity": "parking", "data_type": "way", "lat": "54.6885749", "lon": "-3.4037756", "other_tags": {"access": "customers", "amenity": "parking", "capacity": "50", "fee": "no", "park_ride": "no", "parking": "surface", "supervised": "no"}}, {"name": "N/A", "amenity": "grave_yard", "data_type": "way", "lat": "54.6903926", "lon": "-3.3733882", "other_tags": {"amenity": "grave_yard"}}, {"name": "St Bridget\u2019s Church", "amenity": "place_of_worship", "data_type": "way", "lat": "54.6903763", "lon": "-3.3724603", "other_tags": {"amenity": "place_of_worship", "building": "yes", "denomination": "anglican", "name": "St Bridget\u2019s Church", "religion": "christian", "wikidata": "Q26438359"}}, {"name": "N/A", "amenity": "parking", "data_type": "way", "lat": "54.6789672", "lon": "-3.3584732", "other_tags": {"access": "customers", "amenity": "parking", "fee": "no", "park_ride": "no", "parking": "surface", "supervised": "no", "surface": "gravel"}}, {"name": "N/A", "amenity": "parking", "data_type": "way", "lat": "54.6846753", "lon": "-3.4054249", "other_tags": {"amenity": "parking"}}, {"name": "N/A", "amenity": "parking", "data_type": "way", "lat": "54.6853058", "lon": "-3.4063042", "other_tags": {"amenity": "parking"}}, {"name": "N/A", "amenity": "parking", "data_type": "way", "lat": "54.6851251", "lon": "-3.4073427", "other_tags": {"amenity": "parking"}}]}, {"county": "Cumbria", "code": "E00096444", "lad": "Allerdale", "rgn_main": "North West", "population": 387, "amenities": [{"name": "N/A", "amenity": "telephone", "data_type": "node", "lat": "54.6602066", "lon": "-3.4236494", "other_tags": {"amenity": "telephone", "booth": "KX100", "covered": "booth"}}, {"name": "N/A", "amenity": "post_box", "data_type": "node", "lat": "54.6602159", "lon": "-3.4237647", "other_tags": {"amenity": "post_box", "post_box:type": "lamp", "ref": "CA13 124", "royal_cypher": "EIIR"}}, {"name": "N/A", "amenity": "post_box", "data_type": "node", "lat": "54.6590965", "lon": "-3.4337279", "other_tags": {"amenity": "post_box", "ref": "CA13 88"}}, {"name": "N/A", "amenity": "bench", "data_type": "node", "lat": "54.6600619", "lon": "-3.4251919", "other_tags": {"amenity": "bench", "backrest": "yes", "material": "metal"}}, {"name": "St Bridgets C of E Primary School", "amenity": "school", "data_type": "way", "lat": "54.6598452", "lon": "-3.4289083", "other_tags": {"addr:city": "Brigham", "addr:postcode": "CA13 0TU", "amenity": "school", "name": "St Bridgets C of E Primary School", "phone": "+44 1900 825689", "ref:edubase": "112271", "website": "www.brigham.cumbria.sch.uk", "wikidata": "Q65973726"}}, {"name": "N/A", "amenity": "parking", "data_type": "way", "lat": "54.6596436", "lon": "-3.4277321", "other_tags": {"access": "yes", "amenity": "parking", "fee": "no", "parking": "lane", "surface": "asphalt"}}]}, {"county": "Cumbria", "code": "E00096446", "lad": "Allerdale", "rgn_main": "North West", "population": 421, "amenities": [{"name": "N/A", "amenity": "parking", "data_type": "node", "lat": "54.6639195", "lon": "-3.4291887", "other_tags": {"amenity": "parking"}}, {"name": "N/A", "amenity": "post_box", "data_type": "node", "lat": "54.6598811", "lon": "-3.4150614", "other_tags": {"amenity": "post_box", "ref": "CA13 100"}}, {"name": "N/A", "amenity": "post_box", "data_type": "node", "lat": "54.6637460", "lon": "-3.4182343", "other_tags": {"amenity": "post_box", "ref": "CA13 90"}}, {"name": "Brigham And District Social Club", "amenity": "pub", "data_type": "node", "lat": "54.6630476", "lon": "-3.4184597", "other_tags": {"addr:city": "Brigham", "addr:postcode": "CA13 0XH", "addr:street": "Low Road", "amenity": "pub", "brewery": "carling;wainwright;guniness;john_smiths;san_migel", "check_date": "2020-05-06", "contact:facebook": "https://facebook.com/profile.php?id=100083574091982", "email": "brighamsocialclub@gmail.com", "name": "Brigham And District Social Club", "phone": "+447747687691", "smoking": "outside"}}, {"name": "St Bridget's Church", "amenity": "place_of_worship", "data_type": "way", "lat": "54.6651001", "lon": "-3.4190525", "other_tags": {"amenity": "place_of_worship", "building": "yes", "denomination": "anglican", "name": "St Bridget's Church", "religion": "christian", "wikidata": "Q7592717", "wikipedia": "en:St Bridget's Church, Brigham"}}, {"name": "N/A", "amenity": "grave_yard", "data_type": "way", "lat": "54.6653963", "lon": "-3.4183542", "other_tags": {"amenity": "grave_yard"}}, {"name": "N/A", "amenity": "place_of_worship", "data_type": "way", "lat": "54.6596650", "lon": "-3.4139438", "other_tags": {"amenity": "place_of_worship", "building": "yes", "denomination": "methodist", "religion": "christian"}}, {"name": "N/A", "amenity": "parking", "data_type": "way", "lat": "54.6630057", "lon": "-3.4181728", "other_tags": {"access": "customers", "amenity": "parking", "fee": "no", "parking": "surface", "surface": "asphalt"}}]}, {"county": "Cumbria", "code": "E00096447", "lad": "Allerdale", "rgn_main": "North West", "population": 337, "amenities": [{"name": "N/A", "amenity": "post_box", "data_type": "node", "lat": "54.6702696", "lon": "-3.4383267", "other_tags": {"amenity": "post_box", "ref": "CA13 155"}}, {"name": "Broughton Primary School", "amenity": "school", "data_type": "way", "lat": "54.6720110", "lon": "-3.4388483", "other_tags": {"addr:city": "Great Broughton", "addr:postcode": "CA13 0YT", "addr:street": "Moor Road", "amenity": "school", "name": "Broughton Primary School", "phone": "+44 1900 828971", "ref:edubase": "137513", "website": "https://www.broughtonprimarysch.co.uk/"}}]}, {"county": "Cumbria", "code": "E00096448", "lad": "Allerdale", "rgn_main": "North West", "population": 269, "amenities": [{"name": "Great Broughton Post Office", "amenity": "post_office", "data_type": "node", "lat": "54.6681947", "lon": "-3.4346831", "other_tags": {"addr:city": "Cockermouth", "addr:country": "GB", "addr:housenumber": "53", "addr:postcode": "CA13 0YJ", "addr:street": "Main Street", "addr:village": "Great Broughton", "amenity": "post_office", "brand": "Post Office", "brand:wikidata": "Q1783168", "check_date": "2022-05-27", "check_date:opening_hours": "2022-05-27", "contact:website": "https://www.postoffice.co.uk/branch-finder/7804105/great-broughton-stop;https://www.postoffice.co.uk/branch-finder/7704100/great-broughton-mobile-service", "name": "Great Broughton Post Office", "opening_hours": "Fr 15:20-15:50", "ref:pol_id": "176800"}}, {"name": "N/A", "amenity": "atm", "data_type": "node", "lat": "54.6682217", "lon": "-3.4346119", "other_tags": {"amenity": "atm", "fee": "yes", "operator": "Link"}}, {"name": "N/A", "amenity": "telephone", "data_type": "node", "lat": "54.6682795", "lon": "-3.4348300", "other_tags": {"amenity": "telephone", "booth": "KX100", "covered": "booth"}}, {"name": "N/A", "amenity": "post_box", "data_type": "node", "lat": "54.6681927", "lon": "-3.4347409", "other_tags": {"amenity": "post_box", "post_box:type": "wall", "ref": "CA13 128"}}, {"name": "N/A", "amenity": "bench", "data_type": "node", "lat": "54.6618781", "lon": "-3.4355107", "other_tags": {"amenity": "bench"}}, {"name": "N/A", "amenity": "bench", "data_type": "node", "lat": "54.6626350", "lon": "-3.4538874", "other_tags": {"amenity": "bench", "backrest": "yes", "material": "steel", "seats": "3"}}, {"name": "The Punch Bowl", "amenity": "pub", "data_type": "way", "lat": "54.6689589", "lon": "-3.4326233", "other_tags": {"addr:city": "Great Broughton", "addr:housenumber": "19", "addr:postcode": "CA13 0YJ", "addr:street": "Main Street", "amenity": "pub", "building": "yes", "name": "The Punch Bowl", "phone": "+44 1900 824708"}}, {"name": "N/A", "amenity": "parking", "data_type": "way", "lat": "54.6682460", "lon": "-3.4346131", "other_tags": {"access": "customers", "amenity": "parking", "fee": "no", "park_ride": "no", "parking": "surface", "supervised": "no"}}]}, {"county": "Cumbria", "code": "E00096449", "lad": "Allerdale", "rgn_main": "North West", "population": 261, "amenities": [{"name": "N/A", "amenity": "bench", "data_type": "node", "lat": "54.6720436", "lon": "-3.4327542", "other_tags": {"amenity": "bench"}}, {"name": "N/A", "amenity": "post_box", "data_type": "node", "lat": "54.6726506", "lon": "-3.4313053", "other_tags": {"amenity": "post_box", "brand": "Royal Mail", "brand:wikidata": "Q638098", "mapillary": "180932057138301", "operator": "Royal Mail", "operator:wikidata": "Q638098", "post_box:mounting": "rendered_wall", "post_box:type": "wall", "ref": "CA13 97", "survey:date": "2020-04-10"}}, {"name": "N/A", "amenity": "bench", "data_type": "node", "lat": "54.6724631", "lon": "-3.4323560", "other_tags": {"amenity": "bench", "backrest": "yes"}}, {"name": "Sun Dial Inn", "amenity": "pub", "data_type": "way", "lat": "54.6723623", "lon": "-3.4312915", "other_tags": {"addr:city": "Little Broughton", "addr:postcode": "CA13 0XY", "amenity": "pub", "building": "yes", "name": "Sun Dial Inn", "phone": "+44 1900 825252"}}, {"name": "N/A", "amenity": "parking", "data_type": "way", "lat": "54.6723444", "lon": "-3.4314870", "other_tags": {"access": "customers", "amenity": "parking", "fee": "no", "park_ride": "no", "parking": "surface", "supervised": "no"}}, {"name": "N/A", "amenity": "parking", "data_type": "way", "lat": "54.6745331", "lon": "-3.4350118", "other_tags": {"access": "yes", "amenity": "parking", "capacity": "4", "fee": "no", "parking": "lane", "surface": "gravel"}}, {"name": "Broughton Village Hall", "amenity": "community_centre", "data_type": "way", "lat": "54.6716121", "lon": "-3.4314821", "other_tags": {"amenity": "community_centre", "building": "civic", "name": "Broughton Village Hall"}}]}, {"county": "Cumbria", "code": "E00096450", "lad": "Allerdale", "rgn_main": "North West", "population": 311, "amenities": [{"name": "N/A", "amenity": "bench", "data_type": "node", "lat": "54.6719688", "lon": "-3.4325138", "other_tags": {"amenity": "bench"}}, {"name": "N/A", "amenity": "bench", "data_type": "node", "lat": "54.6718570", "lon": "-3.4322728", "other_tags": {"amenity": "bench"}}, {"name": "N/A", "amenity": "waste_basket", "data_type": "node", "lat": "54.6719033", "lon": "-3.4323709", "other_tags": {"amenity": "waste_basket"}}, {"name": "N/A", "amenity": "post_box", "data_type": "node", "lat": "54.6710103", "lon": "-3.4334309", "other_tags": {"amenity": "post_box", "ref": "CA13 164"}}, {"name": "Christ Church", "amenity": "place_of_worship", "data_type": "way", "lat": "54.6715823", "lon": "-3.4355413", "other_tags": {"amenity": "place_of_worship", "building": "yes", "denomination": "anglican", "name": "Christ Church", "religion": "christian", "wikidata": "Q100855575"}}, {"name": "N/A", "amenity": "grave_yard", "data_type": "way", "lat": "54.6714706", "lon": "-3.4346215", "other_tags": {"amenity": "grave_yard"}}]}, {"county": "Cumbria", "code": "E00096451", "lad": "Allerdale", "rgn_main": "North West", "population": 300, "amenities": [{"name": "Brewery House", "amenity": "pub", "data_type": "way", "lat": "54.6685835", "lon": "-3.4345127", "other_tags": {"addr:city": "Great Broughton", "addr:housenumber": "70", "addr:postcode": "CA13 0YL", "addr:street": "Main Street", "amenity": "pub", "building": "yes", "name": "Brewery House", "phone": "+44 1900 824698"}}]}, {"county": "Cumbria", "code": "E00096452", "lad": "Allerdale", "rgn_main": "North West", "population": 285, "amenities": [{"name": "N/A", "amenity": "grit_bin", "data_type": "node", "lat": "54.6702886", "lon": "-3.4272496", "other_tags": {"amenity": "grit_bin"}}, {"name": "N/A", "amenity": "bench", "data_type": "node", "lat": "54.6696219", "lon": "-3.4283993", "other_tags": {"amenity": "bench"}}, {"name": "N/A", "amenity": "bench", "data_type": "node", "lat": "54.6685831", "lon": "-3.4253088", "other_tags": {"amenity": "bench", "backrest": "yes"}}, {"name": "N/A", "amenity": "bench", "data_type": "node", "lat": "54.6750278", "lon": "-3.4195161", "other_tags": {"amenity": "bench"}}, {"name": "N/A", "amenity": "waste_basket", "data_type": "node", "lat": "54.6687216", "lon": "-3.4257429", "other_tags": {"amenity": "waste_basket"}}, {"name": "N/A", "amenity": "parking", "data_type": "way", "lat": "54.6697366", "lon": "-3.4243139", "other_tags": {"amenity": "parking", "capacity": "40", "park_ride": "no", "parking": "surface"}}, {"name": "N/A", "amenity": "parking", "data_type": "way", "lat": "54.6726191", "lon": "-3.4233092", "other_tags": {"access": "customers", "amenity": "parking", "fee": "no", "park_ride": "no", "parking": "surface", "supervised": "no"}}, {"name": "Evangelical Church", "amenity": "place_of_worship", "data_type": "way", "lat": "54.6722973", "lon": "-3.4306348", "other_tags": {"amenity": "place_of_worship", "building": "yes", "name": "Evangelical Church", "religion": "christian"}}, {"name": "Baptist", "amenity": "place_of_worship", "data_type": "way", "lat": "54.6707022", "lon": "-3.4279722", "other_tags": {"amenity": "place_of_worship", "building": "yes", "name": "Baptist", "religion": "christian"}}, {"name": "N/A", "amenity": "grave_yard", "data_type": "way", "lat": "54.6709545", "lon": "-3.4279229", "other_tags": {"amenity": "grave_yard"}}, {"name": "N/A", "amenity": "parking", "data_type": "way", "lat": "54.6687250", "lon": "-3.4257206", "other_tags": {"access": "permissive", "amenity": "parking", "fee": "no", "park_ride": "no", "parking": "lane", "supervised": "no", "surface": "unpaved"}}]}, {"county": "Cumbria", "code": "E00096453", "lad": "Allerdale", "rgn_main": "North West", "population": 378, "amenities": [{"name": "N/A", "amenity": "post_box", "data_type": "node", "lat": "54.6729215", "lon": "-3.3780158", "other_tags": {"amenity": "post_box", "ref": "CA13 80"}}, {"name": "N/A", "amenity": "telephone", "data_type": "node", "lat": "54.6698656", "lon": "-3.3807399", "other_tags": {"amenity": "telephone", "booth": "KX100", "covered": "booth", "defibrillator:location": "inside old phone box in Papcastle", "emergency": "defibrillator", "man_made": "telephone_box"}}, {"name": "N/A", "amenity": "post_box", "data_type": "node", "lat": "54.6705716", "lon": "-3.3802127", "other_tags": {"amenity": "post_box", "ref": "CA13 142"}}, {"name": "N/A", "amenity": "grit_bin", "data_type": "node", "lat": "54.6706175", "lon": "-3.3801870", "other_tags": {"amenity": "grit_bin"}}, {"name": "N/A", "amenity": "post_box", "data_type": "node", "lat": "54.6690283", "lon": "-3.3823412", "other_tags": {"amenity": "post_box", "post_box:type": "lamp", "ref": "CA13 175", "royal_cypher": "EIIR"}}, {"name": "N/A", "amenity": "bench", "data_type": "node", "lat": "54.6697500", "lon": "-3.3805737", "other_tags": {"amenity": "bench"}}, {"name": "The Belle View", "amenity": "pub", "data_type": "way", "lat": "54.6731360", "lon": "-3.3781999", "other_tags": {"addr:city": "Papcastle", "addr:postcode": "CA13 0NT", "amenity": "pub", "building": "yes", "building:levels": "2", "check_date": "2023-03-16", "contact:facebook": "https://www.facebook.com/thebellevuepapcastle", "contact:phone": "+44 1900 821388", "name": "The Belle View"}}, {"name": "N/A", "amenity": "parking", "data_type": "way", "lat": "54.6733431", "lon": "-3.3779380", "other_tags": {"amenity": "parking"}}, {"name": "Village Hall", "amenity": "community_centre", "data_type": "way", "lat": "54.6695126", "lon": "-3.3830525", "other_tags": {"alt_name": "Village Reading Room", "amenity": "community_centre", "building": "public", "community_centre": "village_hall", "name": "Village Hall", "start_date": "1895"}}]}, {"county": "Cumbria", "code": "E00096454", "lad": "Allerdale", "rgn_main": "North West", "population": 241, "amenities": [{"name": "Cockermouth Post Office", "amenity": "post_office", "data_type": "node", "lat": "54.6624438", "lon": "-3.3644136", "other_tags": {"addr:city": "Cockermouth", "addr:country": "GB", "addr:housenumber": "12", "addr:postcode": "CA13 9QW", "addr:street": "Station Street", "amenity": "post_office", "brand": "Post Office", "brand:wikidata": "Q1783168", "check_date": "2022-05-27", "check_date:opening_hours": "2022-05-27", "contact:website": "https://www.postoffice.co.uk/branch-finder/3474100/cockermouth", "name": "Cockermouth Post Office", "opening_hours": "Mo-Sa 09:00-17:30", "phone": "+44 1900 825890", "ref:pol_id": "13303"}}, {"name": "Barclays", "amenity": "bank", "data_type": "node", "lat": "54.6638619", "lon": "-3.3640474", "other_tags": {"addr:city": "Cockermouth", "addr:housenumber": "30", "addr:postcode": "CA13 9LQ", "addr:street": "Main Street", "amenity": "bank", "brand": "Barclays", "brand:wikidata": "Q245343", "brand:wikipedia": "en:Barclays", "name": "Barclays", "operator": "Barclays Bank PLC", "phone": "+44 845 755 5555"}}, {"name": "N/A", "amenity": "atm", "data_type": "node", "lat": "54.6628018", "lon": "-3.3641977", "other_tags": {"amenity": "atm", "operator": "NatWest"}}, {"name": "N/A", "amenity": "atm", "data_type": "node", "lat": "54.6638301", "lon": "-3.3640138", "other_tags": {"amenity": "atm", "operator": "Barclays Bank PLC"}}, {"name": "The Spice Club", "amenity": "restaurant", "data_type": "node", "lat": "54.6635948", "lon": "-3.3639460", "other_tags": {"addr:city": "Cockermouth", "addr:housenumber": "25-27", "addr:postcode": "CA13 9LE", "addr:street": "Main Street", "amenity": "restaurant", "cuisine": "indian", "fhrs:id": "268122", "name": "The Spice Club", "phone": "+44 1900 828288", "website": "http://www.thespiceclubcockermouth.co.uk/"}}, {"name": "J.W.W. Allison", "amenity": "pharmacy", "data_type": "node", "lat": "54.6635777", "lon": "-3.3641499", "other_tags": {"addr:city": "Cockermouth", "addr:housenumber": "31", "addr:postcode": "CA13 9LE", "addr:street": "Main Street", "amenity": "pharmacy", "fhrs:id": "267245", "healthcare": "pharmacy", "name": "J.W.W. Allison", "phone": "+44 1900 822292", "website": "https://www.allisonschemist.com/"}}, {"name": "Merienda", "amenity": "restaurant", "data_type": "node", "lat": "54.6632779", "lon": "-3.3642816", "other_tags": {"addr:city": "Cockermouth", "addr:housenumber": "7a", "addr:postcode": "CA13 9QW", "addr:street": "Station Street", "amenity": "restaurant", "fhrs:id": "267278", "name": "Merienda", "phone": "+44 1900 822790", "website": "http://www.merienda.co.uk/home.html"}}, {"name": "The Mangal", "amenity": "fast_food", "data_type": "node", "lat": "54.6626350", "lon": "-3.3641121", "other_tags": {"addr:city": "Cockermouth", "addr:housenumber": "31", "addr:postcode": "CA13 9QW", "addr:street": "Station Street", "amenity": "fast_food", "cuisine": "kebab", "delivery": "yes", "fhrs:id": "267276", "name": "The Mangal", "phone": "+44 1900 828878", "takeaway": "only", "website": "https://themangal.co.uk/"}},